{"version": 0.6, "generator": "Overpass API 0.7.62.8 e802775f", "osm3s": {"timestamp_osm_base": "2026-01-04T11:50:00Z", "copyright": "The data included in this document is from www.openstreetmap.org. The data is made available under ODbL."}, "elements": [{"type": "node", "id": 276282592, "lat": 48.7571471, "lon": 14.0134328, "tags": {"bus": "yes", "highway": "bus_stop", "name": "Horn\u00ed Plan\u00e1, Bli\u017e\u0161\u00ed Lhota", "official_name": "Horn\u00ed Plan\u00e1,Bli\u017e\u0161\u00ed Lhota", "public_transport": "stop_position", "ref:CIS_JR": "1598"}}, {"type": "node", "id": 302704052, "lat": 48.8163215, "lon": 13.8784052, "tags": {"bus": "yes", "highway": "bus_stop", "name": "Nov\u00e1 Pec, Jelen\u00ed Vrchy", "official_name": "Nov\u00e1 Pec,,Jelen\u00ed Vrchy", "public_transport": "stop_position", "ref:CIS_JR": "47523"}}, {"type": "node", "id": 332570963, "lat": 48.7578127, "lon": 14.338545, "tags": {"bench": "yes", "bin": "no", "bus": "yes", "highway": "bus_stop", "lit": "no", "name": "P\u0159\u00eddol\u00ed, Pr\u00e1\u010dov", "official_name": "P\u0159\u00eddol\u00ed,Pr\u00e1\u010dov", "public_transport": "platform", "ref:CIS_JR": "28889", "shelter": "yes", "tactile_paving": "no"}}, {"type": "node", "id": 337920147, "lat": 48.6164753, "lon": 13.9685871, "tags": {"bench": "no", "bin": "no", "bus": "yes", "check_date:shelter": "2025-05-01", "highway": "bus_stop", "lit": "no", "name": "Katzing b.Rohrbach", "public_transport": "platform", "shelter": "no", "tactile_paving": "no"}}, {"type": "node", "id": 337920163, "lat": 48.6169291, "lon": 13.9686213, "tags": {"bench": "yes", "bin": "yes", "bus": "yes", "check_date:shelter": "2025-05-01", "highway": "bus_stop", "lit": "no", "name": "Katzing b.Rohrbach", "public_transport": "platform", "shelter": "yes", "tactile_paving": "no"}}, {"type": "node", "id": 337922036, "lat": 48.6248589, "lon": 13.976002, "tags": {"bus": "yes", "highway": "bus_stop", "name": "Weichsberg", "public_transport": "platform"}}, {"type": "node", "id": 337927120, "lat": 48.6463951, "lon": 13.9714906, "tags": {"bench": "no", "bin": "yes", "bus": "yes", "highway": "bus_stop", "lit": "yes", "name": "Aigen-Schl\u00e4gl Marktplatz", "public_transport": "platform", "shelter": "no"}}, {"type": "node", "id": 337927124, "lat": 48.6466269, "lon": 13.9715578, "tags": {"bench": "no", "bin": "yes", "bus": "yes", "highway": "bus_stop", "lit": "yes", "name": "Aigen-Schl\u00e4gl Marktplatz", "public_transport": "platform", "shelter": "no"}}, {"type": "node", "id": 337927128, "lat": 48.6369001, "lon": 13.9662459, "tags": {"bench": "yes", "bin": "yes", "bus": "yes", "highway": "bus_stop", "lit": "yes", "name": "Aigen-Schl\u00e4gl Stift", "public_transport": "platform", "shelter": "yes"}}, {"type": "node", "id": 337927134, "lat": 48.6343089, "lon": 13.9662377, "tags": {"bench": "yes", "bus": "yes", "highway": "bus_stop", "name": "Aigen-Schl\u00e4gl Pendlerparkplatz/B127", "public_transport": "platform", "shelter": "yes"}}, {"type": "node", "id": 337928222, "lat": 48.6349607, "lon": 13.9662579, "tags": {"bus": "yes", "highway": "bus_stop", "name": "Aigen-Schl\u00e4gl Pendlerparkplatz/B127", "public_transport": "platform", "shelter": "yes"}}, {"type": "node", "id": 339701172, "lat": 48.6257326, "lon": 13.9745851, "tags": {"bus": "yes", "highway": "bus_stop", "name": "Weichsberg", "public_transport": "platform"}}, {"type": "node", "id": 345520885, "lat": 48.6154052, "lon": 13.9933832, "tags": {"bus": "yes", "highway": "bus_stop", "name": "Reith", "public_transport": "platform"}}, {"type": "node", "id": 364779759, "lat": 48.8609144, "lon": 13.7299363, "tags": {"bus": "yes", "highway": "bus_stop", "name": "Anw. Springer", "public_transport": "stop_position", "ref_name": "Bischofsreut Anw. Springer, Haidm\u00fchle", "uic_ref": "542621"}}, {"type": "node", "id": 364779760, "lat": 48.8561211, "lon": 13.7349798, "tags": {"bus": "yes", "highway": "bus_stop", "name": "Bischofsreut Gemeinde", "public_transport": "stop_position", "ref:IFOPT": "de:09272:4866"}}, {"type": "node", "id": 364779763, "lat": 48.8532025, "lon": 13.7325379, "tags": {"bus": "yes", "highway": "bus_stop", "name": "Bischofsreut Kirche", "public_transport": "stop_position", "ref:IFOPT": "de:09272:4867:0:2", "uic_ref": "542623"}}, {"type": "node", "id": 364779764, "lat": 48.8472554, "lon": 13.7360986, "tags": {"bus": "yes", "highway": "bus_stop", "name": "Anw. Berger", "public_transport": "stop_position", "ref:IFOPT": "de:09272:4868", "ref_name": "Bischofsreut Anw. Berger, Haidm\u00fchle", "uic_ref": "542624"}}, {"type": "node", "id": 444634478, "lat": 48.617075, "lon": 14.3110547, "tags": {"bus": "yes", "highway": "bus_stop", "name": "Vy\u0161\u0161\u00ed Brod, n\u00e1m.", "official_name": "Vy\u0161\u0161\u00ed Brod,,n\u00e1m.", "public_transport": "stop_position", "ref:CIS_JR": "41050"}}, {"type": "node", "id": 465749040, "lat": 48.687594, "lon": 13.7903719, "tags": {"bus": "yes", "highway": "bus_stop", "name": "Weidinger-Holz", "public_transport": "stop_position"}}, {"type": "node", "id": 465749185, "lat": 48.6750842, "lon": 13.7902893, "tags": {"bus": "yes", "highway": "bus_stop", "name": "Hangerleiten", "public_transport": "stop_position"}}, {"type": "node", "id": 465749209, "lat": 48.6746554, "lon": 13.7901518, "tags": {"bus": "yes", "highway": "bus_stop", "name": "Hangerleiten", "public_transport": "stop_position"}}, {"type": "node", "id": 465749282, "lat": 48.6660643, "lon": 13.7890139, "tags": {"bus": "yes", "highway": "bus_stop", "name": "Hangerleiten, Kronawitterkapelle", "public_transport": "stop_position"}}, {"type": "node", "id": 465749285, "lat": 48.6656203, "lon": 13.7889782, "tags": {"bus": "yes", "highway": "bus_stop", "name": "Hangerleiten, Kronawitterkapelle", "public_transport": "stop_position"}}, {"type": "node", "id": 476263620, "lat": 48.5803529, "lon": 14.1859913, "tags": {"bus": "yes", "highway": "bus_stop", "name": "Sch\u00f6negg", "public_transport": "platform", "shelter": "no"}}, {"type": "node", "id": 476263621, "lat": 48.5792976, "lon": 14.187033, "tags": {"bus": "yes", "highway": "bus_stop", "name": "Sch\u00f6negg", "public_transport": "platform", "shelter": "yes"}}, {"type": "node", "id": 476263622, "lat": 48.5898657, "lon": 14.1743764, "tags": {"bench": "yes", "bin": "yes", "bus": "yes", "highway": "bus_stop", "lit": "no", "name": "Guglwald", "public_transport": "platform", "shelter": "yes", "tactile_paving": "no"}}, {"type": "node", "id": 775373934, "lat": 48.8057585, "lon": 14.3142894, "tags": {"bench": "yes", "bus": "yes", "departures_board": "timetable", "highway": "bus_stop", "name": "\u010cesk\u00fd Krumlov, Tav\u00edrna", "network": "Busem", "official_name": "\u010cesk\u00fd Krumlov,Tav\u00edrna", "operator": "\u010cSAD Autobusy \u010cesk\u00e9 Bud\u011bjovice a.s.", "public_transport": "platform", "ref:CIS_JR": "4986", "shelter": "yes"}}, {"type": "node", "id": 1038334793, "lat": 48.6077341, "lon": 14.0282263, "tags": {"bus": "yes", "highway": "bus_stop", "name": "Schwackerreith", "public_transport": "platform"}}, {"type": "node", "id": 1038334798, "lat": 48.6028825, "lon": 14.0359612, "tags": {"bus": "yes", "highway": "bus_stop", "name": "Damreith", "public_transport": "platform"}}, {"type": "node", "id": 1038334803, "lat": 48.6077951, "lon": 14.0282833, "tags": {"bus": "yes", "highway": "bus_stop", "name": "Schwackerreith", "public_transport": "platform"}}, {"type": "node", "id": 1038334820, "lat": 48.6030442, "lon": 14.0360671, "tags": {"bus": "yes", "highway": "bus_stop", "name": "Damreith", "public_transport": "platform"}}, {"type": "node", "id": 1038334827, "lat": 48.6191511, "lon": 14.0312616, "tags": {"bus": "yes", "highway": "bus_stop", "name": "St. Oswald b. Haslach Ortsmitte", "public_transport": "platform"}}, {"type": "node", "id": 1038334831, "lat": 48.6191106, "lon": 14.0311148, "tags": {"bus": "yes", "highway": "bus_stop", "name": "St. Oswald b. Haslach Ortsmitte", "public_transport": "platform"}}, {"type": "node", "id": 1066697055, "lat": 48.5899768, "lon": 14.1743587, "tags": {"bench": "no", "bin": "no", "bus": "yes", "highway": "bus_stop", "lit": "no", "name": "Guglwald", "public_transport": "platform", "shelter": "no", "tactile_paving": "no"}}, {"type": "node", "id": 1232372739, "lat": 48.6923211, "lon": 13.7793137, "tags": {"bus": "yes", "highway": "bus_stop", "name": "Gegenbach", "public_transport": "stop_position"}}, {"type": "node", "id": 1234327521, "lat": 48.6762027, "lon": 13.7934556, "tags": {"bus": "yes", "highway": "bus_stop", "name": "Gollnerberg, Schule", "public_transport": "stop_position"}}, {"type": "node", "id": 1411469771, "lat": 48.827027, "lon": 13.7745605, "tags": {"bus": "yes", "highway": "bus_stop", "name": "Haidm\u00fchle M\u00fchldorfer", "public_transport": "stop_position", "uic_ref": "542628"}}, {"type": "node", "id": 1411532672, "lat": 48.7670112, "lon": 13.7305007, "tags": {"bus": "yes", "highway": "bus_stop", "name": "Altreichenau, Abzw Jandelsbrunn", "public_transport": "stop_position", "ref:IFOPT": "de:09272:9258"}}, {"type": "node", "id": 1451214915, "lat": 48.7372362, "lon": 13.8989191, "tags": {"bench": "no", "bus": "yes", "highway": "bus_stop", "name": "Hochficht Schilift Talstation", "public_transport": "platform", "shelter": "no"}}, {"type": "node", "id": 1843796144, "lat": 48.7234011, "lon": 13.727929, "tags": {"bench": "no", "bin": "no", "bus": "yes", "highway": "bus_stop", "kerb": "raised", "kerb:height": "0.14", "lit": "no", "name": "Gsegnet, Am Michelbach", "platform:width": "1.4", "public_transport": "platform", "ref:IFOPT": "de:09272:5790:0:1", "ref_name": "Am Michelbach, Neureichenau-Gsegnet", "shelter": "no", "tactile_paving": "no"}}, {"type": "node", "id": 1843796145, "lat": 48.7235321, "lon": 13.7280366, "tags": {"bench": "yes", "bin": "no", "bus": "yes", "highway": "bus_stop", "kerb": "raised", "kerb:height": "0.11", "lit": "no", "name": "Gsegnet, Am Michelbach", "platform:width": "3.6", "public_transport": "platform", "ref:IFOPT": "de:09272:5790:0:2", "ref_name": "Am Michelbach, Neureichenau-Gsegnet", "shelter": "yes", "tactile_paving": "no"}}, {"type": "node", "id": 1843796148, "lat": 48.7243853, "lon": 13.7217055, "tags": {"bench": "no", "bin": "no", "bus": "yes", "highway": "bus_stop", "kerb": "raised", "kerb:height": "0.12", "lit": "no", "name": "Neureichenau Pfifferhof", "platform:width": "1.5", "public_transport": "platform", "ref:IFOPT": "de:09272:4924:0:1", "ref_name": "Pfifferhof, Neureichenau", "shelter": "no", "tactile_paving": "no"}}, {"type": "node", "id": 1843796149, "lat": 48.7246203, "lon": 13.7228573, "tags": {"bench": "yes", "bin": "no", "bus": "yes", "highway": "bus_stop", "kerb": "raised", "kerb:height": "0.10", "lit": "no", "name": "Neureichenau Pfifferhof", "platform:width": "3.6", "public_transport": "platform", "ref:IFOPT": "de:09272:4924:0:2", "ref_name": "Pfifferhof, Neureichenau", "shelter": "yes", "tactile_paving": "no"}}, {"type": "node", "id": 1843809807, "lat": 48.7252696, "lon": 13.7361389, "tags": {"bench": "yes", "bin": "no", "bus": "yes", "highway": "bus_stop", "kerb": "raised", "kerb:height": "0.11", "name": "Gsenget Ortsmitte", "platform:width": "3.7", "public_transport": "platform", "ref:IFOPT": "de:09272:4925:0:1", "shelter": "yes", "tactile_paving": "no"}}, {"type": "node", "id": 1843809811, "lat": 48.7242028, "lon": 13.7325287, "tags": {"bench": "yes", "bin": "no", "bus": "yes", "highway": "bus_stop", "kerb": "raised", "kerb:height": "0.10", "lit": "no", "name": "Gsenget Goldbachstra\u00dfe", "platform:width": "3.3", "public_transport": "platform", "ref:IFOPT": "de:09272:82360:0:1", "shelter": "yes", "tactile_paving": "no"}}, {"type": "node", "id": 1843856128, "lat": 48.7307152, "lon": 13.7595659, "tags": {"bench": "no", "bin": "no", "bus": "yes", "highway": "bus_stop", "kerb": "raised", "kerb:height": "0.10", "name": "Langbruck", "platform:width": "1.4", "public_transport": "platform", "ref:IFOPT": "de:09272:4927:0:2", "shelter": "no", "wheelchair": "no"}}, {"type": "node", "id": 1843856132, "lat": 48.7307074, "lon": 13.7593586, "tags": {"bench": "yes", "bin": "no", "bus": "yes", "highway": "bus_stop", "kerb": "raised", "kerb:height": "0.04", "name": "Langbruck", "platform:width": "1.4", "public_transport": "platform", "ref:IFOPT": "de:09272:4927:0:1", "shelter": "yes", "tactile_paving": "no", "wheelchair": "limited"}}, {"type": "node", "id": 1843856137, "lat": 48.7473169, "lon": 13.7477169, "tags": {"bench": "yes", "bus": "yes", "highway": "bus_stop", "kerb": "raised", "kerb:height": "0.14", "name": "Neureichenau Rathaus", "platform:width": "4.1", "public_transport": "platform", "ref:IFOPT": "de:09272:4930:0:1", "shelter": "yes"}}, {"type": "node", "id": 1843856141, "lat": 48.7473769, "lon": 13.7478685, "tags": {"bus": "yes", "highway": "bus_stop", "kerb": "raised", "kerb:height": "0.10", "name": "Neureichenau Rathaus", "platform:width": "1.6", "public_transport": "platform", "ref:IFOPT": "de:09272:4930:0:2"}}, {"type": "node", "id": 1843856144, "lat": 48.7514905, "lon": 13.7457139, "tags": {"bus": "yes", "highway": "bus_stop", "kerb": "raised", "kerb:height": "0.10", "name": "Neureichenau Sonnwendberg", "platform:width": "1.6", "public_transport": "platform", "ref:IFOPT": "de:09272:4931:0:1"}}, {"type": "node", "id": 1843856147, "lat": 48.7515689, "lon": 13.7457971, "tags": {"bus": "yes", "highway": "bus_stop", "name": "Neureichenau Sonnwendberg", "platform:width": "3.3", "public_transport": "platform", "ref:IFOPT": "de:09272:4931:0:2"}}, {"type": "node", "id": 1843856150, "lat": 48.7445299, "lon": 13.7504568, "tags": {"bus": "yes", "highway": "bus_stop", "kerb": "raised", "kerb:height": "0.13", "name": "Neureichenau Gesundheitspark", "old_name": "Neureichenau Vorderm\u00fchle", "platform:width": "1.4", "public_transport": "platform", "ref:IFOPT": "de:09272:4929:0:2"}}, {"type": "node", "id": 1843856154, "lat": 48.7446638, "lon": 13.7506443, "tags": {"bench": "yes", "bus": "yes", "highway": "bus_stop", "kerb": "raised", "kerb:height": "0.12", "name": "Neureichenau Gesundheitspark", "old_name": "Neureichenau Vorderm\u00fchle", "platform:width": "3.3", "public_transport": "platform", "ref:IFOPT": "de:09272:4929:0:1", "ref_name": "Vorderm\u00fchle, Neureichenau", "shelter": "yes"}}, {"type": "node", "id": 1843874546, "lat": 48.7681727, "lon": 13.7313476, "tags": {"bus": "yes", "highway": "bus_stop", "kerb": "raised", "kerb:height": "0.08", "name": "Altreichenau, Gh. Schmid", "platform:width": "2.5", "public_transport": "platform", "ref:IFOPT": "de:09272:4933:0:1", "ref_name": "Altreichenau Gh. Schmid, Neureichenau"}}, {"type": "node", "id": 1843874549, "lat": 48.7593556, "lon": 13.7364347, "tags": {"bench": "yes", "bus": "yes", "highway": "bus_stop", "kerb": "raised", "kerb:height": "0.10", "name": "Neureichenau Lackerau", "platform:width": "1.5", "public_transport": "platform", "ref:IFOPT": "de:09272:4932:0:2", "shelter": "yes"}}, {"type": "node", "id": 1843874557, "lat": 48.7594869, "lon": 13.7360605, "tags": {"bus": "yes", "highway": "bus_stop", "kerb": "raised", "kerb:height": "0.14", "name": "Neureichenau Lackerau", "platform:width": "1.4", "public_transport": "platform", "ref:IFOPT": "de:09272:4932:0:1"}}, {"type": "node", "id": 1843905616, "lat": 48.791374, "lon": 13.7604559, "tags": {"highway": "bus_stop", "kerb": "raised", "kerb:height": "0.07", "name": "Frauenberg Jugendherberge", "platform:width": "1.5", "public_transport": "platform", "ref:IFOPT": "de:09272:4938:0:1", "shelter": "no"}}, {"type": "node", "id": 1843905621, "lat": 48.7914086, "lon": 13.7597482, "tags": {"bench": "yes", "highway": "bus_stop", "kerb": "raised", "kerb:height": "0.07", "name": "Frauenberg Jugendherberge", "platform:width": "1.2", "public_transport": "platform", "ref:IFOPT": "de:09272:4938:0:2", "shelter": "yes", "wheelchair": "no"}}, {"type": "node", "id": 1843905624, "lat": 48.7870445, "lon": 13.7460438, "tags": {"highway": "bus_stop", "kerb": "raised", "kerb:height": "0.16", "name": "Frauenberg Schmid", "platform:width": "1.3", "public_transport": "platform", "ref:IFOPT": "de:09272:4937:0:2", "shelter": "no"}}, {"type": "node", "id": 1843905634, "lat": 48.7871459, "lon": 13.7458868, "tags": {"highway": "bus_stop", "kerb": "raised", "kerb:height": "0.14", "name": "Frauenberg Schmid", "platform:width": "1.4", "public_transport": "platform", "ref:IFOPT": "de:09272:4937:0:1"}}, {"type": "node", "id": 1843905647, "lat": 48.7769545, "lon": 13.7346771, "tags": {"highway": "bus_stop", "kerb": "raised", "kerb:height": "0.15", "name": "Branntweinh\u00e4user Rauch", "platform:width": "1.6", "public_transport": "platform", "ref:IFOPT": "de:09272:4935:0:2"}}, {"type": "node", "id": 1843905652, "lat": 48.7769843, "lon": 13.7342574, "tags": {"bench": "yes", "highway": "bus_stop", "kerb": "raised", "kerb:height": "0.17", "name": "Branntweinh\u00e4user Rauch", "platform:width": "3.3", "public_transport": "platform", "ref:IFOPT": "de:09272:4935:0:1", "shelter": "yes"}}, {"type": "node", "id": 1843922222, "lat": 48.8199321, "lon": 13.7717298, "tags": {"bench": "no", "bin": "no", "bus": "yes", "highway": "bus_stop", "kerb": "raised", "kerb:height": "0.13", "name": "Haidm\u00fchle Reiterhof", "platform:width": "1", "public_transport": "platform", "ref:IFOPT": "de:09272:4941:0:2", "shelter": "no", "wheelchair": "no"}}, {"type": "node", "id": 1843922224, "lat": 48.8202286, "lon": 13.7718341, "tags": {"bench": "no", "bin": "no", "bus": "yes", "highway": "bus_stop", "kerb": "raised", "kerb:height": "0.12", "name": "Haidm\u00fchle Reiterhof", "platform:width": "1.1", "public_transport": "platform", "ref:IFOPT": "de:09272:4941:0:1", "shelter": "no", "wheelchair": "no"}}, {"type": "node", "id": 1843922228, "lat": 48.8239207, "lon": 13.7749675, "tags": {"bus": "yes", "highway": "bus_stop", "kerb": "raised", "kerb:height": "0.11", "name": "Haidm\u00fchle Scherz", "platform:width": "1.5", "public_transport": "platform", "ref:IFOPT": "de:09272:4898:0:1"}}, {"type": "node", "id": 1843922231, "lat": 48.8239611, "lon": 13.7748169, "tags": {"bus": "yes", "highway": "bus_stop", "kerb": "raised", "kerb:height": "0.14", "name": "Haidm\u00fchle Scherz", "platform:width": "1.5", "public_transport": "platform", "ref:IFOPT": "de:09272:4898:0:2"}}, {"type": "node", "id": 1843931901, "lat": 48.8292005, "lon": 13.7881518, "tags": {"bus": "yes", "highway": "bus_stop", "name": "Haidm\u00fchle Grenze", "public_transport": "platform", "ref:IFOPT": "de:09272:11614:0:1", "surface": "unpaved", "wheelchair": "no"}}, {"type": "node", "id": 2083542741, "lat": 48.6407454, "lon": 13.854906, "tags": {"amenity": "shelter", "bus": "yes", "highway": "bus_stop", "public_transport": "platform", "source": "geoimage.at"}}, {"type": "node", "id": 2089725010, "lat": 48.9097035, "lon": 13.8912752, "tags": {"bus": "yes", "highway": "bus_stop", "name": "Volary, autobusov\u00e9 n\u00e1dra\u017e\u00ed", "official_name": "Volary,,aut.n\u00e1dr.", "public_transport": "platform", "ref:CIS_JR": "40034"}}, {"type": "node", "id": 2131270724, "lat": 48.7286194, "lon": 13.7502279, "tags": {"bus": "yes", "highway": "bus_stop", "name": "Kleingsenget Abzw.", "public_transport": "stop_position", "uic_ref": "542632"}}, {"type": "node", "id": 2131270738, "lat": 48.7245309, "lon": 13.7223423, "tags": {"bus": "yes", "highway": "bus_stop", "name": "Pfifferhof", "public_transport": "stop_position", "uic_ref": "542680"}}, {"type": "node", "id": 2131270776, "lat": 48.7256342, "lon": 13.7364398, "tags": {"bench": "yes", "bin": "no", "bus": "yes", "highway": "bus_stop", "kerb": "raised", "kerb:height": "0.10", "lit": "yes", "name": "Gsenget Ortsmitte", "platform:width": "3.9", "public_transport": "platform", "ref:IFOPT": "de:09272:4925:0:2", "shelter": "yes", "tactile_paving": "no"}}, {"type": "node", "id": 2131489754, "lat": 48.7376201, "lon": 13.7553066, "tags": {"bus": "yes", "highway": "bus_stop", "name": "Gern", "public_transport": "stop_position", "uic_ref": "542684"}}, {"type": "node", "id": 2138889059, "lat": 48.7680063, "lon": 13.7310991, "tags": {"bus": "yes", "fixme": "Falsche Position", "highway": "bus_stop", "name": "Altreichenau, Gh. Schmid", "public_transport": "stop_position", "ref:IFOPT": "de:09272:4933", "uic_ref": "542689"}}, {"type": "node", "id": 2139236762, "lat": 48.7834358, "lon": 13.7394967, "tags": {"bus": "yes", "highway": "bus_stop", "name": "Branntweinh\u00e4user Frankenwirt", "public_transport": "stop_position", "ref_name": "Branntweinh\u00e4user Frankenw., Neureichenau", "uic_ref": "542692"}}, {"type": "node", "id": 2139791995, "lat": 48.7914856, "lon": 13.7662094, "tags": {"bus": "yes", "highway": "bus_stop", "name": "Frauenberg, Eckm\u00fcller", "public_transport": "stop_position", "ref_name": "Eckm\u00fcller, Haidm\u00fchle-Frauenberg", "uic_ref": "542695"}}, {"type": "node", "id": 2139794029, "lat": 48.7952788, "lon": 13.7731486, "tags": {"bus": "yes", "highway": "bus_stop", "name": "Skilift, Dreisessel", "public_transport": "stop_position", "ref_name": "Skilift Dreisessel, Haidm\u00fchle", "uic_ref": "542696"}}, {"type": "node", "id": 2139908559, "lat": 48.8287563, "lon": 13.766968, "tags": {"bus": "yes", "highway": "bus_stop", "name": "Haidm\u00fchle Anw. Sammer", "public_transport": "stop_position", "ref:IFOPT": "de:09272:4871"}}, {"type": "node", "id": 2244491730, "lat": 48.6377609, "lon": 13.8774262, "tags": {"bus": "yes", "highway": "bus_stop", "name": "Julbach im M\u00fchlkreis Niederkraml", "public_transport": "platform"}}, {"type": "node", "id": 2244491734, "lat": 48.6377956, "lon": 13.8776058, "tags": {"bus": "yes", "highway": "bus_stop", "name": "Julbach im M\u00fchlkreis Niederkraml", "public_transport": "platform"}}, {"type": "node", "id": 2244498876, "lat": 48.6633454, "lon": 13.8664817, "tags": {"bus": "yes", "highway": "bus_stop", "name": "Julbach im M\u00fchlkreis Kraupenberg", "public_transport": "platform", "shelter": "yes"}}, {"type": "node", "id": 2244498877, "lat": 48.663372, "lon": 13.8666848, "tags": {"bus": "yes", "check_date:shelter": "2025-06-30", "highway": "bus_stop", "name": "Julbach im M\u00fchlkreis Kraupenberg", "public_transport": "platform", "shelter": "yes"}}, {"type": "node", "id": 2244498878, "lat": 48.6589388, "lon": 13.8670486, "tags": {"bus": "yes", "highway": "bus_stop", "name": "Julbach im M\u00fchlkreis Ortsmitte", "public_transport": "platform"}}, {"type": "node", "id": 2244498879, "lat": 48.65945, "lon": 13.8657852, "tags": {"bench": "yes", "bus": "yes", "highway": "bus_stop", "name": "Julbach im M\u00fchlkreis Ortsmitte", "public_transport": "platform", "shelter": "yes"}}, {"type": "node", "id": 2244498882, "lat": 48.6585152, "lon": 13.8710884, "tags": {"bus": "yes", "highway": "bus_stop", "name": "Julbach im M\u00fchlkreis Feuerwehr", "public_transport": "platform"}}, {"type": "node", "id": 2244498886, "lat": 48.6586086, "lon": 13.871053, "tags": {"bus": "yes", "highway": "bus_stop", "name": "Julbach im M\u00fchlkreis Feuerwehr", "public_transport": "platform"}}, {"type": "node", "id": 2299218085, "lat": 48.6619975, "lon": 13.9476757, "tags": {"bus": "yes", "highway": "bus_stop", "name": "Schindlau Ortsmitte", "public_transport": "platform"}}, {"type": "node", "id": 2299218086, "lat": 48.6620426, "lon": 13.9478433, "tags": {"bus": "yes", "highway": "bus_stop", "name": "Schindlau Ortsmitte", "public_transport": "platform"}}, {"type": "node", "id": 2334507903, "lat": 48.8326584, "lon": 14.3027976, "tags": {"bench": "yes", "bus": "yes", "departures_board": "timetable", "highway": "bus_stop", "name": "Vy\u0161n\u00fd - osada", "network": "Busem", "official_name": "\u010cesk\u00fd Krumlov,Vy\u0161n\u00fd,osada", "operator": "\u010cSAD Autobusy \u010cesk\u00e9 Bud\u011bjovice a.s.", "public_transport": "platform", "ref:CIS_JR": "4991", "shelter": "yes"}}, {"type": "node", "id": 2897835265, "lat": 48.825634, "lon": 14.3358044, "tags": {"bench": "yes", "bin": "yes", "bus": "yes", "highway": "bus_stop", "kerb": "no", "lit": "yes", "name": "\u010cesk\u00fd Krumlov, Domoradice", "official_name": "\u010cesk\u00fd Krumlov,Domoradice", "passenger_information_display": "no", "public_transport": "platform", "ref:CIS_JR": "4970", "shelter": "yes", "tactile_paving": "no"}}, {"type": "node", "id": 2897835266, "lat": 48.8261605, "lon": 14.3366076, "tags": {"bench": "yes", "bin": "yes", "bus": "yes", "highway": "bus_stop", "kerb": "raised", "lit": "yes", "name": "\u010cesk\u00fd Krumlov, Domoradice", "official_name": "\u010cesk\u00fd Krumlov,Domoradice", "passenger_information_display": "no", "public_transport": "platform", "ref:CIS_JR": "4970", "shelter": "yes", "tactile_paving": "no"}}, {"type": "node", "id": 2897844120, "lat": 48.8200706, "lon": 14.3254718, "tags": {"bench": "yes", "bin": "yes", "bus": "yes", "departures_board": "timetable", "highway": "bus_stop", "lit": "yes", "name": "\u010cesk\u00fd Krumlov, Svat\u00e1 Trojice", "network": "Busem", "official_name": "\u010cesk\u00fd Krumlov,,Sv.Trojice", "operator": "\u010cSAD Autobusy \u010cesk\u00e9 Bud\u011bjovice a.s.", "public_transport": "platform", "ref:CIS_JR": "4984", "shelter": "yes", "tactile_paving": "no", "wheelchair": "yes"}}, {"type": "node", "id": 2897844121, "lat": 48.8198826, "lon": 14.3249095, "tags": {"bench": "no", "bin": "yes", "bus": "yes", "departures_board": "timetable", "highway": "bus_stop", "lit": "no", "name": "\u010cesk\u00fd Krumlov, Svat\u00e1 Trojice", "network": "Busem", "official_name": "\u010cesk\u00fd Krumlov,,Sv.Trojice", "operator": "\u010cSAD Autobusy \u010cesk\u00e9 Bud\u011bjovice a.s.", "public_transport": "platform", "ref:CIS_JR": "4984", "shelter": "no", "tactile_paving": "no", "wheelchair": "yes"}}, {"type": "node", "id": 3038932977, "lat": 48.8043785, "lon": 13.7884846, "tags": {"bus": "yes", "highway": "bus_stop", "name": "Dreisessel Kreuzbach", "public_transport": "stop_position"}}, {"type": "node", "id": 3450183668, "lat": 48.7062484, "lon": 13.7565866, "tags": {"bench": "yes", "bin": "no", "bus": "yes", "highway": "bus_stop", "kerb": "raised", "kerb:height": "0.08", "lit": "no", "name": "Rastb\u00fcchl", "platform:width": "1.5", "public_transport": "platform", "ref:IFOPT": "de:09275:8786:0:1", "shelter": "yes", "tactile_paving": "no"}}, {"type": "node", "id": 3744149915, "lat": 48.7896817, "lon": 13.952634, "tags": {"bus": "yes", "highway": "bus_stop", "name": "Nov\u00e1 Pec, \u017eel. st.", "official_name": "Nov\u00e1 Pec,,\u017eel.st.", "public_transport": "stop_position", "ref:CIS_JR": "47522"}}, {"type": "node", "id": 3767007016, "lat": 48.6851344, "lon": 13.754932, "tags": {"bus": "yes", "highway": "bus_stop", "name": "J\u00e4gerbild", "public_transport": "stop_position"}}, {"type": "node", "id": 3797857673, "lat": 48.8034179, "lon": 13.8897524, "tags": {"bus": "yes", "highway": "bus_stop", "name": "Nov\u00e1 Pec, Jelen\u00ed Vrchy U Ko\u017eeluh\u016f", "official_name": "Nov\u00e1 Pec,,Jelen\u00ed Vrchy U Ko\u017eeluh\u016f", "public_transport": "stop_position", "ref:CIS_JR": "47524"}}, {"type": "node", "id": 3797903414, "lat": 48.7910622, "lon": 13.9482627, "tags": {"bus": "yes", "highway": "bus_stop", "name": "Nov\u00e1 Pec", "official_name": "Nov\u00e1 Pec", "public_transport": "stop_position", "ref:CIS_JR": "23606"}}, {"type": "node", "id": 3924898309, "lat": 48.6842769, "lon": 13.7414597, "tags": {"bus": "yes", "highway": "bus_stop", "name": "Hirschenberg, Abzw.", "public_transport": "stop_position"}}, {"type": "node", "id": 3924898310, "lat": 48.6859594, "lon": 13.7285197, "tags": {"bus": "yes", "highway": "bus_stop", "name": "Sonnen, Birkenweg", "public_transport": "stop_position"}}, {"type": "node", "id": 3924921805, "lat": 48.6943956, "lon": 13.7863932, "tags": {"bus": "yes", "highway": "bus_stop", "name": "Stampferbr\u00fccke", "public_transport": "stop_position"}}, {"type": "node", "id": 3924921809, "lat": 48.6894872, "lon": 13.7614743, "tags": {"bus": "yes", "highway": "bus_stop", "name": "J\u00e4gerbild, Abzw Raumreuth", "public_transport": "stop_position"}}, {"type": "node", "id": 3924921811, "lat": 48.6899374, "lon": 13.7674821, "tags": {"bus": "yes", "highway": "bus_stop", "name": "Raumreuth", "public_transport": "stop_position"}}, {"type": "node", "id": 3924962723, "lat": 48.7029985, "lon": 13.7937981, "tags": {"bus": "yes", "highway": "bus_stop", "name": "Breitenberg, Passauer-Str.", "public_transport": "stop_position"}}, {"type": "node", "id": 3934027747, "lat": 48.6509235, "lon": 13.7842891, "tags": {"bus": "yes", "highway": "bus_stop", "name": "Simmelkurve", "public_transport": "stop_position"}}, {"type": "node", "id": 3934027751, "lat": 48.6584674, "lon": 13.7878811, "tags": {"bus": "yes", "highway": "bus_stop", "name": "Thalberg", "public_transport": "stop_position"}}, {"type": "node", "id": 3975623860, "lat": 48.7505478, "lon": 13.7889616, "tags": {"bus": "yes", "highway": "bus_stop", "name": "Riedelsbach, Sitter", "public_transport": "stop_position"}}, {"type": "node", "id": 3976315598, "lat": 48.7568248, "lon": 13.7251146, "tags": {"bus": "yes", "highway": "bus_stop", "name": "Stubenberg", "public_transport": "stop_position"}}, {"type": "node", "id": 3997867990, "lat": 48.6848835, "lon": 13.7237975, "tags": {"bus": "yes", "highway": "bus_stop", "name": "Sonnen", "public_transport": "stop_position"}}, {"type": "node", "id": 3997889070, "lat": 48.680413, "lon": 13.7961165, "tags": {"bus": "yes", "highway": "bus_stop", "name": "Gollnerberg, Schuhkapelle", "public_transport": "stop_position"}}, {"type": "node", "id": 4421016902, "lat": 48.7940293, "lon": 14.3037711, "tags": {"bus": "yes", "highway": "bus_stop", "public_transport": "platform"}}, {"type": "node", "id": 4578660530, "lat": 48.7763376, "lon": 14.2897681, "tags": {"bench": "yes", "bus": "yes", "highway": "bus_stop", "name": "V\u011bt\u0159n\u00ed", "official_name": "V\u011bt\u0159n\u00ed", "public_transport": "platform", "ref:CIS_JR": "39303", "shelter": "yes"}}, {"type": "node", "id": 4715604206, "lat": 48.7998818, "lon": 14.2524997, "tags": {"bench": "no", "bus": "yes", "highway": "bus_stop", "name": "K\u00e1jov, Novosedly", "official_name": "K\u00e1jov,Novosedly", "public_transport": "platform", "ref:CIS_JR": "13683", "shelter": "no"}}, {"type": "node", "id": 4729665010, "lat": 48.8093704, "lon": 14.332908, "tags": {"bench": "no", "bin": "no", "bus": "yes", "highway": "bus_stop", "lit": "yes", "name": "\u010cesk\u00fd Krumlov, Kaplick\u00e1", "official_name": "\u010cesk\u00fd Krumlov,,Kaplick\u00e1", "public_transport": "platform", "ref:CIS_JR": "4982", "shelter": "no", "tactile_paving": "no"}}, {"type": "node", "id": 4861138773, "lat": 48.835531, "lon": 13.7541106, "tags": {"bench": "no", "bin": "no", "bus": "yes", "highway": "bus_stop", "kerb": "raised", "kerb:height": "0.10", "name": "Theresienreut", "platform:width": "1.3", "public_transport": "platform", "ref:IFOPT": "de:09272:4870:0:1", "shelter": "no"}}, {"type": "node", "id": 4861138774, "lat": 48.8356549, "lon": 13.7542742, "tags": {"bench": "yes", "bus": "yes", "highway": "bus_stop", "kerb": "raised", "kerb:height": "0.11", "name": "Theresienreut", "platform:width": "1.5", "public_transport": "platform", "ref:IFOPT": "de:09272:4870:0:2", "shelter": "yes"}}, {"type": "node", "id": 4937980382, "lat": 48.8946117, "lon": 14.2227412, "tags": {"bus": "yes", "highway": "bus_stop", "name": "Nov\u00e1 hospoda", "official_name": "Brloh,Nov\u00e1 Hospoda", "public_transport": "platform", "ref:CIS_JR": "2726", "shelter": "yes"}}, {"type": "node", "id": 5284631357, "lat": 48.6695459, "lon": 13.8813662, "tags": {"bench": "no", "bus": "yes", "highway": "bus_stop", "name": "Ulrichsberg Haining", "network": "OOEVV", "public_transport": "platform", "shelter": "no"}}, {"type": "node", "id": 5316457238, "lat": 48.6296748, "lon": 14.2797031, "tags": {"bench": "no", "bin": "no", "bus": "yes", "highway": "bus_stop", "official_name": "Vy\u0161\u0161\u00ed Brod,,\u010certova St\u011bna rozc.", "public_transport": "platform", "ref:CIS_JR": "41047", "shelter": "no", "tactile_paving": "no"}}, {"type": "node", "id": 5316457239, "lat": 48.6291544, "lon": 14.2799579, "tags": {"bus": "yes", "highway": "bus_stop", "official_name": "Vy\u0161\u0161\u00ed Brod,,\u010certova St\u011bna rozc.", "public_transport": "platform", "ref:CIS_JR": "41047", "shelter": "no"}}, {"type": "node", "id": 5316664145, "lat": 48.6143423, "lon": 14.3119407, "tags": {"bus": "yes", "highway": "bus_stop", "public_transport": "platform"}}, {"type": "node", "id": 5513798378, "lat": 48.85333, "lon": 14.2122434, "tags": {"bus": "yes", "highway": "bus_stop", "name": "Chval\u0161iny, n\u00e1m", "official_name": "Chval\u0161iny", "public_transport": "platform", "ref:CIS_JR": "12200", "shelter": "yes"}}, {"type": "node", "id": 5513798678, "lat": 48.8535956, "lon": 14.2122341, "tags": {"bus": "yes", "highway": "bus_stop", "name": "Chval\u0161iny, n\u00e1m", "official_name": "Chval\u0161iny", "public_transport": "platform", "ref:CIS_JR": "12200", "shelter": "yes"}}, {"type": "node", "id": 5527678495, "lat": 48.767585, "lon": 14.1806473, "tags": {"bench": "yes", "bus": "yes", "highway": "bus_stop", "name": "Ho\u0159ice na \u0160umav\u011b", "official_name": "Ho\u0159ice na \u0160umav\u011b", "operator": "\u010cSAD Autobusy \u010cesk\u00e9 Bud\u011bjovice a.s.", "public_transport": "platform", "ref:CIS_JR": "10160", "shelter": "yes"}}, {"type": "node", "id": 5527678496, "lat": 48.7676353, "lon": 14.1803388, "tags": {"bus": "yes", "departures_board": "yes", "highway": "bus_stop", "name": "Ho\u0159ice na \u0160umav\u011b", "official_name": "Ho\u0159ice na \u0160umav\u011b", "operator": "\u010cSAD Autobusy \u010cesk\u00e9 Bud\u011bjovice a.s.", "public_transport": "platform", "ref:CIS_JR": "10160"}}, {"type": "node", "id": 5631225558, "lat": 48.8218321, "lon": 14.3114282, "tags": {"bench": "yes", "bin": "yes", "bus": "yes", "departures_board": "timetable", "highway": "bus_stop", "lit": "no", "name": "Vy\u0161n\u00fd s\u00eddli\u0161t\u011b", "network": "Busem", "official_name": "\u010cesk\u00fd Krumlov,Vy\u0161n\u00fd,s\u00eddli\u0161t\u011b", "operator": "\u010cSAD Autobusy \u010cesk\u00e9 Bud\u011bjovice a.s.", "public_transport": "platform", "ref:CIS_JR": "4990", "shelter": "yes", "tactile_paving": "no"}}, {"type": "node", "id": 5632559510, "lat": 48.8184347, "lon": 14.3149046, "tags": {"bench": "yes", "bin": "yes", "bus": "yes", "departures_board": "timetable", "highway": "bus_stop", "lit": "yes", "name": "\u010cesk\u00fd Krumlov, R\u016f\u017eek", "network": "Busem", "official_name": "\u010cesk\u00fd Krumlov,,R\u016f\u017eek", "operator": "\u010cSAD Autobusy \u010cesk\u00e9 Bud\u011bjovice a.s.", "public_transport": "platform", "ref:CIS_JR": "4977", "shelter": "yes", "tactile_paving": "yes"}}, {"type": "node", "id": 5632559511, "lat": 48.8185361, "lon": 14.3149638, "tags": {"bench": "no", "bin": "yes", "bus": "yes", "departures_board": "timetable", "highway": "bus_stop", "lit": "yes", "name": "\u010cesk\u00fd Krumlov, R\u016f\u017eek", "network": "Busem", "official_name": "\u010cesk\u00fd Krumlov,,R\u016f\u017eek", "operator": "\u010cSAD Autobusy \u010cesk\u00e9 Bud\u011bjovice a.s.", "public_transport": "platform", "ref:CIS_JR": "4977", "shelter": "no", "tactile_paving": "yes"}}, {"type": "node", "id": 5661124629, "lat": 48.8259773, "lon": 14.3078904, "tags": {"bench": "no", "bus": "yes", "departures_board": "timetable", "highway": "bus_stop", "name": "Vy\u0161n\u00fd kas\u00e1rna", "network": "Busem", "official_name": "\u010cesk\u00fd Krumlov,Vy\u0161n\u00fd,kas\u00e1rna", "operator": "\u010cSAD Autobusy \u010cesk\u00e9 Bud\u011bjovice a.s.", "public_transport": "platform", "ref:CIS_JR": "4988", "shelter": "no"}}, {"type": "node", "id": 5661124630, "lat": 48.8284728, "lon": 14.3038293, "tags": {"bench": "yes", "bus": "yes", "departures_board": "timetable", "highway": "bus_stop", "name": "Vy\u0161n\u00fd rozcest\u00ed", "network": "Busem", "official_name": "\u010cesk\u00fd Krumlov,Vy\u0161n\u00fd,rozc.0.3", "operator": "\u010cSAD Autobusy \u010cesk\u00e9 Bud\u011bjovice a.s.", "public_transport": "platform", "ref:CIS_JR": "4989", "shelter": "yes"}}, {"type": "node", "id": 5759327706, "lat": 48.7657401, "lon": 14.032985, "tags": {"bench": "yes", "bin": "yes", "bus": "yes", "bus_routes": "Flixbus 912", "covered": "yes", "highway": "bus_stop", "name": "Horn\u00ed Plan\u00e1", "official_name": "Horn\u00ed Plan\u00e1", "public_transport": "platform", "ref:CIS_JR": "9868", "shelter": "yes"}}, {"type": "node", "id": 5759327707, "lat": 48.7656129, "lon": 14.0330439, "tags": {"bench": "yes", "bin": "yes", "bus": "yes", "bus_routes": "Flixbus 912", "covered": "yes", "highway": "bus_stop", "name": "Horn\u00ed Plan\u00e1", "official_name": "Horn\u00ed Plan\u00e1", "public_transport": "platform", "ref:CIS_JR": "9868", "shelter": "yes"}}, {"type": "node", "id": 5874309999, "lat": 48.9361148, "lon": 14.1536924, "tags": {"bench": "no", "bus": "yes", "highway": "bus_stop", "name": "Kti\u0161,Sm\u011bde\u010d", "official_name": "Kti\u0161,Sm\u011bde\u010d", "public_transport": "platform", "ref:CIS_JR": "16961", "shelter": "no"}}, {"type": "node", "id": 5874310000, "lat": 48.93598, "lon": 14.1535141, "tags": {"bench": "no", "bus": "yes", "highway": "bus_stop", "name": "Kti\u0161,Sm\u011bde\u010d", "official_name": "Kti\u0161,Sm\u011bde\u010d", "public_transport": "platform", "ref:CIS_JR": "16961", "shelter": "no"}}, {"type": "node", "id": 6004769198, "lat": 48.8220924, "lon": 14.3171994, "tags": {"bench": "yes", "bin": "yes", "bus": "yes", "departures_board": "yes", "highway": "bus_stop", "lit": "yes", "name": "\u010cesk\u00fd Krumlov, \u017delezni\u010dn\u00ed stanice", "network": "Busem", "official_name": "\u010cesk\u00fd Krumlov,,\u017eel.st.", "operator": "\u010cSAD Autobusy \u010cesk\u00e9 Bud\u011bjovice a.s.", "passenger_information_display": "no", "public_transport": "platform", "ref:CIS_JR": "4964", "shelter": "yes", "tactile_paving": "yes"}}, {"type": "node", "id": 6238971085, "lat": 48.8154991, "lon": 14.3156702, "tags": {"bench": "yes", "bin": "yes", "bus": "yes", "departures_board": "timetable", "highway": "bus_stop", "lit": "yes", "name": "\u010cesk\u00fd Krumlov - \u0160pi\u010d\u00e1k", "name:en": "Cesky Krumlov - Spicak", "network": "Busem", "official_name": "\u010cesk\u00fd Krumlov,\u0160pi\u010d\u00e1k", "operator": "\u010cSAD Autobusy \u010cesk\u00e9 Bud\u011bjovice a.s.", "public_transport": "platform", "ref:CIS_JR": "4985", "route_ref": "Flixbus 853", "shelter": "yes", "tactile_paving": "no", "wheelchair": "yes"}}, {"type": "node", "id": 6323705705, "lat": 48.9155161, "lon": 14.2459347, "tags": {"bus": "yes", "highway": "bus_stop", "official_name": "Brloh,Roj\u0161\u00edn,rozc.", "public_transport": "platform", "ref:CIS_JR": "2728", "shelter": "yes"}}, {"type": "node", "id": 6323705706, "lat": 48.9155911, "lon": 14.2459994, "tags": {"bench": "no", "bus": "yes", "highway": "bus_stop", "official_name": "Brloh,Roj\u0161\u00edn,rozc.", "public_transport": "platform", "ref:CIS_JR": "2728", "shelter": "no"}}, {"type": "node", "id": 6583686494, "lat": 48.7509959, "lon": 14.3184993, "tags": {"bus": "yes", "highway": "bus_stop", "name": "V\u011bt\u0159n\u00ed,Ha\u0161lovice,rozc.", "official_name": "V\u011bt\u0159n\u00ed,Ha\u0161lovice,rozc.", "public_transport": "platform", "ref:CIS_JR": "39311"}}, {"type": "node", "id": 6583686495, "lat": 48.7510868, "lon": 14.3184801, "tags": {"bus": "yes", "highway": "bus_stop", "name": "V\u011bt\u0159n\u00ed,Ha\u0161lovice,rozc.", "official_name": "V\u011bt\u0159n\u00ed,Ha\u0161lovice,rozc.", "public_transport": "platform", "ref:CIS_JR": "39311"}}, {"type": "node", "id": 6583965001, "lat": 48.796088, "lon": 13.9622974, "tags": {"bench": "yes", "bin": "no", "bus": "yes", "highway": "bus_stop", "lit": "no", "name": "Nov\u00e1 Pec, B\u011bl\u00e1", "official_name": "Nov\u00e1 Pec,B\u011bl\u00e1", "public_transport": "platform", "ref:CIS_JR": "23610", "shelter": "yes", "tactile_paving": "no"}}, {"type": "node", "id": 6584342714, "lat": 48.8157014, "lon": 14.3073663, "tags": {"bin": "yes", "bus": "yes", "departures_board": "timetable", "highway": "bus_stop", "name": "\u010cesk\u00fd Krumlov, Chval\u0161insk\u00e1", "network": "Busem", "official_name": "\u010cesk\u00fd Krumlov,,Chval\u0161insk\u00e1", "operator": "\u010cSAD Autobusy \u010cesk\u00e9 Bud\u011bjovice a.s.", "public_transport": "platform", "ref:CIS_JR": "4966", "shelter": "yes"}}, {"type": "node", "id": 6584342715, "lat": 48.8159106, "lon": 14.3072602, "tags": {"bin": "yes", "bus": "yes", "departures_board": "timetable", "highway": "bus_stop", "name": "\u010cesk\u00fd Krumlov, Chval\u0161insk\u00e1", "network": "Busem", "official_name": "\u010cesk\u00fd Krumlov,,Chval\u0161insk\u00e1", "operator": "\u010cSAD Autobusy \u010cesk\u00e9 Bud\u011bjovice a.s.", "public_transport": "platform", "ref:CIS_JR": "4966", "shelter": "yes"}}, {"type": "node", "id": 6584342738, "lat": 48.8165288, "lon": 14.2674409, "tags": {"bus": "yes", "highway": "bus_stop", "name": "K\u00e1jov, rozcest\u00ed", "official_name": "K\u00e1jov,,rozc.0.5", "public_transport": "platform", "ref:CIS_JR": "13676", "shelter": "yes"}}, {"type": "node", "id": 6584342739, "lat": 48.8165333, "lon": 14.2678712, "tags": {"bus": "yes", "highway": "bus_stop", "name": "K\u00e1jov, rozcest\u00ed", "official_name": "K\u00e1jov,,rozc.0.5", "public_transport": "platform", "ref:CIS_JR": "13676", "shelter": "yes"}}, {"type": "node", "id": 6641049415, "lat": 48.9096227, "lon": 14.0192728, "tags": {"bus": "yes", "highway": "bus_stop", "official_name": "K\u0159i\u0161\u0165anov", "public_transport": "platform", "ref:CIS_JR": "16875"}}, {"type": "node", "id": 6641049442, "lat": 48.8947409, "lon": 13.9934834, "tags": {"bus": "yes", "highway": "bus_stop", "official_name": "K\u0159i\u0161\u0165anov,Arno\u0161tov", "public_transport": "platform", "ref:CIS_JR": "16877"}}, {"type": "node", "id": 6924566481, "lat": 48.8151209, "lon": 14.3160453, "tags": {"bench": "yes", "bin": "yes", "bus": "yes", "departures_board": "timetable", "highway": "bus_stop", "lit": "yes", "name": "\u010cesk\u00fd Krumlov - \u0160pi\u010d\u00e1k", "name:en": "Cesky Krumlov - Spicak", "network": "Busem", "official_name": "\u010cesk\u00fd Krumlov,\u0160pi\u010d\u00e1k", "operator": "\u010cSAD Autobusy \u010cesk\u00e9 Bud\u011bjovice a.s.", "public_transport": "platform", "ref:CIS_JR": "4985", "shelter": "yes", "tactile_paving": "no"}}, {"type": "node", "id": 6924683315, "lat": 48.7801964, "lon": 14.2973062, "tags": {"bench": "yes", "bus": "yes", "highway": "bus_stop", "name": "V\u011bt\u0159n\u00ed, Z\u00e1vod", "official_name": "V\u011bt\u0159n\u00ed,,z\u00e1vod", "public_transport": "platform", "ref:CIS_JR": "39308", "shelter": "yes"}}, {"type": "node", "id": 6924683316, "lat": 48.7792973, "lon": 14.2979046, "tags": {"bench": "no", "bin": "no", "bus": "yes", "highway": "bus_stop", "name": "V\u011bt\u0159n\u00ed, Z\u00e1vod", "official_name": "V\u011bt\u0159n\u00ed,,z\u00e1vod", "public_transport": "platform", "ref:CIS_JR": "39308", "shelter": "no"}}, {"type": "node", "id": 6924683317, "lat": 48.7705382, "lon": 14.2854404, "tags": {"bus": "yes", "highway": "bus_stop", "name": "V\u011bt\u0159n\u00ed, To\u010dna", "public_transport": "platform", "shelter": "yes"}}, {"type": "node", "id": 6924683318, "lat": 48.7708909, "lon": 14.2853649, "tags": {"bench": "yes", "bus": "yes", "highway": "bus_stop", "name": "V\u011bt\u0159n\u00ed, To\u010dna", "official_name": "V\u011bt\u0159n\u00ed,,to\u010dna", "public_transport": "platform", "ref:CIS_JR": "39306", "shelter": "yes"}}, {"type": "node", "id": 6976414597, "lat": 48.8107705, "lon": 14.3199334, "tags": {"bench": "yes", "bin": "yes", "bus": "yes", "departures_board": "yes", "highway": "bus_stop", "lit": "no", "name": "\u010cesk\u00fd Krumlov, Horn\u00ed Br\u00e1na", "network": "Busem", "official_name": "\u010cesk\u00fd Krumlov,Horn\u00ed Br\u00e1na", "operator": "\u010cSAD Autobusy \u010cesk\u00e9 Bud\u011bjovice a.s.", "public_transport": "platform", "ref:CIS_JR": "4973", "shelter": "yes", "tactile_paving": "no", "wheelchair": "yes"}}, {"type": "node", "id": 7008155630, "lat": 48.826342, "lon": 14.3342609, "tags": {"bench": "yes", "bin": "yes", "bus": "yes", "departures_board": "timetable", "highway": "bus_stop", "kerb": "raised", "lit": "yes", "name": "\u010cesk\u00fd Krumlov, U Supermarketu", "network": "Busem", "official_name": "\u010cesk\u00fd Krumlov,,Tov\u00e1rn\u00ed", "operator": "\u010cSAD Autobusy \u010cesk\u00e9 Bud\u011bjovice a.s.", "passenger_information_display": "no", "public_transport": "platform", "ref:CIS_JR": "4971", "shelter": "yes", "tactile_paving": "no"}}, {"type": "node", "id": 7008155631, "lat": 48.8260965, "lon": 14.3335585, "tags": {"bench": "yes", "bin": "yes", "bus": "yes", "departures_board": "timetable", "highway": "bus_stop", "kerb": "raised", "kerb:approach_aid": "no", "lit": "yes", "name": "\u010cesk\u00fd Krumlov, U Supermarketu", "network": "Busem", "official_name": "\u010cesk\u00fd Krumlov,,U Supermarketu", "operator": "\u010cSAD Autobusy \u010cesk\u00e9 Bud\u011bjovice a.s.", "passenger_information_display": "yes", "public_transport": "platform", "ref:CIS_JR": "4976", "shelter": "yes", "tactile_paving": "no"}}, {"type": "node", "id": 7077591395, "lat": 48.6641496, "lon": 14.1688551, "tags": {"bench": "yes", "bin": "yes", "bus": "yes", "departures_board": "yes", "highway": "bus_stop", "name": "Frymburk", "official_name": "Frymburk", "public_transport": "platform", "ref:CIS_JR": "7936", "shelter": "yes", "tactile_paving": "no"}}, {"type": "node", "id": 7108868899, "lat": 48.8076558, "lon": 14.3210462, "tags": {"bench": "yes", "bin": "yes", "bus": "yes", "departures_board": "timetable", "highway": "bus_stop", "lit": "yes", "name": "\u010cesk\u00fd Krumlov, Horn\u00ed Br\u00e1na", "network": "Busem", "official_name": "\u010cesk\u00fd Krumlov,Horn\u00ed Br\u00e1na", "operator": "\u010cSAD Autobusy \u010cesk\u00e9 Bud\u011bjovice a.s.", "public_transport": "platform", "ref:CIS_JR": "4973", "shelter": "no", "tactile_paving": "no"}}, {"type": "node", "id": 7112282987, "lat": 48.8225254, "lon": 14.3293104, "tags": {"bench": "no", "bin": "yes", "bus": "yes", "departures_board": "timetable", "highway": "bus_stop", "lit": "yes", "name": "\u010cesk\u00fd Krumlov, Plevno", "network": "Busem", "official_name": "\u010cesk\u00fd Krumlov,,Plevno", "operator": "\u010cSAD Autobusy \u010cesk\u00e9 Bud\u011bjovice, a.s.", "public_transport": "platform", "ref:CIS_JR": "4978", "shelter": "no", "tactile_paving": "no"}}, {"type": "node", "id": 7124049263, "lat": 48.7963436, "lon": 14.305177, "tags": {"bus": "yes", "departures_board": "timetable", "highway": "bus_stop", "name": "Nov\u00e9 Spol\u00ed, Kemp", "network": "Busem", "official_name": "\u010cesk\u00fd Krumlov,Spol\u00ed,Kemp", "operator": "\u010cSAD Autobusy \u010cesk\u00e9 Bud\u011bjovice a.s.", "public_transport": "platform", "ref:CIS_JR": "4980"}}, {"type": "node", "id": 7124112107, "lat": 48.8049325, "lon": 14.3131032, "tags": {"bus": "yes", "departures_board": "timetable", "highway": "bus_stop", "name": "\u010cesk\u00fd Krumlov, Svat\u00fd Duch", "network": "Busem", "official_name": "\u010cesk\u00fd Krumlov,,Sv.Duch", "operator": "\u010cSAD Autobusy \u010cesk\u00e9 Bud\u011bjovice a.s.", "public_transport": "platform", "ref:CIS_JR": "4983", "shelter": "yes"}}, {"type": "node", "id": 7124866088, "lat": 48.8348275, "lon": 14.3303518, "tags": {"bench": "no", "bus": "yes", "highway": "bus_stop", "name": "\u010cesk\u00fd Krumlov, Tov\u00e1rn\u00ed-to\u010dna", "network": "Busem", "official_name": "\u010cesk\u00fd Krumlov,,Tov\u00e1rn\u00ed to\u010dna", "operator": "\u010cSAD Autobusy \u010cesk\u00e9 Bud\u011bjovice a.s.", "public_transport": "platform", "ref:CIS_JR": "4972", "shelter": "no"}}, {"type": "node", "id": 7124954470, "lat": 48.8040938, "lon": 14.3124379, "tags": {"bench": "yes", "bin": "yes", "bus": "yes", "departures_board": "timetable", "highway": "bus_stop", "lit": "yes", "name": "\u010cesk\u00fd Krumlov, Ple\u0161ivec", "network": "Busem", "official_name": "\u010cesk\u00fd Krumlov,Ple\u0161ivec", "operator": "\u010cSAD Autobusy \u010cesk\u00e9 Bud\u011bjovice a.s.", "public_transport": "platform", "ref": "4", "ref:CIS_JR": "4974", "shelter": "yes", "tactile_paving": "no"}}, {"type": "node", "id": 7125001822, "lat": 48.800818, "lon": 14.3094369, "tags": {"bench": "yes", "bin": "yes", "bus": "yes", "departures_board": "timetable", "highway": "bus_stop", "level": "0", "name": "\u010cesk\u00fd Krumlov, Ple\u0161ivec - s\u00eddli\u0161t\u011b", "network": "Busem", "official_name": "\u010cesk\u00fd Krumlov,Ple\u0161ivec,s\u00eddl.", "operator": "\u010cSAD Autobusy \u010cesk\u00e9 Bud\u011bjovice a.s.", "public_transport": "platform", "ref": "5", "ref:CIS_JR": "4975", "shelter": "yes"}}, {"type": "node", "id": 7125064913, "lat": 48.7985041, "lon": 14.3125165, "tags": {"bus": "yes", "departures_board": "timetable", "highway": "bus_stop", "name": "Spol\u00ed", "network": "Busem", "official_name": "\u010cesk\u00fd Krumlov,Spol\u00ed", "operator": "\u010cSAD Autobusy \u010cesk\u00e9 Bud\u011bjovice a.s.", "public_transport": "platform", "ref:CIS_JR": "50585"}}, {"type": "node", "id": 7125699303, "lat": 48.8234921, "lon": 14.33049, "tags": {"bench": "yes", "bin": "yes", "bus": "yes", "departures_board": "timetable", "highway": "bus_stop", "lit": "yes", "name": "\u010cesk\u00fd Krumlov, S\u00eddli\u0161t\u011b M\u00edr", "network": "Busem", "official_name": "\u010cesk\u00fd Krumlov,,s\u00eddl.M\u00edr", "operator": "\u010cSAD Autobusy \u010cesk\u00e9 Bud\u011bjovice a.s.", "public_transport": "platform", "ref:CIS_JR": "47307", "shelter": "no", "tactile_paving": "no"}}, {"type": "node", "id": 7126033633, "lat": 48.8117701, "lon": 14.3225663, "tags": {"bench": "yes", "bin": "yes", "bus": "yes", "departures_board": "timetable", "highway": "bus_stop", "kerb": "raised", "kerb:approach_aid": "yes", "lit": "no", "name": "1", "passenger_information_display": "yes", "passenger_information_display:speech_output": "no", "public_transport": "platform", "shelter": "yes", "tactile_paving": "yes"}}, {"type": "node", "id": 7126033634, "lat": 48.8117704, "lon": 14.3224553, "tags": {"bench": "yes", "bin": "yes", "bus": "yes", "departures_board": "timetable", "highway": "bus_stop", "kerb": "raised", "kerb:approach_aid": "yes", "lit": "no", "name": "2", "passenger_information_display": "yes", "passenger_information_display:speech_output": "no", "public_transport": "platform", "shelter": "yes", "tactile_paving": "yes"}}, {"type": "node", "id": 7126033635, "lat": 48.8117706, "lon": 14.3223538, "tags": {"bench": "yes", "bin": "yes", "bus": "yes", "departures_board": "timetable", "highway": "bus_stop", "kerb": "raised", "kerb:approach_aid": "yes", "lit": "no", "name": "3", "passenger_information_display": "yes", "passenger_information_display:speech_output": "no", "public_transport": "platform", "shelter": "yes", "tactile_paving": "yes"}}, {"type": "node", "id": 7126033636, "lat": 48.8117709, "lon": 14.3222448, "tags": {"bench": "yes", "bin": "yes", "bus": "yes", "departures_board": "timetable", "highway": "bus_stop", "kerb": "raised", "kerb:approach_aid": "yes", "lit": "no", "name": "4", "passenger_information_display": "yes", "passenger_information_display:speech_output": "no", "public_transport": "platform", "shelter": "yes", "tactile_paving": "yes"}}, {"type": "node", "id": 7126033637, "lat": 48.8117712, "lon": 14.3221386, "tags": {"bench": "yes", "bin": "yes", "bus": "yes", "departures_board": "timetable", "highway": "bus_stop", "kerb": "raised", "kerb:approach_aid": "yes", "lit": "no", "name": "5", "passenger_information_display": "yes", "passenger_information_display:speech_output": "no", "public_transport": "platform", "shelter": "yes", "tactile_paving": "yes"}}, {"type": "node", "id": 7126033638, "lat": 48.8117715, "lon": 14.3220268, "tags": {"bench": "yes", "bin": "yes", "bus": "yes", "departures_board": "timetable", "highway": "bus_stop", "kerb": "raised", "kerb:approach_aid": "yes", "lit": "no", "name": "6", "passenger_information_display": "yes", "passenger_information_display:speech_output": "no", "public_transport": "platform", "shelter": "yes", "tactile_paving": "yes"}}, {"type": "node", "id": 7126033639, "lat": 48.8117718, "lon": 14.321918, "tags": {"bench": "yes", "bin": "yes", "bus": "yes", "departures_board": "timetable", "fixme": "Right Stop-Position for Flixbuslines?", "highway": "bus_stop", "kerb": "raised", "kerb:approach_aid": "yes", "lit": "no", "name": "7", "passenger_information_display": "yes", "passenger_information_display:speech_output": "no", "public_transport": "platform", "route_ref": "Regio-Jet", "shelter": "yes", "tactile_paving": "yes"}}, {"type": "node", "id": 7126033640, "lat": 48.8117721, "lon": 14.3217979, "tags": {"bench": "yes", "bin": "yes", "bus": "yes", "departures_board": "timetable", "highway": "bus_stop", "kerb": "raised", "kerb:approach_aid": "yes", "lit": "no", "name": "8", "passenger_information_display": "yes", "passenger_information_display:speech_output": "no", "public_transport": "platform", "shelter": "yes", "tactile_paving": "yes"}}, {"type": "node", "id": 7126033641, "lat": 48.8117724, "lon": 14.3216908, "tags": {"bench": "yes", "bin": "yes", "bus": "yes", "departures_board": "timetable", "highway": "bus_stop", "kerb": "raised", "kerb:approach_aid": "yes", "lit": "no", "name": "9", "passenger_information_display": "yes", "passenger_information_display:speech_output": "no", "public_transport": "platform", "route_ref": "LEO-Express", "shelter": "yes", "tactile_paving": "yes"}}, {"type": "node", "id": 7126033642, "lat": 48.8115573, "lon": 14.321975, "tags": {"bench": "yes", "bin": "yes", "bus": "yes", "departures_board": "timetable", "highway": "bus_stop", "kerb": "raised", "kerb:approach_aid": "no", "lit": "yes", "name": "10", "passenger_information_display": "yes", "passenger_information_display:speech_output": "no", "public_transport": "platform", "shelter": "yes", "tactile_paving": "no"}}, {"type": "node", "id": 7126033643, "lat": 48.8115608, "lon": 14.322171, "tags": {"bench": "yes", "bin": "yes", "bus": "yes", "departures_board": "timetable", "highway": "bus_stop", "kerb": "raised", "kerb:approach_aid": "no", "lit": "yes", "name": "11", "passenger_information_display": "yes", "passenger_information_display:speech_output": "no", "public_transport": "platform", "shelter": "yes", "tactile_paving": "no"}}, {"type": "node", "id": 7126033644, "lat": 48.8115639, "lon": 14.3224291, "tags": {"bench": "yes", "bin": "yes", "bus": "yes", "departures_board": "timetable", "highway": "bus_stop", "kerb": "raised", "kerb:approach_aid": "no", "lit": "yes", "name": "12", "passenger_information_display": "yes", "passenger_information_display:speech_output": "no", "public_transport": "platform", "shelter": "yes", "tactile_paving": "no"}}, {"type": "node", "id": 7126033646, "lat": 48.8115633, "lon": 14.3226895, "tags": {"bench": "yes", "bin": "yes", "bus": "yes", "departures_board": "timetable", "highway": "bus_stop", "kerb": "raised", "kerb:approach_aid": "no", "lit": "yes", "name": "13", "passenger_information_display": "yes", "passenger_information_display:speech_output": "no", "public_transport": "platform", "shelter": "yes", "tactile_paving": "no"}}, {"type": "node", "id": 7126033647, "lat": 48.8115909, "lon": 14.32323, "tags": {"bench": "yes", "bin": "yes", "bus": "yes", "departures_board": "timetable", "highway": "bus_stop", "kerb": "raised", "kerb:approach_aid": "no", "lit": "yes", "name": "14", "passenger_information_display": "yes", "passenger_information_display:speech_output": "no", "public_transport": "platform", "shelter": "yes", "tactile_paving": "no"}}, {"type": "node", "id": 7126059029, "lat": 48.8117144, "lon": 14.3230654, "tags": {"bench": "yes", "bin": "yes", "bus": "yes", "departures_board": "timetable", "highway": "bus_stop", "kerb": "raised", "kerb:approach_aid": "no", "lit": "yes", "name": "exit only", "passenger_information_display": "no", "public_transport": "platform", "shelter": "no", "tactile_paving": "no"}}, {"type": "node", "id": 7188215994, "lat": 48.8153472, "lon": 14.2967528, "tags": {"bus": "yes", "departures_board": "timetable", "highway": "bus_stop", "name": "\u010cesk\u00fd Krumlov, Dobrkovice", "official_name": "\u010cesk\u00fd Krumlov,Dobrkovice", "operator": "\u010cSAD a.s.", "public_transport": "platform", "ref:CIS_JR": "4969", "shelter": "yes"}}, {"type": "node", "id": 7244965911, "lat": 48.6758902, "lon": 13.9087558, "tags": {"bench": "yes", "bin": "yes", "bus": "yes", "highway": "bus_stop", "lit": "yes", "name": "Ulrichsberg Moldaustra\u00dfe", "public_transport": "platform", "shelter": "yes", "tactile_paving": "no"}}, {"type": "node", "id": 7302121080, "lat": 48.9088638, "lon": 14.3262837, "tags": {"bench": "yes", "bin": "yes", "bus": "yes", "departures_board": "timetable", "highway": "bus_stop", "lit": "no", "official_name": "K\u0159em\u017ee,M\u0159\u00ed\u010d\u00ed", "public_transport": "platform", "ref:CIS_JR": "16798", "shelter": "yes", "source": "streetlevel imagery", "source:date": "2020-03-17", "wheelchair": "limited"}}, {"type": "node", "id": 7302121081, "lat": 48.9087498, "lon": 14.3261214, "tags": {"bench": "no", "bin": "no", "bus": "yes", "departures_board": "timetable", "highway": "bus_stop", "lit": "no", "official_name": "K\u0159em\u017ee,M\u0159\u00ed\u010d\u00ed", "public_transport": "platform", "ref:CIS_JR": "16798", "shelter": "no", "source": "streetlevel imagery", "source:date": "2020-03-17", "wheelchair": "limited"}}, {"type": "node", "id": 7511018837, "lat": 48.800836, "lon": 14.3144062, "tags": {"bench": "yes", "bin": "yes", "bus": "yes", "departures_board": "yes", "highway": "bus_stop", "name": "\u010cesk\u00fd Krumlov, Rechle", "official_name": "\u010cesk\u00fd Krumlov,,Rechle", "public_transport": "platform", "ref:CIS_JR": "4965", "shelter": "yes", "wheelchair": "yes"}}, {"type": "node", "id": 7728799256, "lat": 48.6806086, "lon": 14.1615129, "tags": {"bench": "no", "bus": "yes", "departures_board": "yes", "highway": "bus_stop", "name": "V\u0159esn\u00e1", "official_name": "Frymburk,V\u0159esn\u00e1,rozc.0.6", "public_transport": "platform", "ref:CIS_JR": "7944", "shelter": "no"}}, {"type": "node", "id": 7733551798, "lat": 48.8231957, "lon": 14.3301728, "tags": {"bench": "yes", "bin": "yes", "bus": "yes", "departures_board": "timetable", "highway": "bus_stop", "lit": "yes", "name": "\u010cesk\u00fd Krumlov, S\u00eddli\u0161t\u011b M\u00edr", "network": "Busem", "official_name": "\u010cesk\u00fd Krumlov,,s\u00eddl.M\u00edr", "operator": "\u010cSAD Autobusy \u010cesk\u00e9 Bud\u011bjovice, a.s.", "public_transport": "platform", "ref:CIS_JR": "47307", "shelter": "no", "tactile_paving": "no"}}, {"type": "node", "id": 7760929161, "lat": 48.8120817, "lon": 14.260355, "tags": {"bus": "yes", "highway": "bus_stop", "name": "K\u00e1jov, hlavn\u00ed silnice", "official_name": "K\u00e1jov,,hl.sil.", "public_transport": "platform", "ref:CIS_JR": "50406", "shelter": "no"}}, {"type": "node", "id": 7760929162, "lat": 48.8126686, "lon": 14.2602717, "tags": {"bus": "yes", "highway": "bus_stop", "name": "K\u00e1jov, hlavn\u00ed silnice", "official_name": "K\u00e1jov,,hl.sil.", "public_transport": "platform", "ref:CIS_JR": "50406", "shelter": "no"}}, {"type": "node", "id": 7777442167, "lat": 48.5906742, "lon": 14.325833, "tags": {"bus": "yes", "highway": "bus_stop", "name": "Vy\u0161\u0161\u00ed brod, Stud\u00e1nky", "official_name": "Vy\u0161\u0161\u00ed Brod,Stud\u00e1nky", "public_transport": "platform", "ref:CIS_JR": "47877"}}, {"type": "node", "id": 7796382266, "lat": 48.799874, "lon": 14.2529248, "tags": {"bus": "yes", "highway": "bus_stop", "name": "K\u00e1jov, Novosedly", "official_name": "K\u00e1jov,Novosedly", "public_transport": "platform", "ref:CIS_JR": "13683", "shelter": "yes"}}, {"type": "node", "id": 7806930950, "lat": 48.8095256, "lon": 14.3329455, "tags": {"bench": "no", "bin": "no", "bus": "yes", "highway": "bus_stop", "lit": "yes", "name": "\u010cesk\u00fd Krumlov, Kaplick\u00e1", "official_name": "\u010cesk\u00fd Krumlov,,Kaplick\u00e1", "public_transport": "platform", "ref:CIS_JR": "4982", "shelter": "no", "tactile_paving": "no"}}, {"type": "node", "id": 7850777120, "lat": 48.6436911, "lon": 14.2200274}, {"type": "node", "id": 7850777121, "lat": 48.6433759, "lon": 14.2196412}, {"type": "node", "id": 7850777122, "lat": 48.6433685, "lon": 14.2196561}, {"type": "node", "id": 7850777137, "lat": 48.6511616, "lon": 14.2345007, "tags": {"bench": "yes", "bin": "no", "bus": "yes", "highway": "bus_stop", "lit": "no", "name": "Kr\u00e1lovstv\u00ed lesa", "public_transport": "platform", "shelter": "yes", "tactile_paving": "no", "wheelchair": "limited"}}, {"type": "node", "id": 7850777150, "lat": 48.6527005, "lon": 14.2311321, "tags": {"bench": "yes", "bin": "yes", "bus": "yes", "highway": "bus_stop", "lit": "no", "name": "Stezka korunami strom\u016f", "public_transport": "platform", "shelter": "yes", "tactile_paving": "no", "wheelchair": "limited"}}, {"type": "node", "id": 8010685748, "lat": 48.8343255, "lon": 14.3305419, "tags": {"bench": "yes", "bus": "yes", "highway": "bus_stop", "name": "\u010cesk\u00fd Krumlov, Tov\u00e1rn\u00ed-to\u010dna", "network": "Busem", "official_name": "\u010cesk\u00fd Krumlov,,Tov\u00e1rn\u00ed to\u010dna", "operator": "\u010cSAD Autobusy \u010cesk\u00e9 Bud\u011bjovice, a.s.", "public_transport": "platform", "ref:CIS_JR": "4972", "shelter": "yes"}}, {"type": "node", "id": 8010685753, "lat": 48.8345841, "lon": 14.3303505, "tags": {"bench": "yes", "bus": "yes", "highway": "bus_stop", "name": "\u010cesk\u00fd Krumlov, Tov\u00e1rn\u00ed-to\u010dna", "network": "Busem", "operator": "\u010cSAD Autobusy \u010cesk\u00e9 Bud\u011bjovice, a.s.", "public_transport": "platform", "shelter": "yes"}}, {"type": "node", "id": 8085017602, "lat": 48.7741766, "lon": 14.2864381, "tags": {"bus": "yes", "departures_board": "yes", "highway": "bus_stop", "name": "V\u011bt\u0159n\u00ed, U kostela", "network": "Busem", "official_name": "V\u011bt\u0159n\u00ed,,u kostela", "operator": "\u010cSAD Autobusy \u010cesk\u00e9 Bud\u011bjovice a.s.", "public_transport": "platform", "ref:CIS_JR": "49166", "shelter": "yes"}}, {"type": "node", "id": 8085017603, "lat": 48.7740528, "lon": 14.2864917, "tags": {"bus": "yes", "departures_board": "yes", "highway": "bus_stop", "name": "V\u011bt\u0159n\u00ed, u kostela", "network": "Busem", "official_name": "V\u011bt\u0159n\u00ed,,u kostela", "operator": "AUTOBUSY \u010cesk\u00e9 Bud\u011bjovice a.s.", "public_transport": "platform", "ref:CIS_JR": "49166", "shelter": "yes"}}, {"type": "node", "id": 8086036401, "lat": 48.793341, "lon": 14.2214681, "tags": {"bus": "yes", "highway": "bus_stop", "name": "K\u00e1jov, Kladensk\u00e9 Rovn\u00e9", "official_name": "K\u00e1jov,Kladensk\u00e9 Rovn\u00e9", "public_transport": "platform", "ref:CIS_JR": "13678"}}, {"type": "node", "id": 8202316946, "lat": 48.8266097, "lon": 14.3344503, "tags": {"bench": "no", "bin": "no", "bus": "yes", "departures_board": "timetable", "highway": "bus_stop", "kerb": "raised", "lit": "yes", "name": "\u010cesk\u00fd Krumlov, U Supermarketu", "network": "Busem", "official_name": "\u010cesk\u00fd Krumlov,,Tov\u00e1rn\u00ed", "operator": "\u010cSAD Autobusy \u010cesk\u00e9 Bud\u011bjovice, a.s.", "passenger_information_display": "no", "public_transport": "platform", "ref:CIS_JR": "4971", "shelter": "yes", "tactile_paving": "no"}}, {"type": "node", "id": 8574550155, "lat": 48.7058877, "lon": 13.9024888, "tags": {"bus": "yes", "highway": "bus_stop", "name": "Klaffer am Hochficht Pfaffetschlag", "public_transport": "platform"}}, {"type": "node", "id": 8574550156, "lat": 48.7047584, "lon": 13.893773, "tags": {"bus": "yes", "highway": "bus_stop", "name": "Klaffer am Hochficht Freundorf", "public_transport": "platform"}}, {"type": "node", "id": 8574550157, "lat": 48.6949741, "lon": 13.8827598, "tags": {"bus": "yes", "highway": "bus_stop", "name": "Klaffer am Hochficht Abzw Freundorf", "public_transport": "platform"}}, {"type": "node", "id": 8574550158, "lat": 48.6869499, "lon": 13.8993748, "tags": {"bus": "yes", "highway": "bus_stop", "name": "Salnau b.Ulrichsberg Klafferstra\u00dfe", "public_transport": "platform"}}, {"type": "node", "id": 8574550159, "lat": 48.6746489, "lon": 13.9190903, "tags": {"bus": "yes", "highway": "bus_stop", "name": "Ulrichsberg Linzer Stra\u00dfe", "public_transport": "platform"}}, {"type": "node", "id": 8574550160, "lat": 48.6709471, "lon": 13.9276895, "tags": {"bus": "yes", "highway": "bus_stop", "name": "Ulrichsberg Stollnberg West", "public_transport": "platform", "shelter": "no"}}, {"type": "node", "id": 8574550161, "lat": 48.6676311, "lon": 13.934733, "tags": {"bus": "yes", "highway": "bus_stop", "name": "Ulrichsberg Stollnberg Ost", "public_transport": "platform"}}, {"type": "node", "id": 8574550162, "lat": 48.6610996, "lon": 13.9459929, "tags": {"bus": "yes", "highway": "bus_stop", "name": "Schindlau Umfahrung", "public_transport": "platform"}}, {"type": "node", "id": 8574550163, "lat": 48.6506893, "lon": 13.9639905, "tags": {"bus": "yes", "highway": "bus_stop", "name": "Aigen-Schl\u00e4gl Rudolfing", "public_transport": "platform"}}, {"type": "node", "id": 8574550164, "lat": 48.6489234, "lon": 13.9677027, "tags": {"bus": "yes", "highway": "bus_stop", "name": "Aigen-Schl\u00e4gl Theodor-Simoneit-Stra\u00dfe", "public_transport": "platform"}}, {"type": "node", "id": 8574550166, "lat": 48.6367836, "lon": 13.9660404, "tags": {"bus": "yes", "highway": "bus_stop", "name": "Aigen-Schl\u00e4gl Stift", "public_transport": "platform"}}, {"type": "node", "id": 8574704981, "lat": 48.6488862, "lon": 13.9673969, "tags": {"bus": "yes", "highway": "bus_stop", "name": "Aigen-Schl\u00e4gl Theodor-Simoneit-Stra\u00dfe", "public_transport": "platform"}}, {"type": "node", "id": 8574704982, "lat": 48.6508496, "lon": 13.9635882, "tags": {"bus": "yes", "highway": "bus_stop", "name": "Aigen-Schl\u00e4gl Rudolfing", "public_transport": "platform"}}, {"type": "node", "id": 8574704983, "lat": 48.6708798, "lon": 13.9276198, "tags": {"bus": "yes", "highway": "bus_stop", "name": "Ulrichsberg Stollnberg West", "public_transport": "platform"}}, {"type": "node", "id": 8574704984, "lat": 48.6744984, "lon": 13.9190206, "tags": {"bus": "yes", "highway": "bus_stop", "name": "Ulrichsberg Linzer Stra\u00dfe", "public_transport": "platform"}}, {"type": "node", "id": 8574704986, "lat": 48.6948945, "lon": 13.8826713, "tags": {"bus": "yes", "highway": "bus_stop", "name": "Klaffer am Hochficht Abzw Freundorf", "public_transport": "platform"}}, {"type": "node", "id": 8574704987, "lat": 48.7040043, "lon": 13.8919866, "tags": {"bus": "yes", "highway": "bus_stop", "name": "Klaffer am Hochficht Freundorf", "public_transport": "platform"}}, {"type": "node", "id": 8574704988, "lat": 48.705932, "lon": 13.9022031, "tags": {"bus": "yes", "highway": "bus_stop", "name": "Klaffer am Hochficht Pfaffetschlag", "public_transport": "platform"}}, {"type": "node", "id": 8722826004, "lat": 48.8156631, "lon": 14.2853663, "tags": {"bus": "yes", "highway": "bus_stop", "official_name": "K\u00e1jov,Star\u00e9 Dobrkovice", "public_transport": "platform", "ref:CIS_JR": "13677", "shelter": "yes"}}, {"type": "node", "id": 8722826005, "lat": 48.8158177, "lon": 14.2851243, "tags": {"bus": "yes", "highway": "bus_stop", "official_name": "K\u00e1jov,Star\u00e9 Dobrkovice", "public_transport": "platform", "ref:CIS_JR": "13677", "shelter": "yes"}}, {"type": "node", "id": 8740553927, "lat": 48.7654248, "lon": 14.1734369, "tags": {"bench": "yes", "bin": "yes", "bus": "yes", "departures_board": "timetable", "highway": "bus_stop", "lit": "yes", "name": "Ho\u0159ice na \u0160umav\u011b, U h\u0159bitova", "official_name": "Ho\u0159ice na \u0160umav\u011b,,U h\u0159bitova", "public_transport": "platform", "ref:CIS_JR": "10162", "shelter": "yes", "tactile_paving": "no"}}, {"type": "node", "id": 8740553928, "lat": 48.7652993, "lon": 14.1733189, "tags": {"bench": "yes", "bin": "yes", "bus": "yes", "departures_board": "timetable", "highway": "bus_stop", "lit": "yes", "name": "Ho\u0159ice na \u0160umav\u011b, U h\u0159bitova", "official_name": "Ho\u0159ice na \u0160umav\u011b,,U h\u0159bitova", "public_transport": "platform", "ref:CIS_JR": "10162", "shelter": "yes", "tactile_paving": "no"}}, {"type": "node", "id": 8755424193, "lat": 48.6775013, "lon": 13.9107916, "tags": {"bench": "yes", "bin": "no", "bus": "yes", "highway": "bus_stop", "lit": "no", "name": "Ulrichsberg Abzw Lichtenberg", "public_transport": "platform", "shelter": "yes", "tactile_paving": "no"}}, {"type": "node", "id": 8755424194, "lat": 48.6777554, "lon": 13.9106521, "tags": {"bench": "no", "bin": "no", "bus": "yes", "highway": "bus_stop", "lit": "no", "name": "Ulrichsberg Abzw Lichtenberg", "public_transport": "platform", "shelter": "no", "tactile_paving": "no"}}, {"type": "node", "id": 8755506229, "lat": 48.6874315, "lon": 13.9011276, "tags": {"bus": "yes", "highway": "bus_stop", "name": "Salnau b.Ulrichsberg Abzw Pfaffetschlag", "public_transport": "platform"}}, {"type": "node", "id": 8755506230, "lat": 48.7001427, "lon": 13.9042081, "tags": {"bus": "yes", "highway": "bus_stop", "name": "Rading b.Ulrichsberg", "public_transport": "platform"}}, {"type": "node", "id": 8755506231, "lat": 48.6960939, "lon": 13.8796324, "tags": {"bus": "yes", "highway": "bus_stop", "name": "Klaffer am Hochficht Raika", "public_transport": "platform"}}, {"type": "node", "id": 8755506232, "lat": 48.7074967, "lon": 13.8644792, "tags": {"bus": "yes", "highway": "bus_stop", "name": "Klaffer am Hochficht Spitzwirt", "public_transport": "platform"}}, {"type": "node", "id": 8755506233, "lat": 48.7105604, "lon": 13.8608314, "tags": {"bus": "yes", "highway": "bus_stop", "name": "Klaffer am Hochficht Sch\u00f6nberg", "public_transport": "platform"}}, {"type": "node", "id": 8755506234, "lat": 48.7126338, "lon": 13.8537276, "tags": {"bus": "yes", "highway": "bus_stop", "name": "Panidorf Ort", "public_transport": "platform"}}, {"type": "node", "id": 8755506235, "lat": 48.7226535, "lon": 13.8350084, "tags": {"bus": "yes", "highway": "bus_stop", "name": "Schwarzenberg am B\u00f6hmerwald Waldkapelle", "public_transport": "platform"}}, {"type": "node", "id": 8755506236, "lat": 48.7301175, "lon": 13.8339731, "tags": {"bus": "yes", "highway": "bus_stop", "name": "Schwarzenberg am B\u00f6hmerwald Ortsmitte", "public_transport": "platform"}}, {"type": "node", "id": 8755506237, "lat": 48.7222545, "lon": 13.835164, "tags": {"bus": "yes", "highway": "bus_stop", "name": "Schwarzenberg am B\u00f6hmerwald Waldkapelle", "public_transport": "platform"}}, {"type": "node", "id": 8755506238, "lat": 48.7127639, "lon": 13.8534459, "tags": {"bus": "yes", "highway": "bus_stop", "name": "Panidorf Ort", "public_transport": "platform"}}, {"type": "node", "id": 8755506239, "lat": 48.7106702, "lon": 13.86094, "tags": {"bus": "yes", "highway": "bus_stop", "name": "Klaffer am Hochficht Sch\u00f6nberg", "public_transport": "platform"}}, {"type": "node", "id": 8755506240, "lat": 48.7073108, "lon": 13.8648802, "tags": {"bus": "yes", "highway": "bus_stop", "name": "Klaffer am Hochficht Spitzwirt", "public_transport": "platform"}}, {"type": "node", "id": 8755506241, "lat": 48.6961479, "lon": 13.8798054, "tags": {"bus": "yes", "highway": "bus_stop", "name": "Klaffer am Hochficht Raika", "public_transport": "platform"}}, {"type": "node", "id": 8755506242, "lat": 48.7000993, "lon": 13.9043891, "tags": {"bus": "yes", "highway": "bus_stop", "name": "Rading b.Ulrichsberg", "public_transport": "platform"}}, {"type": "node", "id": 8755506243, "lat": 48.687072, "lon": 13.9011973, "tags": {"bus": "yes", "highway": "bus_stop", "name": "Salnau b.Ulrichsberg Abzw Pfaffetschlag", "public_transport": "platform"}}, {"type": "node", "id": 8755618676, "lat": 48.6699463, "lon": 13.8956988, "tags": {"bus": "yes", "highway": "bus_stop", "name": "Ulrichsberg Stangl", "public_transport": "platform"}}, {"type": "node", "id": 8755618677, "lat": 48.6566933, "lon": 13.8678279, "tags": {"bus": "yes", "highway": "bus_stop", "name": "Julbach im M\u00fchlkreis Pendlerparkplatz", "public_transport": "platform"}}, {"type": "node", "id": 8755618678, "lat": 48.6701668, "lon": 13.8957283, "tags": {"bus": "yes", "highway": "bus_stop", "name": "Ulrichsberg Stangl", "public_transport": "platform"}}, {"type": "node", "id": 8785559667, "lat": 48.8118548, "lon": 14.3234445, "tags": {"bench": "yes", "bin": "yes", "bus": "yes", "departures_board": "no", "highway": "bus_stop", "kerb": "raised", "kerb:approach_aid": "no", "lit": "yes", "name:signed": "no", "passenger_information_display": "no", "public_transport": "platform", "shelter": "yes", "tactile_paving": "no"}}, {"type": "node", "id": 9237659666, "lat": 48.6799714, "lon": 13.796021, "tags": {"bus": "yes", "highway": "bus_stop", "name": "Gollnerberg, Schuhkapelle", "public_transport": "stop_position"}}, {"type": "node", "id": 9237664295, "lat": 48.6760685, "lon": 13.7938339, "tags": {"bus": "yes", "highway": "bus_stop", "name": "Gollnerberg, Schule", "public_transport": "stop_position"}}, {"type": "node", "id": 9237939126, "lat": 48.6498139, "lon": 13.7843214, "tags": {"bus": "yes", "highway": "bus_stop", "name": "Simmelkurve", "public_transport": "stop_position"}}, {"type": "node", "id": 9238007580, "lat": 48.6878839, "lon": 13.7903135, "tags": {"bus": "yes", "highway": "bus_stop", "name": "Weidinger-Holz", "platform:width": "2.10", "public_transport": "platform", "ref:IFOPT": "de:09275:5423:0:1", "shelter": "yes"}}, {"type": "node", "id": 9238027488, "lat": 48.6939628, "lon": 13.7866234, "tags": {"bench": "yes", "bus": "yes", "highway": "bus_stop", "kerb": "raised", "kerb:height": "0.11", "name": "Stampferbr\u00fccke", "platform:width": "1.2", "public_transport": "platform", "ref:IFOPT": "de:09275:5424:0:2", "shelter": "yes", "wheelchair": "no"}}, {"type": "node", "id": 9274387439, "lat": 48.6944899, "lon": 13.8089709, "tags": {"bus": "yes", "highway": "bus_stop", "name": "Breitenberg, Dreihiaslstra\u00dfe Hs. Nr. 29", "platform:width": "1.5", "public_transport": "platform", "ref:IFOPT": "de:09275:16003:0:1", "shelter": "yes"}}, {"type": "node", "id": 9274503741, "lat": 48.7057373, "lon": 13.7754661, "tags": {"bus": "yes", "highway": "bus_stop", "name": "Ungarsteig, Abzw", "platform:width": "1.52", "public_transport": "platform", "ref:IFOPT": "de:09275:8785:0:1", "shelter": "yes", "surface": "unpaved", "wheelchair": "no"}}, {"type": "node", "id": 9283384704, "lat": 48.6978192, "lon": 13.8308886, "tags": {"bench": "yes", "bus": "yes", "highway": "bus_stop", "name": "Breitenberg, Dreihiaslstra\u00dfe Hausnummer 85", "platform:width": "2.7", "public_transport": "platform", "ref:IFOPT": "de:09275:16002:0:1", "shelter": "yes", "surface": "unpaved", "wheelchair": "no"}}, {"type": "node", "id": 9320000701, "lat": 48.6790359, "lon": 13.806062, "tags": {"bench": "yes", "bus": "yes", "highway": "bus_stop", "name": "Breitenberg, Kohlstattstr. Wh,Breitenberg/Kr PA", "platform:width": "3.20", "public_transport": "platform", "ref:IFOPT": "de:09275:16001:0:1", "shelter": "yes"}}, {"type": "node", "id": 9382321174, "lat": 48.9351282, "lon": 14.2351255, "tags": {"bench": "no", "bin": "no", "bus": "yes", "highway": "bus_stop", "lit": "no", "name": "Brloh, u rybn\u00edka", "official_name": "Brloh,,u rybn\u00edka", "public_transport": "platform", "ref:CIS_JR": "2721", "shelter": "no", "tactile_paving": "no"}}, {"type": "node", "id": 9382321175, "lat": 48.9351775, "lon": 14.235273, "tags": {"bench": "no", "bin": "no", "bus": "yes", "highway": "bus_stop", "lit": "no", "name": "Brloh, u rybn\u00edka", "official_name": "Brloh,,u rybn\u00edka", "public_transport": "platform", "ref:CIS_JR": "2721", "shelter": "no", "tactile_paving": "no"}}, {"type": "node", "id": 9690140821, "lat": 48.675454, "lon": 13.7676437, "tags": {"bus": "yes", "highway": "bus_stop", "name": "Spiesbrunn, Abzw", "public_transport": "platform", "ref:IFOPT": "de:09275:6301:0:1", "surface": "unpaved", "wheelchair": "no"}}, {"type": "node", "id": 9690431662, "lat": 48.7910742, "lon": 13.948241, "tags": {"bus": "yes", "highway": "bus_stop", "name": "Nov\u00e1 Pec", "official_name": "Nov\u00e1 Pec", "public_transport": "stop_position", "ref:CIS_JR": "23606"}}, {"type": "node", "id": 9720253843, "lat": 48.737387, "lon": 13.7224985, "tags": {"bus": "yes", "highway": "bus_stop", "name": "Binderbruck", "platform:width": "3.5", "public_transport": "platform", "ref:IFOPT": "de:09272:82357:0:1"}}, {"type": "node", "id": 9720276207, "lat": 48.6996988, "lon": 13.7257044, "tags": {"bus": "yes", "highway": "bus_stop", "name": "Jandelsbrunn Bognerwies Abzweigung", "platform:width": "2.5", "public_transport": "platform", "ref:IFOPT": "de:09272:82310:0:1"}}, {"type": "node", "id": 9724308862, "lat": 48.7435775, "lon": 13.7459055, "tags": {"bus": "yes", "highway": "bus_stop", "name": "Neureichenau Kernberg Kreisstra\u00dfe", "platform:width": "2.9", "public_transport": "platform", "ref:IFOPT": "de:09272:82221:0:2"}}, {"type": "node", "id": 9724339405, "lat": 48.7380959, "lon": 13.734895, "tags": {"bus": "yes", "highway": "bus_stop", "name": "Neureichenau Kernberg", "public_transport": "platform", "ref:IFOPT": "de:09272:82363:0:1", "surface": "unpaved", "wheelchair": "no"}}, {"type": "node", "id": 9724352373, "lat": 48.7413586, "lon": 13.73904, "tags": {"bench": "yes", "bus": "yes", "highway": "bus_stop", "name": "Kernberg Abzweigung G\u00e4nswies", "platform:width": "3.3", "public_transport": "platform", "ref:IFOPT": "de:09272:82364:0:1", "shelter": "yes"}}, {"type": "node", "id": 9724359036, "lat": 48.7286012, "lon": 13.7863585, "tags": {"bus": "yes", "highway": "bus_stop", "kerb": "raised", "kerb:height": "0.07", "name": "Klafferstra\u00df Abzweigung Spillerh\u00e4user", "platform:width": "1.1", "public_transport": "platform", "ref:IFOPT": "de:09272:82366:0:2", "shelter": "no", "wheelchair": "no"}}, {"type": "node", "id": 9724359037, "lat": 48.7287065, "lon": 13.7861909, "tags": {"bus": "yes", "highway": "bus_stop", "kerb": "raised", "kerb:height": "0.04", "name": "Klafferstra\u00df Abzweigung Spillerh\u00e4user", "platform:width": "3", "public_transport": "platform", "ref:IFOPT": "de:09272:82366:0:1", "shelter": "yes", "wheelchair": "no"}}, {"type": "node", "id": 9724373927, "lat": 48.7279351, "lon": 13.7975769, "tags": {"bus": "yes", "highway": "bus_stop", "kerb": "raised", "kerb:height": "0.11", "name": "Klafferstra\u00df, Gasthaus Kani", "platform:width": "1.1", "public_transport": "platform", "ref:IFOPT": "de:09272:4818:0:2", "shelter": "no", "wheelchair": "no"}}, {"type": "node", "id": 9724373928, "lat": 48.7282456, "lon": 13.7973127, "tags": {"bench": "yes", "bin": "no", "bus": "yes", "highway": "bus_stop", "name": "Klafferstra\u00df, Gasthaus Kani", "platform:width": "3.4", "public_transport": "platform", "ref:IFOPT": "de:09272:4818:0:1", "shelter": "yes"}}, {"type": "node", "id": 9725851110, "lat": 48.7397021, "lon": 13.8076687, "tags": {"bench": "no", "bus": "yes", "highway": "bus_stop", "kerb": "raised", "kerb:height": "0.12", "name": "Lackenh\u00e4user, Hochwaldhalle", "platform:width": "1.3", "public_transport": "platform", "ref:IFOPT": "de:09272:4875:0:2", "shelter": "no"}}, {"type": "node", "id": 9725851111, "lat": 48.7398525, "lon": 13.8075829, "tags": {"bench": "yes", "bus": "yes", "highway": "bus_stop", "kerb": "raised", "kerb:height": "0.11", "name": "Lackenh\u00e4user, Hochwaldhalle", "platform:width": "3.1", "public_transport": "platform", "ref:IFOPT": "de:09272:4875:0:1", "shelter": "yes"}}, {"type": "node", "id": 9725866966, "lat": 48.7506104, "lon": 13.8153881, "tags": {"bench": "yes", "bin": "no", "bus": "yes", "highway": "bus_stop", "lit": "no", "name": "Lackenh\u00e4user, Rosenbergergut", "platform:width": "2.9", "public_transport": "platform", "ref:IFOPT": "de:09272:4817:0:1", "shelter": "yes", "tactile_paving": "no", "wheelchair": "limited"}}, {"type": "node", "id": 9725866967, "lat": 48.7508779, "lon": 13.8154679, "tags": {"bench": "no", "bin": "no", "bus": "yes", "highway": "bus_stop", "lit": "no", "name": "Lackenh\u00e4user, Rosenbergergut", "public_transport": "platform", "ref:IFOPT": "de:09272:4817:0:1", "shelter": "no", "surface": "unpaved", "tactile_paving": "no", "wheelchair": "no"}}, {"type": "node", "id": 9725882311, "lat": 48.7335585, "lon": 13.8038573, "tags": {"bench": "no", "bin": "no", "bus": "yes", "highway": "bus_stop", "kerb:height": "0.11", "name": "Lackenh\u00e4user, Schule", "platform:width": "1", "public_transport": "platform", "ref:IFOPT": "de:09272:4878:0:2", "shelter": "no"}}, {"type": "node", "id": 9725882312, "lat": 48.7336275, "lon": 13.8036427, "tags": {"bench": "yes", "bus": "yes", "highway": "bus_stop", "kerb": "raised", "kerb:height": "0.10", "name": "Lackenh\u00e4user, Schule", "platform:width": "3.4", "public_transport": "platform", "ref:IFOPT": "de:09272:4878:0:1", "shelter": "yes"}}, {"type": "node", "id": 9725984820, "lat": 48.697859, "lon": 13.7234138, "tags": {"bench": "yes", "bus": "yes", "highway": "bus_stop", "name": "Rehleiten", "public_transport": "platform", "ref:IFOPT": "de:09272:82337:0:1", "shelter": "yes", "surface": "unpaved", "wheelchair": "no"}}, {"type": "node", "id": 9725991325, "lat": 48.7690708, "lon": 13.7186851, "tags": {"bench": "yes", "bus": "yes", "highway": "bus_stop", "kerb": "raised", "kerb:height": "0.06", "name": "R\u00f6hrndlberg", "platform:width": "3", "public_transport": "platform", "ref:IFOPT": "de:09272:82373:0:2", "shelter": "yes"}}, {"type": "node", "id": 9725991326, "lat": 48.7690125, "lon": 13.7182438, "tags": {"bus": "yes", "highway": "bus_stop", "kerb": "raised", "kerb:height": "0.09", "name": "R\u00f6hrndlberg", "platform:width": "1.1", "public_transport": "platform", "ref:IFOPT": "de:09272:82373:0:1"}}, {"type": "node", "id": 9726001246, "lat": 48.7476393, "lon": 13.7605718, "tags": {"bench": "no", "bin": "no", "bus": "yes", "highway": "bus_stop", "kerb": "raised", "kerb:height": "0.10", "lit": "yes", "name": "Schimmelbach, Dittlmann", "platform:width": "1.1", "public_transport": "platform", "ref:IFOPT": "de:09272:4905:0:2", "shelter": "no", "tactile_paving": "no"}}, {"type": "node", "id": 9726001247, "lat": 48.7473174, "lon": 13.7606268, "tags": {"bench": "yes", "bin": "no", "bus": "yes", "highway": "bus_stop", "kerb": "raised", "kerb:height": "0.12", "lit": "no", "name": "Schimmelbach, Dittlmann", "platform:width": "2.6", "public_transport": "platform", "ref:IFOPT": "de:09272:4905:0:1", "shelter": "yes", "tactile_paving": "no"}}, {"type": "node", "id": 9726012825, "lat": 48.7568855, "lon": 13.7764323, "tags": {"bench": "yes", "bus": "yes", "highway": "bus_stop", "kerb": "raised", "kerb:height": "0.11", "name": "Schimmelbach", "platform:width": "2.8", "public_transport": "platform", "ref:IFOPT": "de:09272:4906:0:2", "shelter": "yes", "wheelchair": "no"}}, {"type": "node", "id": 9726012826, "lat": 48.7567838, "lon": 13.7763707, "tags": {"bench": "no", "bus": "yes", "highway": "bus_stop", "kerb": "raised", "kerb:height": "0.09", "name": "Schimmelbach", "platform:width": "1", "public_transport": "platform", "ref:IFOPT": "de:09272:4906:0:1", "shelter": "no"}}, {"type": "node", "id": 9732056496, "lat": 48.7811781, "lon": 13.7255502, "tags": {"bench": "yes", "bus": "yes", "highway": "bus_stop", "name": "Neureichenau Hinterfreundorf Grimbs", "public_transport": "platform", "ref:IFOPT": "de:09272:82222:0:1", "shelter": "yes", "surface": "unpaved", "wheelchair": "no"}}, {"type": "node", "id": 9732068162, "lat": 48.7830224, "lon": 13.7252766, "tags": {"bus": "yes", "highway": "bus_stop", "name": "Neureichenau Hinterfreundorf Abzweigung Gschwendet", "public_transport": "platform", "ref:IFOPT": "de:09272:82223:0:1", "surface": "unpaved", "wheelchair": "no"}}, {"type": "node", "id": 9732084958, "lat": 48.7264356, "lon": 13.7677547, "tags": {"bus": "yes", "highway": "bus_stop", "name": "Klafferstra\u00df Abzweigung Kleingsenget", "public_transport": "platform", "ref:IFOPT": "de:09272:82365:0:1", "shelter": "no", "surface": "unpaved", "wheelchair": "no"}}, {"type": "node", "id": 9732101552, "lat": 48.7284977, "lon": 13.7810612, "tags": {"bus": "yes", "highway": "bus_stop", "name": "Klafferstra\u00df Aufelder", "public_transport": "platform", "ref:IFOPT": "de:09272:82367:0:2", "surface": "unpaved", "wheelchair": "no"}}, {"type": "node", "id": 9732101553, "lat": 48.7286428, "lon": 13.780982, "tags": {"bus": "yes", "highway": "bus_stop", "kerb": "raised", "kerb:height": "0.10", "name": "Klafferstra\u00df Aufelder", "platform:width": "1.4", "public_transport": "platform", "ref:IFOPT": "de:09272:82367:0:1", "shelter": "no"}}, {"type": "node", "id": 9732111043, "lat": 48.7432627, "lon": 13.813937, "tags": {"bench": "yes", "bin": "no", "bus": "yes", "highway": "bus_stop", "lit": "no", "name": "Lackenh\u00e4user, Hellauer", "platform:width": "2.6", "public_transport": "platform", "ref:IFOPT": "de:09272:4874:0:2", "shelter": "yes", "tactile_paving": "no"}}, {"type": "node", "id": 9732111044, "lat": 48.7435669, "lon": 13.8141596, "tags": {"bus": "yes", "highway": "bus_stop", "name": "Lackenh\u00e4user, Hellauer", "public_transport": "platform", "ref:IFOPT": "de:09272:4874:0:1", "shelter": "no", "surface": "unpaved", "wheelchair": "no"}}, {"type": "node", "id": 9732125154, "lat": 48.7511383, "lon": 13.8097487, "tags": {"bus": "yes", "highway": "bus_stop", "name": "Lackenh\u00e4user, Kempinger", "public_transport": "platform", "ref:IFOPT": "de:09272:4910:0:2", "shelter": "no", "surface": "unpaved", "wheelchair": "no"}}, {"type": "node", "id": 9732125155, "lat": 48.7510702, "lon": 13.8096696, "tags": {"bench": "yes", "bus": "yes", "highway": "bus_stop", "name": "Lackenh\u00e4user, Kempinger", "platform:width": "2.9", "public_transport": "platform", "ref:IFOPT": "de:09272:4910:0:1", "shelter": "yes"}}, {"type": "node", "id": 9732127197, "lat": 48.7278599, "lon": 13.7611029, "tags": {"bus": "yes", "highway": "bus_stop", "name": "Langbruck St\u00f6gbauer", "public_transport": "platform", "ref:IFOPT": "de:09272:82372:0:1", "surface": "unpaved", "wheelchair": "no"}}, {"type": "node", "id": 9732215345, "lat": 48.7285552, "lon": 13.7565042, "tags": {"bench": "no", "bin": "no", "bus": "yes", "highway": "bus_stop", "lit": "no", "name": "Neureichenau, Bachstra\u00dfe 9-11", "public_transport": "platform", "ref:IFOPT": "de:09272:11694:0:2", "shelter": "no", "surface": "unpaved", "tactile_paving": "no", "wheelchair": "no"}}, {"type": "node", "id": 9732215346, "lat": 48.7284225, "lon": 13.7564211, "tags": {"bench": "no", "bin": "no", "bus": "yes", "highway": "bus_stop", "lit": "no", "name": "Neureichenau, Bachstra\u00dfe 9-11", "public_transport": "platform", "ref:IFOPT": "de:09272:11694:0:1", "shelter": "no", "surface": "unpaved", "tactile_paving": "no", "wheelchair": "no"}}, {"type": "node", "id": 9732245460, "lat": 48.7109259, "lon": 13.7150413, "tags": {"bus": "yes", "highway": "bus_stop", "name": "Jandelsbrunn Neuweid Abzweigung", "public_transport": "platform", "ref:IFOPT": "de:09272:82228:0:2", "surface": "unpaved", "wheelchair": "no"}}, {"type": "node", "id": 9732326304, "lat": 48.751492, "lon": 13.8036561, "tags": {"bus": "yes", "highway": "bus_stop", "kerb": "raised", "kerb:height": "0.14", "name": "Riedelsbach, Bergheim", "platform:width": "1.4", "public_transport": "platform", "ref:IFOPT": "de:09272:4909:0:2"}}, {"type": "node", "id": 9732326305, "lat": 48.751377, "lon": 13.8035998, "tags": {"bench": "yes", "bin": "no", "highway": "bus_stop", "kerb": "raised", "kerb:height": "0.10", "name": "Riedelsbach, Bergheim", "platform:width": "3.1", "public_transport": "platform", "ref:IFOPT": "de:09272:4909:0:1", "shelter": "yes", "surface": "unpaved", "wheelchair": "no"}}, {"type": "node", "id": 9732350705, "lat": 48.749796, "lon": 13.7948464, "tags": {"bus": "yes", "highway": "bus_stop", "name": "Riedelsbach, Pfoser", "public_transport": "platform", "ref:IFOPT": "de:09272:4908:0:2", "shelter": "no", "surface": "unpaved", "wheelchair": "no"}}, {"type": "node", "id": 9732350706, "lat": 48.7497686, "lon": 13.7946848, "tags": {"bench": "yes", "bus": "yes", "highway": "bus_stop", "name": "Riedelsbach, Pfoser", "platform:width": "1.9", "public_transport": "platform", "ref:IFOPT": "de:09272:4908:0:1", "shelter": "yes", "surface": "unpaved", "wheelchair": "no"}}, {"type": "node", "id": 9732381494, "lat": 48.7534319, "lon": 13.7728134, "tags": {"bench": "no", "bin": "no", "bus": "yes", "highway": "bus_stop", "lit": "no", "name": "Neureichenau Schimmelbach Nummer 25", "public_transport": "platform", "ref:IFOPT": "de:09272:82374:0:2", "shelter": "no", "surface": "unpaved", "tactile_paving": "no", "wheelchair": "no"}}, {"type": "node", "id": 9732381495, "lat": 48.7533028, "lon": 13.7728214, "tags": {"bench": "no", "bin": "no", "bus": "yes", "highway": "bus_stop", "lit": "no", "name": "Neureichenau Schimmelbach Nummer 25", "public_transport": "platform", "ref:IFOPT": "de:09272:82374:0:1", "shelter": "no", "surface": "unpaved", "tactile_paving": "no", "wheelchair": "no"}}, {"type": "node", "id": 9732381511, "lat": 48.7354142, "lon": 13.7807447, "tags": {"bus": "yes", "highway": "bus_stop", "name": "Neureichenau Spillerh\u00e4user Haltestelle 2", "public_transport": "platform", "ref:IFOPT": "de:09272:82376:0:2", "surface": "unpaved", "wheelchair": "no"}}, {"type": "node", "id": 9732381512, "lat": 48.735492, "lon": 13.7809378, "tags": {"bus": "yes", "highway": "bus_stop", "name": "Neureichenau Spillerh\u00e4user Haltestelle 2", "public_transport": "platform", "ref:IFOPT": "de:09272:82376:0:1", "surface": "unpaved", "wheelchair": "no"}}, {"type": "node", "id": 9732398081, "lat": 48.7409757, "lon": 13.772572, "tags": {"bench": "no", "bin": "no", "bus": "yes", "highway": "bus_stop", "name": "Neureichenau Spillerh\u00e4user Haltestelle", "public_transport": "platform", "ref:IFOPT": "de:09272:82375:0:2", "shelter": "no", "surface": "unpaved", "wheelchair": "no"}}, {"type": "node", "id": 9732398082, "lat": 48.7408412, "lon": 13.7724486, "tags": {"bus": "yes", "highway": "bus_stop", "name": "Neureichenau Spillerh\u00e4user Haltestelle", "public_transport": "platform", "ref:IFOPT": "de:09272:82375:0:1", "surface": "unpaved", "wheelchair": "no"}}, {"type": "node", "id": 9737025677, "lat": 48.7265206, "lon": 13.7398826, "tags": {"bench": "yes", "bin": "no", "bus": "yes", "highway": "bus_stop", "kerb": "raised", "kerb:height": "0.12", "name": "Gsenget Kapellenstra\u00dfe", "platform:width": "4.2", "public_transport": "platform", "ref:IFOPT": "de:09272:82361:0:2", "shelter": "yes"}}, {"type": "node", "id": 9737025678, "lat": 48.7264489, "lon": 13.7401508, "tags": {"bus": "yes", "highway": "bus_stop", "kerb": "raised", "kerb:height": "0.10", "name": "Gsenget Kapellenstra\u00dfe", "platform:width": "1.5", "public_transport": "platform", "ref:IFOPT": "de:09272:82361:0:1", "shelter": "no"}}, {"type": "node", "id": 9737032219, "lat": 48.7342112, "lon": 13.7235144, "tags": {"bus": "yes", "highway": "bus_stop", "name": "Gsenget Abzweigung Binderbruck", "public_transport": "platform", "ref:IFOPT": "de:09272:82358:0:1", "surface": "unpaved", "wheelchair": "no"}}, {"type": "node", "id": 9737033142, "lat": 48.7317478, "lon": 13.7405451, "tags": {"bench": "yes", "bus": "yes", "highway": "bus_stop", "name": "Gsenget Abzweigung J\u00e4gerstra\u00dfe", "platform:width": "2.6", "public_transport": "platform", "ref:IFOPT": "de:09272:82359:0:1", "shelter": "yes"}}, {"type": "node", "id": 9737047747, "lat": 48.7245318, "lon": 13.7330094, "tags": {"bench": "no", "bin": "no", "bus": "yes", "highway": "bus_stop", "kerb": "raised", "kerb:height": "0.10", "lit": "no", "name": "Gsenget Goldbachstra\u00dfe", "platform:width": "1.5", "public_transport": "platform", "ref:IFOPT": "de:09272:82360:0:2", "shelter": "no", "tactile_paving": "no"}}, {"type": "node", "id": 9737164144, "lat": 48.8268748, "lon": 13.7777808, "tags": {"bus": "yes", "highway": "bus_stop", "name": "Haidm\u00fchle Schule", "platform:width": "3.4", "public_transport": "platform", "ref:IFOPT": "de:09272:82206:0:1"}}, {"type": "node", "id": 9737170062, "lat": 48.7794637, "lon": 13.7306651, "tags": {"bus": "yes", "highway": "bus_stop", "name": "Hinterfreundorf Osterbachbr\u00fccke", "public_transport": "platform", "ref:IFOPT": "de:09272:82362:0:1", "surface": "unpaved", "wheelchair": "no"}}, {"type": "node", "id": 9737694695, "lat": 48.7645925, "lon": 13.7244719, "tags": {"bench": "yes", "bus": "yes", "highway": "bus_stop", "kerb": "no", "name": "Altreichenau Gassenweg", "platform:width": "3", "public_transport": "platform", "ref:IFOPT": "de:09272:82355:0:1", "shelter": "yes"}}, {"type": "node", "id": 9737699606, "lat": 48.7682175, "lon": 13.7312088, "tags": {"bus": "yes", "highway": "bus_stop", "kerb": "raised", "kerb:height": "0.08", "name": "Altreichenau, Gh. Schmid", "platform:width": "4", "public_transport": "platform", "ref:IFOPT": "de:09272:4933:0:2"}}, {"type": "node", "id": 9737724429, "lat": 48.7638944, "lon": 13.7322769, "tags": {"bus": "yes", "highway": "bus_stop", "name": "Altreichenau Aufeld", "public_transport": "platform", "ref:IFOPT": "de:09272:82354:0:1", "shelter": "no", "surface": "unpaved", "wheelchair": "no"}}, {"type": "node", "id": 9737742006, "lat": 48.7728231, "lon": 13.7319414, "tags": {"highway": "bus_stop", "kerb": "raised", "kerb:height": "0.12", "name": "Altreichenau Kirche", "platform:width": "1.5", "public_transport": "platform", "ref:IFOPT": "de:09272:4934:0:2"}}, {"type": "node", "id": 9737742007, "lat": 48.7731111, "lon": 13.7318179, "tags": {"highway": "bus_stop", "kerb": "raised", "kerb:height": "0.12", "name": "Altreichenau Kirche", "platform:width": "1.5", "public_transport": "platform", "ref:IFOPT": "de:09272:4934:0:1"}}, {"type": "node", "id": 9764801902, "lat": 48.8268732, "lon": 13.7744402, "tags": {"bus": "yes", "highway": "bus_stop", "kerb": "raised", "kerb:height": "0.09", "name": "Haidm\u00fchle M\u00fchldorfer", "platform:width": "3.7", "public_transport": "platform", "ref:IFOPT": "de:09272:4872:0:1"}}, {"type": "node", "id": 9764801904, "lat": 48.827098, "lon": 13.7746569, "tags": {"bus": "yes", "highway": "bus_stop", "kerb": "raised", "kerb:height": "0.09", "name": "Haidm\u00fchle M\u00fchldorfer", "platform:width": "3.7", "public_transport": "platform", "ref:IFOPT": "de:09272:4872:0:2"}}, {"type": "node", "id": 9810787883, "lat": 48.8124906, "lon": 14.2593988, "tags": {"bus": "yes", "highway": "bus_stop", "name": "K\u00e1jov", "official_name": "K\u00e1jov", "public_transport": "platform", "ref:CIS_JR": "13674", "shelter": "yes"}}, {"type": "node", "id": 9810787884, "lat": 48.8123194, "lon": 14.2592443, "tags": {"bench": "yes", "bus": "yes", "highway": "bus_stop", "name": "K\u00e1jov", "official_name": "K\u00e1jov", "public_transport": "platform", "ref:CIS_JR": "13674", "shelter": "yes"}}, {"type": "node", "id": 9846505055, "lat": 48.8647783, "lon": 13.714757, "tags": {"bench": "yes", "bin": "no", "bus": "yes", "highway": "bus_stop", "kerb": "raised", "kerb:height": "0.08", "name": "Schwarzenthal", "platform:width": "1.9", "public_transport": "platform", "ref:IFOPT": "de:09272:4864:0:1", "shelter": "yes"}}, {"type": "node", "id": 9846505056, "lat": 48.8648912, "lon": 13.7150761, "tags": {"bench": "no", "bin": "no", "bus": "yes", "highway": "bus_stop", "kerb": "raised", "kerb:height": "0.08", "name": "Schwarzenthal", "platform:width": "1.3", "public_transport": "platform", "ref:IFOPT": "de:09272:4864:0:2", "shelter": "no"}}, {"type": "node", "id": 9846505057, "lat": 48.8561133, "lon": 13.7348232, "tags": {"bench": "no", "bin": "no", "bus": "yes", "highway": "bus_stop", "kerb": "raised", "kerb:height": "0.09", "name": "Bischofsreut Gemeinde", "platform:width": "1.4", "public_transport": "platform", "ref:IFOPT": "de:09272:4866:0:1", "shelter": "no"}}, {"type": "node", "id": 9846505058, "lat": 48.8561359, "lon": 13.7350597, "tags": {"bench": "yes", "bus": "yes", "highway": "bus_stop", "kerb": "raised", "kerb:height": "0.09", "name": "Bischofsreut Gemeinde", "platform:width": "3.7", "public_transport": "platform", "ref:IFOPT": "de:09272:4866:0:2", "shelter": "yes"}}, {"type": "node", "id": 9846505059, "lat": 48.8438412, "lon": 13.750773, "tags": {"bench": "no", "bin": "no", "bus": "yes", "highway": "bus_stop", "kerb": "raised", "kerb:height": "0.12", "name": "Auersbergsreut Abzw.", "platform:width": "1.1", "public_transport": "platform", "ref:IFOPT": "de:09272:4869:0:1", "shelter": "no"}}, {"type": "node", "id": 9846505060, "lat": 48.8437627, "lon": 13.7511458, "tags": {"bench": "yes", "bus": "yes", "highway": "bus_stop", "kerb": "raised", "kerb:height": "0.10", "name": "Auersbergreut Abzw.", "platform:width": "3.5", "public_transport": "platform", "ref:IFOPT": "de:09272:4869:0:2", "shelter": "yes"}}, {"type": "node", "id": 9846505061, "lat": 48.8288286, "lon": 13.7668725, "tags": {"bench": "yes", "bus": "yes", "highway": "bus_stop", "kerb": "raised", "kerb:height": "0.09", "name": "Haidm\u00fchle Anw. Sammer", "platform:width": "1.1", "public_transport": "platform", "ref:IFOPT": "de:09272:4871:0:2"}}, {"type": "node", "id": 9846505062, "lat": 48.8286964, "lon": 13.7672253, "tags": {"bench": "no", "bin": "no", "bus": "yes", "highway": "bus_stop", "kerb": "raised", "kerb:height": "0.10", "name": "Haidm\u00fchle Anw. Sammer", "platform:width": "1.2", "public_transport": "platform", "ref:IFOPT": "de:09272:4871:0:1", "shelter": "no"}}, {"type": "node", "id": 9850235146, "lat": 48.8427078, "lon": 13.7581057, "tags": {"bus": "yes", "highway": "bus_stop", "kerb": "raised", "name": "Haidm\u00fchle Auersbergsreut", "public_transport": "platform", "ref:IFOPT": "de:09272:82304:0:1", "surface": "unpaved", "wheelchair": "no"}}, {"type": "node", "id": 9850410328, "lat": 48.8606316, "lon": 13.7303245, "tags": {"bench": "no", "bin": "no", "bus": "yes", "highway": "bus_stop", "kerb": "raised", "kerb:height": "0.11", "name": "Anw. Springer", "platform:width": "1.1", "public_transport": "platform", "ref:IFOPT": "de:09272:4865:0:2", "shelter": "no"}}, {"type": "node", "id": 9850617072, "lat": 48.8525836, "lon": 13.7327657, "tags": {"bench": "no", "bin": "no", "bus": "yes", "highway": "bus_stop", "kerb": "raised", "kerb:height": "0.10", "name": "Bischofsreut Kirche", "platform:width": "0.9", "public_transport": "platform", "ref:IFOPT": "de:09272:4867:0:1", "shelter": "no", "wheelchair": "limited"}}, {"type": "node", "id": 9852943098, "lat": 48.8164282, "lon": 14.2958294, "tags": {"bus": "yes", "highway": "bus_stop", "name": "\u010cesk\u00fd Krumlov, Dobrkovice", "official_name": "\u010cesk\u00fd Krumlov,Dobrkovice", "public_transport": "platform", "ref:CIS_JR": "4969"}}, {"type": "node", "id": 9856176126, "lat": 48.727419, "lon": 14.3320198, "tags": {"bus": "yes", "highway": "bus_stop", "name": "V\u011bt\u0159n\u00ed, Z\u00e1to\u0148sk\u00e9 Dvory", "official_name": "V\u011bt\u0159n\u00ed,Z\u00e1to\u0148sk\u00e9 Dvory", "public_transport": "platform", "ref:CIS_JR": "39314"}}, {"type": "node", "id": 9856176128, "lat": 48.7288342, "lon": 14.3319817, "tags": {"bus": "yes", "highway": "bus_stop", "name": "V\u011bt\u0159n\u00ed, Z\u00e1to\u0148sk\u00e9 Dvory", "official_name": "V\u011bt\u0159n\u00ed,Z\u00e1to\u0148sk\u00e9 Dvory", "public_transport": "platform", "ref:CIS_JR": "39314"}}, {"type": "node", "id": 9897524452, "lat": 48.7642277, "lon": 14.2426375, "tags": {"bus": "yes", "departures_board": "timetable", "highway": "bus_stop", "name": "Bohdalovice, Slavkov", "official_name": "Bohdalovice,Slavkov", "public_transport": "platform", "ref:CIS_JR": "1721", "shelter": "yes"}},