{"version": 0.6, "generator": "Overpass API 0.7.62.8 e802775f", "osm3s": {"timestamp_osm_base": "2026-01-05T16:33:14Z", "copyright": "The data included in this document is from www.openstreetmap.org. The data is made available under ODbL."}, "elements": [{"type": "node", "id": 404434971, "lat": 48.9788338, "lon": 14.0117742, "tags": {"ele": "1095", "name": "Lib\u00edn", "natural": "peak"}}, {"type": "node", "id": 427711481, "lat": 49.0591332, "lon": 14.1681243}, {"type": "node", "id": 427711483, "lat": 49.0590313, "lon": 14.168614}, {"type": "node", "id": 427711487, "lat": 49.0588603, "lon": 14.1685352}, {"type": "node", "id": 427711488, "lat": 49.0589621, "lon": 14.1680423}, {"type": "node", "id": 429416818, "lat": 49.0258789, "lon": 14.1642971, "tags": {"ele": "444", "hiking": "yes", "information": "guidepost", "name": "Hrbov rozc.", "operator": "cz:K\u010cT", "ref": "PT377", "tourism": "information"}}, {"type": "node", "id": 577337764, "lat": 48.9654282, "lon": 14.0111976, "tags": {"ele": "1025", "name": "Na skalce", "natural": "peak", "source": "tisicovky.cz"}}, {"type": "node", "id": 577337769, "lat": 48.9577993, "lon": 14.0229672, "tags": {"ele": "1010", "name": "Rohanovsk\u00fd vrch", "natural": "peak", "source": "tisicovky.cz"}}, {"type": "node", "id": 608986687, "lat": 49.136199, "lon": 14.0067236, "tags": {"building": "yes", "charge": "45CZK", "contact:email": "evicka.seberova@seznam.cz", "contact:phone": "+420 724 724 747;+420 602 465 366", "contact:website": "http://www.helfenburk.eu", "fee": "yes", "historic": "ruins", "name": "Helfenburk", "name:cs": "Helfenburk", "opening_hours": "Mar-Apr Sa-Su 10:00-16:00; Mar-Apr PH 10:00-16:00 open; May-Sep Tu-Su 10:00-17:00; Oct Sa-Su 10:00-17:00; Oct PH 10:00-17:00 open", "place": "locality", "ruins": "yes", "tourism": "viewpoint"}}, {"type": "node", "id": 1321038115, "lat": 48.9527499, "lon": 14.1899451, "tags": {"ele": "676", "hiking": "yes", "information": "guidepost", "name": "Sedlo u Jaron\u00edna", "operator": "cz:K\u010cT", "ref": "CB196", "tourism": "information"}}, {"type": "node", "id": 1321038586, "lat": 48.9696266, "lon": 14.1704376, "tags": {"ele": "555", "hiking": "yes", "information": "guidepost", "name": "T\u0159e\u0161\u0148ov\u00fd \u00dajezdec", "operator": "cz:K\u010cT", "ref": "PT941", "tourism": "information"}}, {"type": "node", "id": 2344227052, "lat": 49.0404202, "lon": 14.0032398, "tags": {"ele": "708", "name": "V\u00fdrov\u010dice", "natural": "peak"}}, {"type": "node", "id": 2415945619, "lat": 49.1513447, "lon": 14.0080826, "tags": {"ele": "580", "hiking": "yes", "information": "guidepost", "name": "Ml\u00e1ka", "operator": "cz:K\u010cT", "ref": "ST023", "tourism": "information"}}, {"type": "node", "id": 2415945690, "lat": 49.1513267, "lon": 14.0079615, "tags": {"amenity": "shelter", "shelter_type": "picnic_shelter"}}, {"type": "node", "id": 2415946690, "lat": 49.1375644, "lon": 14.0069896, "tags": {"ele": "683", "hiking": "yes", "information": "guidepost", "name": "Helfenburk hrad", "operator": "cz:K\u010cT", "ref": "ST024", "tourism": "information"}}, {"type": "node", "id": 2638984916, "lat": 49.1152955, "lon": 14.1232461}, {"type": "node", "id": 2638984917, "lat": 49.1153167, "lon": 14.1232018}, {"type": "node", "id": 2638984918, "lat": 49.1153238, "lon": 14.1232784}, {"type": "node", "id": 2638984919, "lat": 49.1153455, "lon": 14.1232339}, {"type": "node", "id": 2655739242, "lat": 48.9787848, "lon": 14.0117533}, {"type": "node", "id": 2655739247, "lat": 48.9788215, "lon": 14.0118492}, {"type": "node", "id": 2655739252, "lat": 48.9788471, "lon": 14.0116974}, {"type": "node", "id": 2655739255, "lat": 48.9788844, "lon": 14.0117936}, {"type": "node", "id": 2742711016, "lat": 49.0157652, "lon": 14.0048906, "tags": {"ele": "550", "hiking": "yes", "information": "guidepost", "name": "D\u0159\u00edpatka", "operator": "cz:K\u010cT", "ref": "PT190", "tourism": "information"}}, {"type": "node", "id": 2742711021, "lat": 49.0159356, "lon": 14.0049365, "tags": {"board_type": "nature", "information": "board", "name": "D\u0159\u00edpatka", "ref": "2", "tourism": "information"}}, {"type": "node", "id": 2742711030, "lat": 49.0002143, "lon": 14.0151372, "tags": {"board_type": "history", "information": "board", "name": "Kandl\u016fv ml\u00fdn", "ref": "5", "tourism": "information"}}, {"type": "node", "id": 2742711035, "lat": 49.0020431, "lon": 14.0144381, "tags": {"ele": "585", "hiking": "yes", "information": "guidepost", "name": "Kandl\u016fv ml\u00fdn", "operator": "cz:K\u010cT", "ref": "PT200", "tourism": "information"}}, {"type": "node", "id": 2742711057, "lat": 49.0026532, "lon": 14.01784, "tags": {"ele": "640", "hiking": "yes", "information": "guidepost", "name": "Nad Kandlovym mlynem", "operator": "cz:K\u010cT", "ref": "PT233", "tourism": "information"}}, {"type": "node", "id": 2742711071, "lat": 48.9946138, "lon": 14.0160781, "tags": {"board_type": "nature", "information": "board", "name": "Pod Lib\u00ednem", "ref": "5", "tourism": "information"}}, {"type": "node", "id": 2742711080, "lat": 48.9945272, "lon": 14.0161284, "tags": {"ele": "645", "hiking": "yes", "information": "guidepost", "name": "Pod lib\u00ednem", "operator": "cz:K\u010cT", "ref": "PT207", "tourism": "information"}}, {"type": "node", "id": 2742711088, "lat": 49.0078321, "lon": 14.0200995, "tags": {"ele": "690", "hiking": "yes", "information": "guidepost", "name": "Samotov\u00e9 dvorce", "operator": "cz:K\u010cT", "ref": "PT199", "tourism": "information"}}, {"type": "node", "id": 2742711089, "lat": 49.0078369, "lon": 14.020176, "tags": {"board_type": "nature", "information": "board", "name": "Samotov\u00e9 dvorce", "ref": "4", "tourism": "information"}}, {"type": "node", "id": 2742711111, "lat": 49.0189184, "lon": 14.0097576, "tags": {"board_type": "nature", "information": "board", "name": "\u00dadol\u00ed \u017divn\u00e9ho potoka", "ref": "3", "tourism": "information"}}, {"type": "node", "id": 2988070886, "lat": 48.9787566, "lon": 14.0118705, "tags": {"ele": "1096", "hiking": "yes", "information": "guidepost", "name": "Lib\u00edn", "operator": "cz:K\u010cT", "ref": "PT919", "tourism": "information"}}, {"type": "node", "id": 2988070887, "lat": 48.9908974, "lon": 14.0031729, "tags": {"ele": "878", "hiking": "yes", "information": "guidepost", "name": "Na H\u0159ebenu", "operator": "cz:K\u010cT", "ref": "PT884", "source": "survey", "tourism": "information"}}, {"type": "node", "id": 2988070890, "lat": 48.961217, "lon": 14.0170892, "tags": {"ele": "1010", "hiking": "yes", "information": "guidepost", "name": "Rohanovsk\u00fd vrch", "operator": "cz:K\u010cT", "ref": "PT922", "source": "survey", "tourism": "information"}}, {"type": "node", "id": 2988070891, "lat": 48.9690377, "lon": 14.0097161, "tags": {"ele": "980", "hiking": "yes", "information": "guidepost", "name": "Sed\u00fdlko", "operator": "cz:K\u010cT", "ref": "PT921", "source": "survey", "tourism": "information"}}, {"type": "node", "id": 2988070892, "lat": 48.9579638, "lon": 14.0267809, "tags": {"ele": "940", "hiking": "yes", "information": "guidepost", "name": "Sk\u00e1ly", "operator": "cz:K\u010cT", "ref": "1228/20", "source": "survey", "tourism": "information"}}, {"type": "node", "id": 2993787851, "lat": 49.1281268, "lon": 14.1266327, "tags": {"ele": "540", "hiking": "yes", "information": "guidepost", "name": "Vod\u0148ansk\u00e9 Svobodn\u00e9 Hory", "operator": "cz:K\u010cT", "ref": "ST214", "tourism": "information"}}, {"type": "node", "id": 2993793494, "lat": 49.1304506, "lon": 14.1292005, "tags": {"hiking": "yes", "information": "guidepost", "name": "Vod\u0148ansk\u00e9 Svobodn\u00e9 Hory (rozc.)", "operator": "cz:K\u010cT", "ref": "0119/2,5", "tourism": "information"}}, {"type": "node", "id": 2993796411, "lat": 49.1215048, "lon": 14.1141603, "tags": {"amenity": "shelter", "bench": "yes", "shelter_type": "picnic_shelter"}}, {"type": "node", "id": 2993853386, "lat": 49.1216827, "lon": 14.0789728, "tags": {"ele": "430", "hiking": "yes", "information": "guidepost", "name": "Bavorov", "operator": "cz:K\u010cT", "ref": "ST121", "tourism": "information"}}, {"type": "node", "id": 2994347295, "lat": 49.1462782, "lon": 14.1772251, "tags": {"ele": "395", "hiking": "yes", "information": "guidepost", "name": "Vod\u0148any (bus)", "operator": "cz:K\u010cT", "ref": "ST104", "tourism": "information"}}, {"type": "node", "id": 2994555890, "lat": 49.0949687, "lon": 14.1869669, "tags": {"ele": "515", "hiking": "yes", "information": "guidepost", "name": "Lomec (kaple)", "operator": "cz:K\u010cT", "ref": "ST050", "tourism": "information"}}, {"type": "node", "id": 2994885063, "lat": 49.1216639, "lon": 14.1139651, "tags": {"hiking": "yes", "information": "guidepost", "name": "Pod Svobodnou Horou", "operator": "cz:K\u010cT", "tourism": "information"}}, {"type": "node", "id": 3002710064, "lat": 49.1474476, "lon": 14.1288782, "tags": {"ele": "413", "hiking": "yes", "information": "guidepost", "name": "Z\u00e1horsk\u00fd rybn\u00edm kemp", "operator": "cz:K\u010cT", "ref": "ST207", "tourism": "information"}}, {"type": "node", "id": 3052040993, "lat": 49.1230305, "lon": 14.1166601, "tags": {"ele": "640", "hiking": "yes", "information": "guidepost", "name": "Svobodn\u00e1 Hora (vrchol)", "operator": "cz:K\u010cT", "ref": "ST182", "tourism": "information"}}, {"type": "node", "id": 3057918554, "lat": 49.0396538, "lon": 14.1888396}, {"type": "node", "id": 3057918555, "lat": 49.0396553, "lon": 14.1888626}, {"type": "node", "id": 3057918556, "lat": 49.0396566, "lon": 14.1888812}, {"type": "node", "id": 3057918561, "lat": 49.0396841, "lon": 14.1888774}, {"type": "node", "id": 3057918564, "lat": 49.0396987, "lon": 14.1888338}, {"type": "node", "id": 3057918565, "lat": 49.0396991, "lon": 14.1888413}, {"type": "node", "id": 3057918566, "lat": 49.039701, "lon": 14.188875}, {"type": "node", "id": 3423245804, "lat": 49.1502265, "lon": 14.1140736, "tags": {"ele": "444", "name": "Radu\u017eel", "natural": "peak", "source": "\u010c\u00daZK"}}, {"type": "node", "id": 3423245805, "lat": 49.1417194, "lon": 14.1052637, "tags": {"ele": "460", "name": "Javornice", "natural": "peak", "source": "\u010c\u00daZK"}}, {"type": "node", "id": 3423245806, "lat": 49.1515759, "lon": 14.0824678, "tags": {"ele": "545", "name": "Jelen\u00ed vrch", "natural": "peak", "source": "\u010c\u00daZK"}}, {"type": "node", "id": 3423245816, "lat": 49.1502214, "lon": 14.0360515, "tags": {"ele": "603", "name": "Jezvina", "natural": "peak"}}, {"type": "node", "id": 3423245817, "lat": 49.1451545, "lon": 14.0459864, "tags": {"ele": "593", "name": "Ov\u010d\u00e1rky", "natural": "peak"}}, {"type": "node", "id": 3423245818, "lat": 49.1431402, "lon": 14.0513079, "tags": {"ele": "583", "name": "Ov\u010de", "natural": "peak"}}, {"type": "node", "id": 3423245819, "lat": 49.1334133, "lon": 14.0714033, "tags": {"ele": "537", "name": "Mazn\u00fd", "natural": "peak", "source": "\u010c\u00daZK"}}, {"type": "node", "id": 3423245820, "lat": 49.1074032, "lon": 14.0518551, "tags": {"ele": "583", "name": "H\u00e1jek", "natural": "peak"}}, {"type": "node", "id": 3423245821, "lat": 49.1167156, "lon": 14.0332513, "tags": {"ele": "575", "name": "Kvasn\u00edkovice", "natural": "peak"}}, {"type": "node", "id": 3423245822, "lat": 49.1210972, "lon": 14.0219645, "tags": {"ele": "600", "name": "Lesn\u00fd", "natural": "peak"}}, {"type": "node", "id": 3423245823, "lat": 49.1249309, "lon": 14.0192931, "tags": {"ele": "584", "name": "Kotrbice", "natural": "peak"}}, {"type": "node", "id": 3423245824, "lat": 49.1285817, "lon": 14.0284018, "tags": {"ele": "570", "name": "Kosteleck\u00fd", "natural": "peak"}}, {"type": "node", "id": 3423245825, "lat": 49.1320708, "lon": 14.0264599, "tags": {"ele": "600", "name": "Dlouh\u00e9 d\u00edly", "natural": "peak"}}, {"type": "node", "id": 3423245826, "lat": 49.1358737, "lon": 14.0073515, "tags": {"ele": "684", "name": "Helfenburk", "natural": "peak"}}, {"type": "node", "id": 3423245827, "lat": 49.1393571, "lon": 14.0178983, "tags": {"ele": "603", "name": "Mal\u00fd \u0160ib\u00e1k", "natural": "peak"}}, {"type": "node", "id": 3423245828, "lat": 49.141888, "lon": 14.0075455, "tags": {"ele": "667", "name": "Velk\u00fd \u0160ib\u00e1k", "natural": "peak"}}, {"type": "node", "id": 3423271746, "lat": 49.1333611, "lon": 14.1288977, "tags": {"ele": "538", "name": "Hol\u00fd vrch", "natural": "peak"}}, {"type": "node", "id": 3423271747, "lat": 49.1230904, "lon": 14.1167044, "tags": {"ele": "631", "name": "Svobodn\u00e1 hora", "natural": "peak", "wikidata": "Q21150757"}}, {"type": "node", "id": 3423271748, "lat": 49.1167336, "lon": 14.1182104, "tags": {"ele": "583", "name": "Svin\u00ed vrch", "natural": "peak"}}, {"type": "node", "id": 3423271749, "lat": 49.1243943, "lon": 14.1444639, "tags": {"ele": "512", "name": "Bu\u0161ava", "natural": "peak"}}, {"type": "node", "id": 3423271750, "lat": 49.1179414, "lon": 14.1397861, "tags": {"ele": "544", "name": "H\u016frka", "natural": "peak"}}, {"type": "node", "id": 3423271751, "lat": 49.1099482, "lon": 14.122971, "tags": {"ele": "609", "name": "D\u017eb\u00e1n", "natural": "peak"}}, {"type": "node", "id": 3423271752, "lat": 49.110048, "lon": 14.1333917, "tags": {"ele": "620", "name": "Holi\u010dka", "natural": "peak"}}, {"type": "node", "id": 3423271753, "lat": 49.0996666, "lon": 14.1167942, "tags": {"ele": "527", "name": "Na Babici", "natural": "peak"}}, {"type": "node", "id": 3423271754, "lat": 49.0989431, "lon": 14.13999, "tags": {"ele": "588", "name": "Poho\u0159elec", "natural": "peak"}}, {"type": "node", "id": 3423271755, "lat": 49.0952198, "lon": 14.1408053, "tags": {"ele": "604", "name": "Skalice", "natural": "peak"}}, {"type": "node", "id": 3423271756, "lat": 49.104984, "lon": 14.1502682, "tags": {"ele": "561", "name": "H\u016frky", "natural": "peak"}}, {"type": "node", "id": 3423271757, "lat": 49.0920794, "lon": 14.1597847, "tags": {"ele": "607", "name": "Lib\u011bjovick\u00fd vrch", "natural": "peak"}}, {"type": "node", "id": 3423271758, "lat": 49.0973133, "lon": 14.1782168, "tags": {"ele": "552", "name": "Lomec", "natural": "peak"}}, {"type": "node", "id": 3423271759, "lat": 49.0630266, "lon": 14.1617158, "tags": {"ele": "477", "name": "St\u0159\u00edbrn\u00fd", "natural": "peak"}}, {"type": "node", "id": 3423271760, "lat": 49.0622392, "lon": 14.1329089, "tags": {"ele": "560", "name": "T\u0159eb\u00e1nka", "natural": "peak"}}, {"type": "node", "id": 3423271761, "lat": 49.0592374, "lon": 14.1215578, "tags": {"ele": "607", "name": "Ko\u010di\u010dina", "natural": "peak"}}, {"type": "node", "id": 3423271762, "lat": 49.0632445, "lon": 14.1204527, "tags": {"ele": "606", "name": "Jedlov\u00fd vrch", "natural": "peak"}}, {"type": "node", "id": 3423271763, "lat": 49.0486907, "lon": 14.1110436, "tags": {"ele": "586", "name": "Hajn\u00e1 hora", "natural": "peak"}}, {"type": "node", "id": 3423271764, "lat": 49.0458357, "lon": 14.1194228, "tags": {"ele": "598", "name": "Vystrou\u017eek", "natural": "peak"}}, {"type": "node", "id": 3425072147, "lat": 49.0245395, "lon": 14.1761442, "tags": {"ele": "483", "name": "U Hory", "natural": "peak"}}, {"type": "node", "id": 3425072148, "lat": 49.016603, "lon": 14.1915401, "tags": {"ele": "511", "name": "Dlouh\u00fd", "natural": "peak"}}, {"type": "node", "id": 3425072149, "lat": 49.0082523, "lon": 14.1962816, "tags": {"ele": "535", "name": "Li\u0161\u010d\u00ed vrch", "natural": "peak"}}, {"type": "node", "id": 3425072152, "lat": 49.0060192, "lon": 14.1840406, "tags": {"ele": "560", "name": "Brusensk\u00fd vrch", "natural": "peak"}}, {"type": "node", "id": 3425072153, "lat": 49.0020496, "lon": 14.1730543, "tags": {"ele": "577", "name": "Nad Mu\u0161kou", "natural": "peak"}}, {"type": "node", "id": 3425072154, "lat": 48.9953626, "lon": 14.1878108, "tags": {"ele": "633", "name": "St\u0159\u00edbrn\u00e1 hora", "natural": "peak"}}, {"type": "node", "id": 3425072155, "lat": 48.9892873, "lon": 14.1845985, "tags": {"ele": "619", "name": "Vrch", "natural": "peak"}}, {"type": "node", "id": 3425072157, "lat": 48.9818686, "lon": 14.1893906, "tags": {"ele": "691", "name": "Houperek", "natural": "peak"}}, {"type": "node", "id": 3425072158, "lat": 48.9818944, "lon": 14.1972585, "tags": {"ele": "732", "name": "Kamenn\u00fd vrch", "natural": "peak"}}, {"type": "node", "id": 3425072170, "lat": 48.9636435, "lon": 14.1604801, "tags": {"ele": "643", "name": "Doub\u00ed", "natural": "peak"}}, {"type": "node", "id": 3425072171, "lat": 48.9609457, "lon": 14.1801568, "tags": {"ele": "690", "name": "Triangl", "natural": "peak"}}, {"type": "node", "id": 3425072172, "lat": 48.9705038, "lon": 14.1923233, "tags": {"ele": "808", "name": "P\u00edskov\u00fd k\u00e1men", "natural": "peak"}}, {"type": "node", "id": 3425072173, "lat": 48.962918, "lon": 14.1987391, "tags": {"ele": "832", "name": "Buglata", "natural": "peak"}}, {"type": "node", "id": 3428981838, "lat": 49.1040934, "lon": 14.0023002, "tags": {"ele": "582", "name": "Babice", "natural": "peak"}}, {"type": "node", "id": 3428981839, "lat": 49.0883782, "lon": 14.0127018, "tags": {"ele": "595", "name": "Sp\u00e1len\u00e1", "natural": "peak"}}, {"type": "node", "id": 3428981840, "lat": 49.0862913, "lon": 14.0307799, "tags": {"ele": "578", "name": "Ho\u0159ej\u0161\u00ed", "natural": "peak"}}, {"type": "node", "id": 3428981842, "lat": 49.0605183, "lon": 14.0144935, "tags": {"ele": "615", "name": "Podlip\u00ed", "natural": "peak"}}, {"type": "node", "id": 3428981843, "lat": 49.0483757, "lon": 14.0469911, "tags": {"ele": "654", "name": "\u010cihadlo", "natural": "peak"}}, {"type": "node", "id": 3428981844, "lat": 49.0433898, "lon": 14.0438476, "tags": {"ele": "576", "name": "Ko\u010di\u010d\u00ed vrch", "natural": "peak"}}, {"type": "node", "id": 3428981845, "lat": 49.0437836, "lon": 14.0539542, "tags": {"ele": "641", "name": "Mastn\u00fd kopec", "natural": "peak"}}, {"type": "node", "id": 3428981846, "lat": 49.0480944, "lon": 14.0644577, "tags": {"ele": "646", "name": "Osule", "natural": "peak"}}, {"type": "node", "id": 3428981847, "lat": 49.0586482, "lon": 14.0706482, "tags": {"ele": "527", "name": "Ostr\u00e1", "natural": "peak"}}, {"type": "node", "id": 3428981848, "lat": 49.0725314, "lon": 14.0910223, "tags": {"ele": "521", "name": "Protive\u010dek", "natural": "peak"}}, {"type": "node", "id": 3428981849, "lat": 49.0591896, "lon": 14.1024592, "tags": {"ele": "564", "name": "Dubnice", "natural": "peak"}}, {"type": "node", "id": 3428981850, "lat": 49.0753006, "lon": 14.1230049, "tags": {"ele": "589", "name": "Z\u00e1du\u0161n\u00ed les", "natural": "peak"}}, {"type": "node", "id": 3428981851, "lat": 49.0936897, "lon": 14.0908506, "tags": {"ele": "544", "name": "Hnojnice", "natural": "peak"}}, {"type": "node", "id": 3428981852, "lat": 49.107514, "lon": 14.0781048, "tags": {"ele": "469", "name": "V H\u00e1ji", "natural": "peak"}}, {"type": "node", "id": 3428981853, "lat": 49.0338883, "lon": 14.0643088, "tags": {"ele": "629", "name": "Kluz\u00ed", "natural": "peak"}}, {"type": "node", "id": 3428981854, "lat": 49.0277609, "lon": 14.141598, "tags": {"ele": "571", "name": "Jedlov\u00fd vrch", "natural": "peak"}}, {"type": "node", "id": 3428981855, "lat": 49.0203878, "lon": 14.1194108, "tags": {"ele": "608", "name": "Hol\u00fd vrch", "natural": "peak"}}, {"type": "node", "id": 3428981856, "lat": 49.0187414, "lon": 14.1432824, "tags": {"ele": "509", "name": "Mal\u00fd Hr\u00e1de\u010dek", "natural": "peak"}}, {"type": "node", "id": 3428981857, "lat": 49.0150825, "lon": 14.144291, "tags": {"ele": "571", "name": "Velk\u00fd Hr\u00e1de\u010dek", "natural": "peak"}}, {"type": "node", "id": 3428981858, "lat": 49.0004794, "lon": 14.1381862, "tags": {"ele": "694", "name": "Hora", "natural": "peak"}}, {"type": "node", "id": 3428981859, "lat": 48.9948481, "lon": 14.1359546, "tags": {"ele": "742", "name": "Str\u00e1\u017e", "natural": "peak"}}, {"type": "node", "id": 3428981860, "lat": 48.9902018, "lon": 14.1361263, "tags": {"ele": "720", "name": "Hora", "natural": "peak"}}, {"type": "node", "id": 3428981861, "lat": 48.9807742, "lon": 14.1382613, "tags": {"ele": "700", "name": "Koz\u00ed k\u00e1men", "natural": "peak"}}, {"type": "node", "id": 3428981862, "lat": 48.9707673, "lon": 14.1340878, "tags": {"ele": "726", "name": "Poustevna", "natural": "peak"}}, {"type": "node", "id": 3428981863, "lat": 48.9572642, "lon": 14.1281762, "tags": {"ele": "846", "name": "Vrata", "natural": "peak"}}, {"type": "node", "id": 3450921534, "lat": 49.0390783, "lon": 14.1038733, "tags": {"ele": "658", "name": "Pastvi\u0161t\u011b", "natural": "peak"}}, {"type": "node", "id": 3450921535, "lat": 49.0352873, "lon": 14.0913742, "tags": {"ele": "645", "name": "Kam\u00fdky", "natural": "peak"}}, {"type": "node", "id": 3450921536, "lat": 49.0330786, "lon": 14.1193228, "tags": {"ele": "614", "name": "Hol\u00fd vrch", "natural": "peak"}}, {"type": "node", "id": 3450921537, "lat": 49.0271415, "lon": 14.0866428, "tags": {"ele": "703", "name": "Sp\u00e1len\u00fd", "natural": "peak"}}, {"type": "node", "id": 3450921538, "lat": 49.0207464, "lon": 14.0891212, "tags": {"ele": "735", "name": "U T\u0159\u00ed mezn\u00edk\u016f", "natural": "peak"}}, {"type": "node", "id": 3450921539, "lat": 49.0170383, "lon": 14.0543812, "tags": {"ele": "788", "name": "Nebahov", "natural": "peak"}}, {"type": "node", "id": 3450921540, "lat": 49.0092555, "lon": 14.0246087, "tags": {"ele": "777", "name": "Na Vr\u0161\u00edch", "natural": "peak"}}, {"type": "node", "id": 3450921541, "lat": 49.014463, "lon": 14.0374618, "tags": {"ele": "758", "name": "Zdenice", "natural": "peak"}}, {"type": "node", "id": 3450921542, "lat": 48.9989024, "lon": 14.0479546, "tags": {"ele": "837", "name": "Na Vrchu", "natural": "peak"}}, {"type": "node", "id": 3450921543, "lat": 48.9940312, "lon": 14.0964919, "tags": {"ele": "806", "name": "Zelen\u00fd vrch", "natural": "peak"}}, {"type": "node", "id": 3450921544, "lat": 48.9718657, "lon": 14.0978115, "tags": {"ele": "839", "name": "Klenovec", "natural": "peak"}}, {"type": "node", "id": 3450921545, "lat": 48.9772038, "lon": 14.0718585, "tags": {"ele": "810", "name": "Malon\u00ednsk\u00fd kopec", "natural": "peak"}}, {"type": "node", "id": 3450921546, "lat": 48.9758376, "lon": 14.0546601, "tags": {"ele": "867", "name": "Lu\u010denick\u00fd vrch", "natural": "peak"}}, {"type": "node", "id": 3451745723, "lat": 49.0601364, "lon": 14.0051021, "tags": {"board_type": "history", "information": "board", "name": "Poh\u0159ebi\u0161t\u011b star\u00fdch Slovan\u016f v Podlip\u00ed", "ref": "14", "tourism": "information"}}, {"type": "node", "id": 3709849830, "lat": 49.1396587, "lon": 14.134589, "tags": {"amenity": "shelter", "bench": "yes", "shelter_type": "picnic_shelter"}}, {"type": "node", "id": 3880846479, "lat": 48.9676885, "lon": 14.0108808, "tags": {"amenity": "shelter", "name": "Traumatologick\u00fd bod 34", "shelter_type": "picnic_shelter"}}, {"type": "node", "id": 3880846482, "lat": 48.9688992, "lon": 14.0095365, "tags": {"amenity": "shelter", "shelter_type": "picnic_shelter"}}, {"type": "node", "id": 3880846484, "lat": 48.9689465, "lon": 14.0093209, "tags": {"board_type": "nature", "check_date": "2022-09-19", "information": "board", "tourism": "information"}}, {"type": "node", "id": 3880903601, "lat": 49.0477728, "lon": 14.0639302, "tags": {"ele": "646", "hiking": "yes", "information": "guidepost", "name": "Osule", "operator": "cz:K\u010cT", "ref": "PT365", "tourism": "information"}}, {"type": "node", "id": 3880903603, "lat": 49.0453152, "lon": 14.0672307, "tags": {"amenity": "shelter", "shelter_type": "picnic_shelter"}}, {"type": "node", "id": 3880903613, "lat": 49.0475967, "lon": 14.0638281, "tags": {"board_type": "history", "information": "board", "tourism": "information"}}, {"type": "node", "id": 3880931436, "lat": 49.0453174, "lon": 14.0670896, "tags": {"board_type": "history", "information": "board", "name": "Osule - Vit\u011bjovick\u00fd hrad", "tourism": "information"}}, {"type": "node", "id": 3880931437, "lat": 49.048445, "lon": 14.0646003, "tags": {"board_type": "history", "information": "board", "name": "Osule", "tourism": "information"}}, {"type": "node", "id": 3953202452, "lat": 48.9716111, "lon": 14.028193, "tags": {"amenity": "shelter", "shelter_type": "picnic_shelter"}}, {"type": "node", "id": 3953203968, "lat": 48.9787011, "lon": 14.0117201, "tags": {"bicycle": "yes", "hiking": "yes", "information": "map", "map_size": "region", "map_type": "topo", "tourism": "information"}}, {"type": "node", "id": 3953203969, "lat": 48.9787233, "lon": 14.011711, "tags": {"board_type": "nature", "information": "board", "tourism": "information"}}, {"type": "node", "id": 3953204009, "lat": 48.9922027, "lon": 14.0148115, "tags": {"amenity": "shelter", "shelter_type": "picnic_shelter"}}, {"type": "node", "id": 3953204011, "lat": 48.994504, "lon": 14.0161079, "tags": {"amenity": "shelter", "shelter_type": "picnic_shelter"}}, {"type": "node", "id": 4290694693, "lat": 49.1296215, "lon": 14.1283483, "tags": {"horse": "yes", "information": "map", "map_size": "region", "map_type": "scheme", "name": "Hipostezky Jiho\u010d. kraje", "tourism": "information"}}, {"type": "node", "id": 4290694696, "lat": 49.1196906, "lon": 14.1198401, "tags": {"board_type": "nature", "information": "board", "name": "Svobodn\u00e1 hora", "tourism": "information"}}, {"type": "node", "id": 4290694697, "lat": 49.1200921, "lon": 14.129594, "tags": {"board_type": "nature", "information": "board", "name": "Krajina v okol\u00ed Sto\u017eic a K\u0159epic", "tourism": "information"}}, {"type": "node", "id": 4290694698, "lat": 49.130764, "lon": 14.129164, "tags": {"board_type": "nature", "information": "board", "name": "NS Sto\u017eice", "tourism": "information"}}, {"type": "node", "id": 4290694699, "lat": 49.1309509, "lon": 14.1477271, "tags": {"board_type": "nature", "information": "board", "name": "NS Sto\u017eice", "tourism": "information"}}, {"type": "node", "id": 4290694757, "lat": 49.1307892, "lon": 14.1478291, "tags": {"amenity": "shelter", "shelter_type": "picnic_shelter"}}, {"type": "node", "id": 4302364126, "lat": 49.1230709, "lon": 14.1795529, "tags": {"ele": "438", "hiking": "yes", "information": "guidepost", "name": "Na L\u00e1zni", "operator": "cz:K\u010cT", "ref": "ST048", "tourism": "information"}}, {"type": "node", "id": 4418950058, "lat": 48.9528403, "lon": 14.1901499, "tags": {"bicycle": "yes", "check_date": "2021-12-19", "hiking": "yes", "information": "map", "map_size": "region", "map_type": "topo", "name": "CHKO Blansk\u00fd les", "tourism": "information"}}, {"type": "node", "id": 4418957613, "lat": 48.9518155, "lon": 14.1902448, "tags": {"tourism": "viewpoint"}}, {"type": "node", "id": 4418957614, "lat": 48.9526865, "lon": 14.1898409, "tags": {"amenity": "shelter", "shelter_type": "picnic_shelter"}}, {"type": "node", "id": 4457540017, "lat": 48.955404, "lon": 14.056298, "tags": {"ele": "750", "hiking": "yes", "information": "guidepost", "name": "Chroboly (\u017est, rozc.)", "operator": "cz:K\u010cT", "ref": "PT918", "tourism": "information"}}, {"type": "node", "id": 4457540018, "lat": 48.9566114, "lon": 14.066934, "tags": {"ele": "758", "hiking": "yes", "information": "guidepost", "name": "Chroboly", "operator": "cz:K\u010cT", "ref": "PT935", "tourism": "information"}}, {"type": "node", "id": 4457540019, "lat": 48.9780479, "lon": 14.0382934, "tags": {"ele": "695", "hiking": "yes", "information": "guidepost", "name": "Rohanov \u017est", "operator": "cz:K\u010cT", "ref": "PT926", "tourism": "information"}}, {"type": "node", "id": 4457540020, "lat": 48.9735444, "lon": 14.0316093, "tags": {"ele": "820", "hiking": "yes", "information": "guidepost", "name": "Rohanov", "operator": "cz:K\u010cT", "ref": "PT928", "tourism": "information"}}, {"type": "node", "id": 4457570529, "lat": 48.9891864, "lon": 14.083384, "tags": {"ele": "610", "hiking": "yes", "information": "guidepost", "name": "Frantoly (rozc.)", "operator": "cz:K\u010cT", "ref": "PT911;911", "tourism": "information"}}, {"type": "node", "id": 4457570530, "lat": 48.9615757, "lon": 14.0830762, "tags": {"ele": "662", "hiking": "yes", "information": "guidepost", "name": "Kepl\u016fv ml\u00fdn", "operator": "cz:K\u010cT", "ref": "PT938", "tourism": "information"}}, {"type": "node", "id": 4457585860, "lat": 48.971664, "lon": 14.130614, "tags": {"ele": "652", "hiking": "yes", "information": "guidepost", "name": "Borovka", "operator": "cz:K\u010cT", "ref": "PT939", "tourism": "information"}}, {"type": "node", "id": 4458029830, "lat": 49.0301233, "lon": 14.1903438, "tags": {"ele": "440", "hiking": "yes", "information": "guidepost", "name": "Grejnarov rozcest\u00ed", "operator": "cz:K\u010cT", "ref": "PT379", "tourism": "information"}}, {"type": "node", "id": 4458029831, "lat": 48.9995385, "lon": 14.1975107, "tags": {"ele": "525", "hiking": "yes", "information": "guidepost", "name": "Horn\u00ed Chr\u00e1\u0161tany", "operator": "cz:K\u010cT", "ref": "PT912", "tourism": "information"}}, {"type": "node", "id": 4458029832, "lat": 49.0354481, "lon": 14.1763587, "tags": {"ele": "442", "hiking": "yes", "information": "guidepost", "name": "Mezi Hrbovsk\u00fdmi rybn\u00edky", "operator": "cz:K\u010cT", "ref": "PT142", "tourism": "information"}}, {"type": "node", "id": 4458029833, "lat": 48.9941289, "lon": 14.1492041, "tags": {"ele": "558", "hiking": "yes", "information": "guidepost", "name": "Lhenice", "operator": "cz:K\u010cT", "ref": "PT905", "tourism": "information"}}, {"type": "node", "id": 4458029835, "lat": 49.0007087, "lon": 14.1828806, "tags": {"ele": "544", "hiking": "yes", "information": "guidepost", "name": "U J\u00e1na", "operator": "cz:K\u010cT", "ref": "PT908", "tourism": "information"}}, {"type": "node", "id": 4458029836, "lat": 49.0396634, "lon": 14.1733517, "tags": {"ele": "461", "hiking": "yes", "information": "guidepost", "name": "U Pekla", "operator": "cz:K\u010cT", "ref": "PT375", "tourism": "information"}}, {"type": "node", "id": 4458716914, "lat": 49.0123413, "lon": 14.1437351, "tags": {"ele": "528", "hiking": "yes", "information": "guidepost", "name": "Hradce", "operator": "cz:K\u010cT", "ref": "PT904", "tourism": "information"}}, {"type": "node", "id": 4458716915, "lat": 49.0227922, "lon": 14.1641343, "tags": {"ele": "450", "hiking": "yes", "information": "guidepost", "name": "Hrbov", "operator": "cz:K\u010cT", "ref": "PT378", "tourism": "information"}}, {"type": "node", "id": 4458716916, "lat": 49.0576268, "lon": 14.1664051, "tags": {"ele": "436", "hiking": "yes", "information": "guidepost", "name": "Kratochv\u00edle", "operator": "cz:K\u010cT", "ref": "PT345", "tourism": "information"}}, {"type": "node", "id": 4458716917, "lat": 49.0465154, "lon": 14.1969501, "tags": {"ele": "434", "hiking": "yes", "information": "guidepost", "name": "Mnich", "operator": "cz:K\u010cT", "ref": "PT389", "tourism": "information"}}, {"type": "node", "id": 4458716919, "lat": 49.0521619, "lon": 14.1984951, "tags": {"ele": "425", "hiking": "yes", "information": "guidepost", "name": "Netolice kostel", "operator": "cz:K\u010cT", "ref": "PT390", "tourism": "information"}}, {"type": "node", "id": 4458716920, "lat": 49.0534873, "lon": 14.1897886, "tags": {"ele": "424", "hiking": "yes", "information": "guidepost", "name": "Netolice \u017est", "operator": "cz:K\u010cT", "ref": "PT385", "tourism": "information"}}, {"type": "node", "id": 4458716921, "lat": 49.049184, "lon": 14.1960328, "tags": {"ele": "425", "hiking": "yes", "information": "guidepost", "name": "Netolice", "operator": "cz:K\u010cT", "ref": "PT391", "tourism": "information"}}, {"type": "node", "id": 4458716922, "lat": 49.0378193, "lon": 14.1845422, "tags": {"ele": "434", "hiking": "yes", "information": "guidepost", "name": "Podrou\u017eek", "operator": "cz:K\u010cT", "ref": "PT387", "tourism": "information"}}, {"type": "node", "id": 4458716924, "lat": 49.0227269, "lon": 14.1461384, "tags": {"ele": "478", "hiking": "yes", "information": "guidepost", "name": "U Tom\u00e1\u0161ka", "operator": "cz:K\u010cT", "ref": "PT382", "tourism": "information"}}, {"type": "node", "id": 4458718516, "lat": 49.0401368, "lon": 14.1325074, "tags": {"ele": "530", "hiking": "yes", "information": "guidepost", "name": "\u017ditn\u00e1", "operator": "cz:K\u010cT", "ref": "PT381", "tourism": "information"}}, {"type": "node", "id": 4558909955, "lat": 48.9581338, "lon": 14.0230879, "tags": {"ele": "1010", "hiking": "yes", "information": "guidepost", "name": "Rohanovsk\u00fd vrch", "operator": "cz:K\u010cT", "ref": "PT922", "tourism": "information"}}, {"type": "node", "id": 4577871808, "lat": 48.9904493, "lon": 14.0437382, "tags": {"ele": "776", "hiking": "yes", "information": "guidepost", "name": "Jelemek", "operator": "cz:K\u010cT", "ref": "PT882", "tourism": "information"}}, {"type": "node", "id": 4577871819, "lat": 49.0138221, "lon": 14.004429, "tags": {"ele": "550", "hiking": "yes", "information": "guidepost", "name": "Prachatice (BUS)", "operator": "cz:K\u010cT", "ref": "PT889", "tourism": "information"}}, {"type": "node", "id": 4716819162, "lat": 49.0565535, "lon": 14.1716906, "tags": {"amenity": "shelter", "shelter_type": "picnic_shelter"}}, {"type": "node", "id": 4716819163, "lat": 49.0516761, "lon": 14.1999915, "tags": {"amenity": "shelter", "shelter_type": "picnic_shelter", "source": "survey"}}, {"type": "node", "id": 4722588465, "lat": 49.0523668, "lon": 14.1849164, "tags": {"hiking": "yes", "information": "guidepost", "name": "U Petrova Dvora", "operator": "cz:K\u010cT", "ref": "PT063", "source": "survey", "tourism": "information"}}, {"type": "node", "id": 4731986528, "lat": 49.0457128, "lon": 14.0741531, "tags": {"ele": "500", "hiking": "yes", "information": "guidepost", "name": "Vit\u011bjovice", "operator": "cz:K\u010cT", "ref": "PT366", "tourism": "information"}}, {"type": "node", "id": 4731986530, "lat": 49.0457726, "lon": 14.0737914, "tags": {"bicycle": "yes", "hiking": "yes", "information": "map", "map_size": "region", "map_type": "topo", "name": "Vit\u011bjovice", "tourism": "information"}}, {"type": "node", "id": 4731986643, "lat": 49.0118146, "lon": 14.0930876, "tags": {"alt_name": "K\u00fch Felder", "name": "Krav\u00ed pole", "tourism": "viewpoint"}}, {"type": "node", "id": 4731986827, "lat": 49.0090071, "lon": 14.0861019, "tags": {"board_type": "nature", "information": "board", "name": "PR Kralovick\u00e9 louky", "tourism": "information"}}, {"type": "node", "id": 4731986831, "lat": 49.0083225, "lon": 14.0893598, "tags": {"bicycle": "yes", "hiking": "yes", "information": "map", "map_size": "site", "map_type": "topo", "name": "Nebahovy a okol\u00ed", "tourism": "information"}}, {"type": "node", "id": 4755113915, "lat": 49.0824044, "lon": 14.1645532, "tags": {"amenity": "shelter", "shelter_type": "picnic_shelter"}}, {"type": "node", "id": 4755113916, "lat": 49.083821, "lon": 14.1677141, "tags": {"amenity": "shelter", "shelter_type": "picnic_shelter"}}, {"type": "node", "id": 4755113917, "lat": 49.0839342, "lon": 14.1680698, "tags": {"amenity": "shelter", "shelter_type": "picnic_shelter"}}, {"type": "node", "id": 4755113918, "lat": 49.0825495, "lon": 14.1646572, "tags": {"ele": "500", "hiking": "yes", "information": "guidepost", "name": "Krtely", "operator": "cz:K\u010cT", "ref": "ST052", "source": "survey", "tourism": "information"}}, {"type": "node", "id": 4755127544, "lat": 49.083354, "lon": 14.1902182, "tags": {"amenity": "shelter", "shelter_type": "picnic_shelter", "source": "survey"}}, {"type": "node", "id": 4784956248, "lat": 49.0162847, "lon": 14.1887205, "tags": {"amenity": "shelter", "shelter_type": "picnic_shelter", "source": "survey"}}, {"type": "node", "id": 4793764535, "lat": 49.1475362, "lon": 14.1403668, "tags": {"ele": "410", "hiking": "yes", "information": "guidepost", "name": "Pra\u017e\u00e1k \u017est", "operator": "cz:K\u010cT", "ref": "ST117", "tourism": "information"}}, {"type": "node", "id": 4794556668, "lat": 49.1227278, "lon": 14.0934376, "tags": {"ele": "475", "hiking": "yes", "information": "guidepost", "name": "Podhory", "operator": "cz:K\u010cT", "ref": "ST120", "tourism": "information"}}, {"type": "node", "id": 4794556669, "lat": 49.1263507, "lon": 14.083492, "tags": {"ele": "423", "hiking": "yes", "information": "guidepost", "name": "Bavorov \u017est", "operator": "cz:K\u010cT", "ref": "ST029", "tourism": "information"}}, {"type": "node", "id": 4794556673, "lat": 49.1414538, "lon": 14.0968386, "tags": {"ele": "415", "hiking": "yes", "information": "guidepost", "name": "Svin\u011btice", "operator": "cz:K\u010cT", "ref": "ST208", "tourism": "information"}}, {"type": "node", "id": 4794648292, "lat": 49.138425, "lon": 14.0162111, "tags": {"ele": "580", "hiking": "yes", "information": "guidepost", "name": "\u0160ib\u00e1k h\u00e1jenka", "operator": "cz:K\u010cT", "ref": "ST025", "tourism": "information"}}, {"type": "node", "id": 4794648293, "lat": 49.1369247, "lon": 14.0198445, "tags": {"ele": "570", "hiking": "yes", "information": "guidepost", "name": "Helfenburk bus", "operator": "cz:K\u010cT", "ref": "ST026", "tourism": "information"}}, {"type": "node", "id": 4794648294, "lat": 49.1383356, "lon": 14.0503855, "tags": {"ele": "525", "hiking": "yes", "information": "guidepost", "name": "Na Novink\u00e1ch", "operator": "cz:K\u010cT", "ref": "ST273", "tourism": "information"}}, {"type": "node", "id": 4794648295, "lat": 49.1393078, "lon": 14.0590705, "tags": {"ele": "500", "hiking": "yes", "information": "guidepost", "name": "\u00dat\u011b\u0161ov", "operator": "cz:K\u010cT", "ref": "ST209", "tourism": "information"}}, {"type": "node", "id": 4820326337, "lat": 49.112173, "lon": 14.1826415, "tags": {"ele": "465", "hiking": "yes", "information": "guidepost", "name": "Lib\u011bjovice Nov\u00fd z\u00e1mek", "operator": "cz:K\u010cT", "ref": "ST049", "tourism": "information"}}, {"type": "node", "id": 4820376771, "lat": 49.1220161, "lon": 14.1700547, "tags": {"ele": "455", "hiking": "yes", "information": "guidepost", "name": "Chel\u010dice", "operator": "cz:K\u010cT", "ref": "ST047", "tourism": "information"}}, {"type": "node", "id": 4820376772, "lat": 49.0961266, "lon": 14.1753513, "tags": {"ele": "513", "hiking": "yes", "information": "guidepost", "name": "Lomec bus", "operator": "cz:K\u010cT", "ref": "ST051", "tourism": "information"}}, {"type": "node", "id": 4820462614, "lat": 49.1152278, "lon": 14.12337, "tags": {"ele": "540", "hiking": "yes", "information": "guidepost", "name": "Lib\u011bjovick\u00e9 svobodn\u00e9 hory", "operator": "cz:K\u010cT", "ref": "ST034", "tourism": "information"}}, {"type": "node", "id": 4820462615, "lat": 49.0957859, "lon": 14.1362768, "tags": {"ele": "535", "hiking": "yes", "information": "guidepost", "name": "Pod Skalic\u00ed", "operator": "cz:K\u010cT", "ref": "ST137", "tourism": "information"}}, {"type": "node", "id": 4858986577, "lat": 49.0861732, "lon": 14.0195558, "tags": {"ele": "518", "hiking": "yes", "information": "guidepost", "name": "\u010carou\u0161e", "operator": "cz:K\u010cT", "ref": "PT337", "tourism": "information"}}, {"type": "node", "id": 4858986578, "lat": 49.070537, "lon": 14.0072679, "tags": {"ele": "500", "hiking": "yes", "information": "guidepost", "name": "Budkov", "operator": "cz:K\u010cT", "ref": "PT336", "tourism": "information"}}, {"type": "node", "id": 4859025836, "lat": 49.1213159, "lon": 14.0040815, "tags": {"ele": "478", "hiking": "yes", "information": "guidepost", "name": "Javornice", "operator": "cz:K\u010cT", "ref": "PT328", "tourism": "information"}}, {"type": "node", "id": 4859025838, "lat": 49.1083172, "lon": 14.011125, "tags": {"ele": "478", "hiking": "yes", "information": "guidepost", "name": "Dub", "operator": "cz:K\u010cT", "ref": "PT328", "tourism": "information"}}, {"type": "node", "id": 4892741391, "lat": 48.9805039, "lon": 14.1715662, "tags": {"board_type": "history", "information": "board", "name": "\u00davozov\u00e9 cesty", "tourism": "information"}}, {"type": "node", "id": 4894323729, "lat": 48.9835993, "lon": 14.1430897, "tags": {"amenity": "shelter", "shelter_type": "picnic_shelter"}}, {"type": "node", "id": 4900143507, "lat": 48.9831587, "lon": 14.1256406, "tags": {"amenity": "shelter", "shelter_type": "picnic_shelter"}}, {"type": "node", "id": 4947615337, "lat": 49.0358053, "lon": 14.1009055, "tags": {"amenity": "shelter", "shelter_type": "picnic_shelter"}}, {"type": "node", "id": 4947656008, "lat": 49.0471579, "lon": 14.1607176, "tags": {"amenity": "shelter", "shelter_type": "picnic_shelter"}}, {"type": "node", "id": 4958937330, "lat": 49.0222023, "lon": 14.0038058, "tags": {"ele": "615", "hiking": "yes", "information": "guidepost", "name": "H\u00e1j\u00ed\u010dek", "operator": "cz:K\u010cT", "ref": "PT354", "source": "survey", "tourism": "information"}}, {"type": "node", "id": 4958937331, "lat": 49.0222301, "lon": 14.0038007, "tags": {"information": "guidepost", "name": "Svatopetrsk\u00e1 cesta", "operator": "cz:K\u010cT", "tourism": "information"}}, {"type": "node", "id": 4958964735, "lat": 49.0167733, "lon": 14.0005429, "tags": {"ele": "594", "hiking": "yes", "information": "guidepost", "name": "Na K\u0159emenn\u00e9m valu", "operator": "cz:K\u010cT", "ref": "PT353", "tourism": "information"}}, {"type": "node", "id": 4958964736, "lat": 49.0416367, "lon": 14.1226681, "tags": {"amenity": "shelter"}}, {"type": "node", "id": 4974610436, "lat": 48.9814125, "lon": 14.1926709, "tags": {"amenity": "shelter", "shelter_type": "picnic_shelter"}}, {"type": "node", "id": 5049278719, "lat": 48.9696099, "lon": 14.1705587, "tags": {"amenity": "shelter", "shelter_type": "picnic_shelter"}}, {"type": "node", "id": 5050945100, "lat": 49.0122445, "lon": 14.000545, "tags": {"information": "guidepost", "tourism": "information"}}, {"type": "node", "id": 5159506752, "lat": 49.0152621, "lon": 14.1264342, "tags": {"amenity": "shelter", "shelter_type": "picnic_shelter"}}, {"type": "node", "id": 5159506755, "lat": 49.102533, "lon": 14.1508685, "tags": {"amenity": "shelter", "shelter_type": "picnic_shelter"}}, {"type": "node", "id": 5212774356, "lat": 49.0823726, "lon": 14.1645699, "tags": {"board_type": "history", "information": "board", "tourism": "information"}}, {"type": "node", "id": 5312499006, "lat": 48.986648, "lon": 14.0785704, "tags": {"ele": "690", "hiking": "yes", "information": "guidepost", "name": "Frantoly", "operator": "cz:K\u010cT", "ref": "PT909", "tourism": "information"}}, {"type": "node", "id": 5312499009, "lat": 48.9835885, "lon": 14.1000855, "tags": {"ele": "720", "hiking": "yes", "information": "guidepost", "name": "Klenovice", "operator": "cz:K\u010cT", "ref": "PT396", "tourism": "information"}}, {"type": "node", "id": 5312499033, "lat": 48.9740224, "lon": 14.1003356, "tags": {"amenity": "shelter", "natural": "rock"}}, {"type": "node", "id": 5312499034, "lat": 48.9639979, "lon": 14.0949864, "tags": {"ele": "782", "name": "Doubrava", "natural": "peak"}}, {"type": "node", "id": 5324170418, "lat": 49.0469354, "lon": 14.1960409, "tags": {"board_type": "history", "information": "board", "name": "Kamenn\u00e9 mosty", "ref": "15", "tourism": "information"}}, {"type": "node", "id": 5324170419, "lat": 49.047593, "lon": 14.1961819, "tags": {"board_type": "history", "information": "board", "name": "Hr\u00e1dek u Mnichu", "ref": "14", "tourism": "information"}}, {"type": "node", "id": 5324170420, "lat": 49.0478099, "lon": 14.1963239, "tags": {"board_type": "history", "information": "board", "name": "Ziegrosser\u016fv ml\u00fdn", "ref": "13", "tourism": "information"}}, {"type": "node", "id": 5324177521, "lat": 49.0488718, "lon": 14.1965399, "tags": {"information": "board", "tourism": "information"}}, {"type": "node", "id": 5324177522, "lat": 49.0488617, "lon": 14.1965266, "tags": {"information": "board", "name": "Historick\u00e1 krajina Netolicka", "tourism": "information"}}, {"type": "node", "id": 5324177523, "lat": 49.0489811, "lon": 14.1966164, "tags": {"board_type": "history", "information": "board", "name": "Radnice", "ref": "7", "tourism": "information"}}, {"type": "node", "id": 5324177524, "lat": 49.0491697, "lon": 14.195053, "tags": {"board_type": "history", "information": "board", "name": "Hotel Beseda", "ref": "9", "tourism": "information"}}, {"type": "node", "id": 5324177525, "lat": 49.0488125, "lon": 14.1959958, "tags": {"board_type": "history", "information": "board", "name": "Ro\u017embersk\u00fd d\u016fm - muzeum", "ref": "8", "tourism": "information"}}, {"type": "node", "id": 5324177526, "lat": 49.0489529, "lon": 14.1980196, "tags": {"board_type": "history", "information": "board", "name": "Star\u00e1 \u0161kola", "ref": "4", "tourism": "information"}}, {"type": "node", "id": 5324177527, "lat": 49.0491951, "lon": 14.1982824, "tags": {"board_type": "history", "information": "board", "name": "D\u011bkanstv\u00ed", "ref": "3", "tourism": "information"}}, {"type": "node", "id": 5324177528, "lat": 49.0523251, "lon": 14.1986719, "tags": {"board_type": "history", "information": "board", "name": "Kostel Sv. V\u00e1clava", "name:de": "Die St.-Wenzels-Kirche", "name:en": "St. Wenceslas's Church", "ref": "2", "tourism": "information"}}, {"type": "node", "id": 5324177531, "lat": 49.0487518, "lon": 14.1976479, "tags": {"board_type": "history", "information": "board", "name": "Kostel Nanebevzet\u00ed Panny Marie", "ref": "5", "tourism": "information"}}, {"type": "node", "id": 5324177532, "lat": 49.0491606, "lon": 14.1974243, "tags": {"board_type": "history", "information": "board", "name": "Solnice", "ref": "6", "tourism": "information"}}, {"type": "node", "id": 5324177533, "lat": 49.0490635, "lon": 14.1964969, "tags": {"board_type": "history", "information": "board", "name": "Ka\u0161na a souso\u0161\u00ed Sv. Jana Nepomuck\u00e9ho", "ref": "10", "tourism": "information"}}, {"type": "node", "id": 5324229232, "lat": 49.0496705, "lon": 14.1936706, "tags": {"board_type": "history", "information": "board", "name": "Neuhauser\u016fv d\u016fm", "tourism": "information"}}, {"type": "node", "id": 5329610345, "lat": 49.084084, "lon": 14.0547162, "tags": {"ele": "460", "hiking": "yes", "information": "guidepost", "name": "Strunkovice nad Blanic\u00ed", "operator": "cz:K\u010cT", "ref": "PT341", "tourism": "information"}}, {"type": "node", "id": 5329610347, "lat": 49.0814559, "lon": 14.0613359, "tags": {"ele": "455", "hiking": "yes", "information": "guidepost", "name": "Strunkovice nad Blanic\u00ed", "operator": "cz:K\u010cT", "ref": "PT340", "tourism": "information"}}, {"type": "node", "id": 5329647857, "lat": 49.0495701, "lon": 14.0364182, "tags": {"ele": "520", "hiking": "yes", "information": "guidepost", "name": "B\u011ble\u010d", "operator": "cz:K\u010cT", "ref": "PT356", "tourism": "information"}}, {"type": "node", "id": 5329647858, "lat": 49.050305, "lon": 14.0251315, "tags": {"ele": "475", "hiking": "yes", "information": "guidepost", "name": "Husinec \u017est", "operator": "cz:K\u010cT", "ref": "PT355", "tourism": "information"}}, {"type": "node", "id": 5329647859, "lat": 49.0567315, "lon": 14.0233773, "tags": {"ele": "500", "hiking": "yes", "information": "guidepost", "name": "T\u011b\u0161ovice", "operator": "cz:K\u010cT", "ref": "PT339", "tourism": "information"}}, {"type": "node", "id": 5329666568, "lat": 49.035255, "lon": 14.0762865, "tags": {"ele": "530", "hiking": "yes", "information": "guidepost", "name": "Pod Brdovou", "operator": "cz:K\u010cT", "ref": "PT367", "tourism": "information"}}, {"type": "node", "id": 5329666569, "lat": 49.0453509, "lon": 14.0660834, "tags": {"hiking": "yes", "information": "guidepost", "name": "Pod Osul\u00ed", "operator": "cz:K\u010cT", "ref": "PT364", "tourism": "information"}}, {"type": "node", "id": 5330735838, "lat": 49.0045396, "lon": 14.0802348, "tags": {"ele": "554", "hiking": "yes", "information": "guidepost", "name": "U Fork\u016f ml\u00fdna", "operator": "cz:K\u010cT", "ref": "PT902", "tourism": "information"}}, {"type": "node", "id": 5330736247, "lat": 48.9858232, "lon": 14.0966164, "tags": {"ele": "707", "hiking": "yes", "information": "guidepost", "name": "Klenovice (rozc.)", "operator": "cz:K\u010cT", "ref": "PT146", "tourism": "information"}}, {"type": "node", "id": 5330849924, "lat": 48.9834688, "lon": 14.125259, "tags": {"ele": "576", "hiking": "yes", "information": "guidepost", "name": "M\u00ed\u010dovice", "operator": "cz:K\u010cT", "ref": "PT937", "tourism": "information"}}, {"type": "node", "id": 5465231723, "lat": 49.0503787, "lon": 14.1966139, "tags": {"board_type": "history", "information": "board", "name": "M\u011b\u0161\u0165ansk\u00fd pivovar (12)", "ref": "12", "tourism": "information"}}, {"type": "node", "id": 5497198122, "lat": 49.1227811, "lon": 14.1662208, "tags": {"amenity": "shelter", "shelter_type": "picnic_shelter"}}, {"type": "node", "id": 5497265179, "lat": 49.1217311, "lon": 14.1550602, "tags": {"amenity": "shelter", "shelter_type": "picnic_shelter"}}, {"type": "node", "id": 5497265180, "lat": 49.1216948, "lon": 14.1550972, "tags": {"information": "board", "tourism": "information"}}, {"type": "node", "id": 5503531719, "lat": 49.0844917, "lon": 14.1698591, "tags": {"information": "map", "name": "Krtely", "tourism": "information"}}, {"type": "node", "id": 5509107698, "lat": 49.073554, "lon": 14.1981106, "tags": {"board_type": "history", "information": "board", "name": "Hradi\u0161t\u011b u Malovic", "ref": "12", "tourism": "information"}}, {"type": "node", "id": 5509107700, "lat": 49.0949949, "lon": 14.1870281, "tags": {"board_type": "history", "information": "board", "name": "Lomec", "ref": "9", "tourism": "information"}}, {"type": "node", "id": 5509107702, "lat": 49.0957912, "lon": 14.1875334, "tags": {"amenity": "shelter", "shelter_type": "picnic_shelter"}}, {"type": "node", "id": 5509107703, "lat": 49.0504629, "lon": 14.1796134, "tags": {"board_type": "history", "information": "board", "name": "Petr\u016fv dv\u016fr", "ref": "5", "tourism": "information"}}, {"type": "node", "id": 5509107704, "lat": 49.0320729, "lon": 14.1878424, "tags": {"board_type": "history", "information": "board", "name": "Renesan\u010dn\u00ed statek Grejnarov", "ref": "1", "tourism": "information"}}, {"type": "node", "id": 5509176385, "lat": 48.9942997, "lon": 14.1499009, "tags": {"board_type": "history", "information": "board", "name": "Lhenice", "ref": "2", "tourism": "information"}}, {"type": "node", "id": 5509176387, "lat": 49.0509401, "lon": 14.1212148, "tags": {"board_type": "history", "information": "board", "name": "Obec Obora", "tourism": "information"}}, {"type": "node", "id": 5510066735, "lat": 49.064506, "lon": 14.1657724, "tags": {"board_type": "history", "information": "board", "name": "Mohylov\u00e1 poh\u0159ebi\u0161t\u011b v Krtelsk\u00e9m lese", "ref": "7", "tourism": "information"}}, {"type": "node", "id": 5586821842, "lat": 48.9799665, "lon": 14.1818788, "tags": {"information": "board", "tourism": "information"}}, {"type": "node", "id": 5586821844, "lat": 49.0395631, "lon": 14.1734253, "tags": {"board_type": "history", "information": "board", "name": "Zanikl\u00e1 Ro\u017embersk\u00e1 obora", "ref": "4", "tourism": "information"}}, {"type": "node", "id": 5586821857, "lat": 49.1469114, "lon": 14.1402712, "tags": {"information": "board", "tourism": "information"}}, {"type": "node", "id": 5586821865, "lat": 49.1279699, "lon": 14.1548932, "tags": {"board_type": "nature", "information": "board", "name": "Zem\u011bd\u011blstv\u00ed - ovocn\u00e1\u0159sv\u00ed", "tourism": "information"}}, {"type": "node", "id": 5586821867, "lat": 49.1221873, "lon": 14.170267, "tags": {"information": "board", "tourism": "information"}}, {"type": "node", "id": 5605185081, "lat": 49.1320661, "lon": 14.1302725, "tags": {"direction": "180", "level": "0", "tourism": "viewpoint"}}, {"type": "node", "id": 5611666920, "lat": 49.0396366, "lon": 14.1734502, "tags": {"amenity": "shelter", "shelter_type": "weather_shelter"}}, {"type": "node", "id": 5647397793, "lat": 48.9714583, "lon": 14.0788792, "tags": {"board_type": "history", "information": "board", "name": "Maloniny", "tourism": "information"}}, {"type": "node", "id": 5647397807, "lat": 48.9866502, "lon": 14.0782308, "tags": {"board_type": "history", "information": "board", "name": "Frantoly", "tourism": "information"}}, {"type": "node", "id": 5715787891, "lat": 49.112042, "lon": 14.1825026, "tags": {"amenity": "shelter", "shelter_type": "picnic_shelter"}}, {"type": "node", "id": 5732641954, "lat": 49.0165729, "lon": 14.0005246, "tags": {"board_type": "nature", "information": "board", "name": "Pam\u011btn\u00ed jehlan nad Skalkou", "ref": "2", "tourism": "information"}}, {"type": "node", "id": 5732641956, "lat": 49.0193541, "lon": 14.0025866, "tags": {"board_type": "history", "information": "board", "name": "K\u0159\u00ed\u017eov\u00e1 cesta", "ref": "3", "tourism": "information"}}, {"type": "node", "id": 5732641958, "lat": 49.0205221, "lon": 14.0029259, "tags": {"board_type": "history", "information": "board", "name": "H\u0159bitov a kostel sv. Petra a Pavla", "ref": "4", "tourism": "information"}}, {"type": "node", "id": 5732641963, "lat": 49.0217578, "lon": 14.0039211, "tags": {"board_type": "nature", "information": "board", "ref": "12", "tourism": "information"}}, {"type": "node", "id": 5828980722, "lat": 48.9664901, "lon": 14.0583175, "tags": {"natural": "peak"}}, {"type": "node", "id": 5941128057, "lat": 49.0231188, "lon": 14.1641354, "tags": {"amenity": "shelter", "shelter_type": "picnic_shelter"}}, {"type": "node", "id": 5941128058, "lat": 49.0153509, "lon": 14.1500943, "tags": {"board_type": "history", "information": "board", "name": "Prav\u011bk\u00e9 hradi\u0161t\u011b Velk\u00fd hr\u00e1de\u010dek u T\u0159eb\u00e1nic", "ref": "3", "tourism": "information"}}, {"type": "node", "id": 5941128059, "lat": 49.0153787, "lon": 14.1500735, "tags": {"amenity": "shelter", "shelter_type": "picnic_shelter"}}, {"type": "node", "id": 5941128078, "lat": 48.9520903, "lon": 14.1684602, "tags": {"board_type": "history", "information": "board", "name": "Lineck\u00e1 stezka - Sm\u011bde\u010dek", "tourism": "information"}}, {"type": "node", "id": 5941128079, "lat": 48.952078, "lon": 14.1684281, "tags": {"amenity": "shelter", "shelter_type": "picnic_shelter"}}, {"type": "node", "id": 6019820725, "lat": 49.0477236, "lon": 14.1974408, "tags": {"board_type": "history", "information": "board", "name": "Tradi\u010dn\u00ed lidov\u00e1 architektura", "ref": "16", "tourism": "information"}}, {"type": "node", "id": 6053015691, "lat": 49.1230824, "lon": 14.1789304, "tags": {"board_type": "history", "information": "board", "name": "Kaple svat\u00e9 M\u00e1\u0159\u00ed Magdaleny", "tourism": "information"}}, {"type": "node", "id": 6053015692, "lat": 49.0951279, "lon": 14.1874916, "tags": {"board_type": "information", "information": "board", "name": "Meditativn\u00ed zahrada Panny Marie", "tourism": "information"}}, {"type": "node", "id": 6242271857, "lat": 48.9987917, "lon": 14.1381705, "tags": {"amenity": "shelter", "bin": "yes", "lit": "no", "name": "Sed\u00fdlko pod Str\u00e1\u017e\u00ed", "shelter_type": "picnic_shelter"}}, {"type": "node", "id": 6242274668, "lat": 48.9961177, "lon": 14.1402982, "tags": {"amenity": "shelter", "lit": "no", "name": "Vyhl\u00eddka nad Lhenicemi", "shelter_type": "picnic_shelter"}}, {"type": "node", "id": 6284795988, "lat": 49.1495943, "lon": 14.1738519, "tags": {"board_type": "information", "information": "board", "name": "Vod\u0148any", "tourism": "information"}}, {"type": "node", "id": 6284809148, "lat": 49.1461937, "lon": 14.1777253, "tags": {"information": "map", "name": "Ryb\u00e1\u0159sk\u00e1 cyklotrasa", "tourism": "information"}}, {"type": "node", "id": 6372939702, "lat": 49.0313509, "lon": 14.1304109, "tags": {"amenity": "shelter", "shelter_type": "picnic_shelter"}}, {"type": "node", "id": 6639980489, "lat": 49.0764922, "lon": 14.0872729, "tags": {"information": "map", "tourism": "information"}}, {"type": "node", "id": 6640598696, "lat": 48.9679557, "lon": 14.1149644}, {"type": "node", "id": 6640598697, "lat": 48.9679559, "lon": 14.1149278}, {"type": "node", "id": 6640598698, "lat": 48.9679314, "lon": 14.1149277}, {"type": "node", "id": 6640598699, "lat": 48.9679316, "lon": 14.114964}, {"type": "node", "id": 6700832881, "lat": 49.0476307, "lon": 14.0408906, "tags": {"tourism": "viewpoint"}}, {"type": "node", "id": 7093092355, "lat": 49.1384177, "lon": 14.0163916, "tags": {"amenity": "shelter", "shelter_type": "picnic_shelter"}}, {"type": "node", "id": 7449829043, "lat": 49.0826198, "lon": 14.1443499, "tags": {"amenity": "shelter", "shelter_type": "picnic_shelter"}}, {"type": "node", "id": 7450050632, "lat": 49.1257019, "lon": 14.1267321, "tags": {"ele": "545", "hiking": "yes", "information": "guidepost", "name": "Vod\u0148ansk\u00e9 Svobod. Hory", "operator": "cz:K\u010cT", "ref": "ST214", "tourism": "information"}}, {"type": "node", "id": 7476910644, "lat": 49.1238152, "lon": 14.1952537, "tags": {"amenity": "shelter", "shelter_type": "picnic_shelter"}}, {"type": "node", "id": 7784970079, "lat": 49.1396287, "lon": 14.1345835, "tags": {"tourism": "viewpoint"}}, {"type": "node", "id": 7816083362, "lat": 48.9986147, "lon": 14.006602, "tags": {"tourism": "viewpoint"}}, {"type": "node", "id": 8179512015, "lat": 49.0493066, "lon": 14.0364719, "tags": {"information": "board", "name": "B\u011ble\u010d", "tourism": "information"}}, {"type": "node", "id": 8179537454, "lat": 49.0385617, "lon": 14.0315175, "tags": {"information": "board", "name": "B\u011ble\u010dsk\u00e1 Lhota", "tourism": "information"}}, {"type": "node", "id": 8179548395, "lat": 49.0546197, "lon": 14.022564, "tags": {"information": "board", "name": "T\u011b\u0161ovice", "tourism": "information"}}, {"type": "node", "id": 8317800599, "lat": 49.0990947, "lon": 14.1397928, "tags": {"tourism": "viewpoint"}}, {"type": "node", "id": 8589353843, "lat": 49.0406568, "lon": 14.0067424, "tags": {"tourism": "viewpoint"}}, {"type": "node", "id": 8763779389, "lat": 49.0464239, "lon": 14.0655655, "tags": {"tourism": "viewpoint"}}, {"type": "node", "id": 8895863985, "lat": 49.1320426, "lon": 14.1491542, "tags": {"amenity": "shelter", "shelter_type": "picnic_shelter"}}, {"type": "node", "id": 8895863986, "lat": 49.1320946, "lon": 14.1493738, "tags": {"ele": "445", "information": "guidepost", "name": "Sto\u017eice", "operator": "cz:K\u010cT", "tourism": "information"}}, {"type": "node", "id": 9008574012, "lat": 49.1212311, "lon": 14.1484639, "tags": {"board_type": "nature", "information": "board", "name": "Nau\u010dn\u00e1 stezka Sto\u017eice", "tourism": "information"}}, {"type": "node", "id": 9008584711, "lat": 49.1472812, "lon": 14.0290363, "tags": {"amenity": "shelter", "shelter_type": "picnic_shelter"}}, {"type": "node", "id": 9008584712, "lat": 49.1471521, "lon": 14.0288792, "tags": {"amenity": "shelter", "shelter_type": "picnic_shelter"}}, {"type": "node", "id": 9008636923, "lat": 49.1370399, "lon": 14.019316, "tags": {"information": "map", "name": "Krajn\u00ed\u010dko", "tourism": "information"}}, {"type": "node", "id": 9010698209, "lat": 49.1324373, "lon": 14.0345212, "tags": {"amenity": "shelter", "shelter_type": "weather_shelter"}}, {"type": "node", "id": 9026774100, "lat": 48.9973101, "lon": 14.0104486, "tags": {"amenity": "shelter", "shelter_type": "lean_to"}}, {"type": "node", "id": 9045751675, "lat": 49.1022002, "lon": 14.1987725, "tags": {"amenity": "shelter", "shelter_type": "picnic_shelter"}}, {"type": "node", "id": 9118361696, "lat": 49.1024523, "lon": 14.1857699, "tags": {"amenity": "shelter", "shelter_type": "picnic_shelter"}}, {"type": "node", "id": 9526230365, "lat": 48.9866206, "lon": 14.0777602, "tags": {"information": "board", "name": "Frantoly", "tourism": "information"}}, {"type": "node", "id": 9893933516, "lat": 48.9953528, "lon": 14.1441907, "tags": {"amenity": "shelter", "shelter_type": "picnic_shelter"}}, {"type": "node", "id": 9893935617, "lat": 48.9857241, "lon": 14.096837, "tags": {"amenity": "shelter", "shelter_type": "picnic_shelter"}}, {"type": "node", "id": 9893935619, "lat": 48.9891641, "lon": 14.0836027, "tags": {"information": "map", "name": "Zlat\u00e1 stezka", "tourism": "information"}}, {"type": "node", "id": 9893935620, "lat": 48.9892693, "lon": 14.0832981, "tags": {"horse": "yes", "information": "guidepost", "name": "U Par\u00e1d\u016f, Frantoly", "operator": "Jiho\u010desk\u00e9 hipostezky", "tourism": "information"}}, {"type": "node", "id": 9893935622, "lat": 49.0166107, "lon": 14.0005445, "tags": {"board_type": "nature", "information": "board", "name": "K\u0159emenn\u00fd v\u00e1l", "ref": "1", "tourism": "information"}}, {"type": "node", "id": 9908844570, "lat": 49.0375884, "lon": 14.1847799, "tags": {"information": "map", "name": "Rybnik Podrouzek", "panoramax": "38418f07-afd8-4561-85a7-574b1f661e80", "tourism": "information"}}, {"type": "node", "id": 10080597485, "lat": 48.9986327, "lon": 14.007925, "tags": {"information": "map", "tourism": "information"}}, {"type": "node", "id": 10080597486, "lat": 48.9976685, "lon": 14.010165, "tags": {"board_type": "information", "information": "board", "name": "Are\u00e1l lesn\u00edch her", "tourism": "information"}}, {"type": "node", "id": 10080597497, "lat": 48.9851165, "lon": 14.0117732, "tags": {"amenity": "shelter", "shelter_type": "picnic_shelter"}}, {"type": "node", "id": 10080597498, "lat": 48.9853418, "lon": 14.010695, "tags": {"board_type": "nature", "information": "board", "name": "Kaple sv. Filipa Neri", "ref": "5", "tourism": "information"}}, {"type": "node", "id": 10696893981, "lat": 49.1461875, "lon": 14.1763311, "tags": {"information": "board", "tourism": "information"}}, {"type": "node", "id": 10799724682, "lat": 49.1129095, "lon": 14.1278373, "tags": {"ele": "540", "hiking": "yes", "information": "guidepost", "name": "Lib\u011bjovick\u00e9 svob. hory", "operator": "cz:K\u010cT", "ref": "ST034", "tourism": "information"}}, {"type": "node", "id": 10921553181, "lat": 49.0830122, "lon": 14.055556, "tags": {"horse": "yes", "information": "guidepost", "name": "Strunkovice n. Bl.", "operator": "cz:K\u010cT", "tourism": "information"}}, {"type": "node", "id": 10921553238, "lat": 49.1202998, "lon": 14.0769675, "tags": {"horse": "yes", "information": "guidepost", "operator": "cz:K\u010cT", "tourism": "information"}}, {"type": "node", "id": 11039268723, "lat": 48.9982928, "lon": 14.0067364, "tags": {"information": "board", "name": "Are\u00e1l lesn\u00edch her", "tourism": "information"}}, {"type": "node", "id": 11039321902, "lat": 49.0105971, "lon": 14.0032798, "tags": {"information": "map", "name": "Prachatice - jihov\u00fdchodn\u00ed \u010d\u00e1st m\u011bsta", "tourism": "information"}}, {"type": "node", "id": 11039321903, "lat": 49.0106194, "lon": 14.0032653, "tags": {"description": "Turistick\u00e1 v\u00fdv\u011bsn\u00ed mapa 1:30 000", "information": "map", "name": "Prachaticko", "tourism": "information"}}, {"type": "node", "id": 11039523631, "lat": 49.0109211, "lon": 14.0010911, "tags": {"information": "map", "name": "Prachatice - severov\u00fdchodn\u00ed \u010d\u00e1st m\u011bsta", "tourism": "information"}}, {"type": "node", "id": 11039552015, "lat": 48.9971044, "lon": 14.0105194, "tags": {"information": "board", "name": "Historie v letokruhu", "tourism": "information"}}, {"type": "node", "id": 11039560734, "lat": 48.9974869, "lon": 14.0104231, "tags": {"information": "board", "name": "Mal\u00e9 hry v p\u0159\u00edrod\u011b", "tourism": "information"}}, {"type": "node", "id": 11039561990, "lat": 48.9973669, "lon": 14.0087358, "tags": {"information": "board", "name": "Jak se stav\u00ed pta\u010d\u00ed hn\u00edzdo?", "tourism": "information"}}, {"type": "node", "id": 11039561991, "lat": 48.9973681, "lon": 14.0091111, "tags": {"information": "board", "name": "V\u00edtejte v pavu\u010din\u011b", "tourism": "information"}}, {"type": "node", "id": 11039561992, "lat": 48.9970636, "lon": 14.00992, "tags": {"information": "board", "name": "Kamenn\u00e9 mo\u0159e", "tourism": "information"}}, {"type": "node", "id": 11039561993, "lat": 48.9974417, "lon": 14.0104472, "tags": {"information": "board", "name": "Cvi\u010den\u00ed pam\u011bti", "tourism": "information"}}, {"type": "node", "id": 11039562502, "lat": 48.9974611, "lon": 14.0103908, "tags": {"information": "board", "name": "Mal\u00e9 hry v p\u0159\u00edrod\u011b", "tourism": "information"}}, {"type": "node", "id": 11039576785, "lat": 48.9967367, "lon": 14.0110906, "tags": {"information": "board", "name": "Mraky, oblaka", "tourism": "information"}}, {"type": "node", "id": 11039577027, "lat": 48.9967966, "lon": 14.0100072, "tags": {"information": "board", "name": "V\u00edtejte v lese", "tourism": "information"}}, {"type": "node", "id": 11039578800, "lat": 48.9966183, "lon": 14.0101089, "tags": {"information": "board", "name": "Pov\u011bsti a Legendy", "tourism": "information"}}, {"type": "node", "id": 11039581628, "lat": 48.9968239, "lon": 14.0101264, "tags": {"information": "board", "name": "Pov\u011bsti a Legendy", "tourism": "information"}}, {"type": "node", "id": 11039581706, "lat": 48.9969304, "lon": 14.0101279, "tags": {"information": "board", "name": "Barvy", "tourism": "information"}}, {"type": "node", "id": 11039595168, "lat": 49.0156858, "lon": 14.0037756, "tags": {"board_type": "history", "information": "board", "name": "Prom\u011bny Prachatic b\u011bhem 20. stolet\u00ed", "tourism": "information"}}, {"type": "node", "id": 11039602330, "lat": 48.9974444, "lon": 14.010423, "tags": {"information": "board", "name": "Cvi\u010den\u00ed pam\u011bti", "tourism": "information"}}, {"type": "node", "id": 11039605485, "lat": 49.0137919, "lon": 14.0048408, "tags": {"description": "Turistick\u00e1 v\u00fdv\u011bsn\u00ed mapa 1:30 000", "information": "map", "name": "Prachaticko", "tourism": "information"}}, {"type": "node", "id": 11039612743, "lat": 48.9972611, "lon": 14.0086553, "tags": {"information": "board", "name": "\u017dab\u00ed t\u016f\u0148", "tourism": "information"}}, {"type": "node", "id": 11039619036, "lat": 49.0138692, "lon": 14.0045661, "tags": {"information": "map", "name": "Prachatice - severoz\u00e1padn\u00ed \u010d\u00e1st m\u011bsta", "tourism": "information"}}, {"type": "node", "id": 11039621308, "lat": 48.9980286, "lon": 14.0072553, "tags": {"information": "board", "name": "V\u00edtejte v lese", "tourism": "information"}}, {"type": "node", "id": 11039621309, "lat": 48.9977242, "lon": 14.0080117, "tags": {"information": "board", "name": "Mraveni\u0161t\u011b", "tourism": "information"}}, {"type": "node", "id": 11039627947, "lat": 49.0135939, "lon": 14.0048969, "tags": {"information": "board", "name": "J\u00edzdn\u00ed \u0159\u00e1dy", "tourism": "information"}}, {"type": "node", "id": 11042324725, "lat": 48.9993867, "lon": 14.0007017, "tags": {"information": "board", "name": "Pr\u00e1ce v lese", "tourism": "information"}}, {"type": "node", "id": 11046557058, "lat": 49.0054964, "lon": 14.0528489, "tags": {"information": "map", "name": "Nebahovy a okol\u00ed", "tourism": "information"}}, {"type": "node", "id": 11046645686, "lat": 49.0100458, "lon": 14.0126356, "tags": {"information": "board", "name": "Zbytek kmene chr\u00e1n\u011bn\u00e9 l\u00edpy", "tourism": "information"}}, {"type": "node", "id": 11046654784, "lat": 49.0025044, "lon": 14.0108317, "tags": {"information": "board", "name": "\u010cesk\u00fd ryb\u00e1\u0159sk\u00fd svaz", "tourism": "information"}}, {"type": "node", "id": 11072649591, "lat": 49.1323262, "lon": 14.1302966, "tags": {"hiking": "yes", "information": "map", "map_size": "site", "map_type": "scheme", "tourism": "information"}}, {"type": "node", "id": 11112885725, "lat": 49.0436652, "lon": 14.1251399, "tags": {"board_type": "history", "information": "board", "name": "Zanikl\u00e9 vesnice na \u00fazem\u00ed Netolick\u00e9 obory", "tourism": "information"}}, {"type": "node", "id": 11112885726, "lat": 49.0436323, "lon": 14.1251058, "tags": {"tourism": "viewpoint"}}, {"type": "node", "id": 11118237566, "lat": 48.9991508, "lon": 14.0023164, "tags": {"information": "board", "name": "Les - star\u00e1 \u0159emesla", "tourism": "information"}}, {"type": "node", "id": 11118291723, "lat": 49.0108933, "lon": 14.001058, "tags": {"information": "map", "name": "Prachatice pro d\u011bti", "tourism": "information"}}, {"type": "node", "id": 11118295025, "lat": 48.9975467, "lon": 14.0084306, "tags": {"information": "board", "name": "Vever\u010d\u00ed stezka", "tourism": "information"}}, {"type": "node", "id": 11230895030, "lat": 49.0843244, "lon": 14.1692127}, {"type": "node", "id": 11230895031, "lat": 49.0842926, "lon": 14.1692315}, {"type": "node", "id": 11230895032, "lat": 49.0842777, "lon": 14.1691728}, {"type": "node", "id": 11230895033, "lat": 49.0843095, "lon": 14.169154}, {"type": "node", "id": 11615977081, "lat": 49.1203667, "lon": 14.1686923, "tags": {"board_type": "history", "information": "board", "name": "Petr Chel\u010dick\u00fd", "tourism": "information"}}, {"type": "node", "id": 11685134152, "lat": 49.0610988, "lon": 14.0772144, "tags": {"amenity": "shelter", "shelter_type": "picnic_shelter"}}, {"type": "node", "id": 11685134155, "lat": 49.0579755, "lon": 14.0875368, "tags": {"amenity": "shelter", "shelter_type": "picnic_shelter"}}, {"type": "node", "id": 11688077032, "lat": 49.0296415, "lon": 14.0971827, "tags": {"amenity": "shelter", "shelter_type": "picnic_shelter"}}, {"type": "node", "id": 11688077044, "lat": 49.0541359, "lon": 14.0806104, "tags": {"amenity": "shelter", "shelter_type": "picnic_shelter"}}, {"type": "node", "id": 11688213780, "lat": 49.0375613, "lon": 14.1839755, "tags": {"ele": "434", "hiking": "yes", "information": "guidepost", "name": "Podrou\u017eek (kemp)", "operator": "cz:K\u010cT", "ref": "PT387", "tourism": "information"}}, {"type": "node", "id": 11712031651, "lat": 49.1480783, "lon": 14.1763538, "tags": {"information": "office", "tourism": "information"}}, {"type": "node", "id": 11813383745, "lat": 49.0717433, "lon": 14.1696335, "tags": {"amenity": "shelter", "shelter_type": "picnic_shelter"}}, {"type": "node", "id": 11813383746, "lat": 49.097115, "lon": 14.1410791, "tags": {"amenity": "shelter", "shelter_type": "picnic_shelter"}}, {"type": "node", "id": 12042400561, "lat": 49.142969, "lon": 14.1396851, "tags": {"ele": "445", "hiking": "yes", "information": "guidepost", "name": "Pra\u017e\u00e1k (rozc.)", "operator": "cz:K\u010cT", "ref": "ST040", "tourism": "information"}}, {"type": "node", "id": 12103248678, "lat": 48.9748408, "lon": 14.1432451, "tags": {"amenity": "shelter", "shelter_type": "picnic_shelter"}}, {"type": "node", "id": 12103248680, "lat": 49.0472865, "lon": 14.0415704, "tags": {"board_type": "nature", "information": "board", "name": "P\u0159\u00edroda v okol\u00ed B\u011bl\u010de", "tourism": "information"}}, {"type": "node", "id": 12412980531, "lat": 48.9834686, "lon": 14.1002367, "tags": {"board_type": "tourism", "information": "board", "name": "Mi\u010dovice", "tourism": "information"}}, {"type": "node", "id": 12413035732, "lat": 48.9833739, "lon": 14.1001306, "tags": {"information": "board", "tourism": "information"}}, {"type": "node", "id": 12560827382, "lat": 48.9624795, "lon": 14.0310043}, {"type": "node", "id": 12560827383, "lat": 48.9624822, "lon": 14.0310366}, {"type": "node", "id": 12560827384, "lat": 48.962462, "lon": 14.0310406}, {"type": "node", "id": 12560827385, "lat": 48.9624592, "lon": 14.0310083}, {"type": "node", "id": 12580174938, "lat": 49.1402334, "lon": 14.107042, "tags": {"ele": "456", "natural": "peak", "source": "\u010c\u00daZK"}}, {"type": "node", "id": 12703251375, "lat": 49.0576106, "lon": 14.1664714, "tags": {"bicycle": "yes", "information": "guidepost", "operator": "cz:K\u010cT", "ref": "none", "tourism": "information"}}, {"type": "node", "id": 12703251376, "lat": 49.0576333, "lon": 14.1665252, "tags": {"information": "map", "map_size": "region", "map_type": "topo", "name": "Vod\u0148ansko", "tourism": "information"}}, {"type": "node", "id": 12726131715, "lat": 49.0575673, "lon": 14.1695334, "tags": {"information": "map", "map_size": "region", "map_type": "scheme", "tourism": "information"}}, {"type": "node", "id": 12726131716, "lat": 49.0575848, "lon": 14.169469, "tags": {"information": "board", "name": "Kratochv\u00edle - z\u00e1mek", "tourism": "information"}}, {"type": "node", "id": 12726131717, "lat": 49.0576008, "lon": 14.1694104, "tags": {"information": "map", "map_size": "region", "map_type": "topo", "name": "Kratochv\u00edle", "tourism": "information"}}, {"type": "node", "id": 12726131718, "lat": 49.057627, "lon": 14.1693142, "tags": {"information": "map", "map_size": "region", "map_type": "scheme", "tourism": "information"}}, {"type": "node", "id": 12827906501, "lat": 48.9834729, "lon": 14.1626138, "tags": {"amenity": "shelter", "shelter_type": "picnic_shelter"}}, {"type": "node", "id": 12827906515, "lat": 49.0027777, "lon": 14.1241775, "tags": {"amenity": "shelter", "shelter_type": "picnic_shelter"}}, {"type": "node", "id": 12827906524, "lat": 49.0028113, "lon": 14.1240958, "tags": {"information": "map", "name": "Mi\u010dovice", "tourism": "information"}}, {"type": "node", "id": 12871132163, "lat": 49.0589104, "lon": 14.1682924, "tags": {"barrier": "entrance"}}, {"type": "node", "id": 12871132229, "lat": 49.0588136, "lon": 14.1673204, "tags": {"amenity": "shelter"}}, {"type": "node", "id": 12957127722, "lat": 49.1025457, "lon": 14.1508023, "tags": {"information": "map", "name": "Ovocn\u00e1\u0159sk\u00e1 cyklotrasa - Truskovice", "tourism": "information"}}, {"type": "node", "id": 13026095231, "lat": 48.9576379, "lon": 14.0271242, "tags": {"name": "Skaly", "natural": "peak"}}, {"type": "node", "id": 13059264487, "lat": 48.9779627, "lon": 14.0385033}, {"type": "node", "id": 13059264488, "lat": 48.9779793, "lon": 14.0385473}, {"type": "node", "id": 13059264489, "lat": 48.9780107, "lon": 14.0385198}, {"type": "node", "id": 13059264490, "lat": 48.9779941, "lon": 14.0384758}, {"type": "node", "id": 13142786436, "lat": 49.0755242, "lon": 14.0555766, "tags": {"board_type": "welcome_sign", "information": "board", "name": "Stezka lesn\u00edch sk\u0159\u00edtk\u016f", "tourism": "information"}}, {"type": "node", "id": 13142786437, "lat": 49.0746596, "lon": 14.0549828, "tags": {"board_type": "information", "description": "Stezka lesn\u00edch sk\u0159\u00edtk\u016f", "information": "board", "name": "H\u0159bitovn\u00edk radostn\u00fd", "tourism": "information"}}, {"type": "node", "id": 13142786451, "lat": 49.0737329, "lon": 14.0554412, "tags": {"board_type": "information", "description": "Stezka lesn\u00edch sk\u0159\u00edtk\u016f", "information": "board", "name": "Vojlex rem\u00edzkov\u00fd", "tourism": "information"}}, {"type": "node", "id": 13142786452, "lat": 49.0725274, "lon": 14.0549912, "tags": {"board_type": "information", "description": "Stezka lesn\u00edch sk\u0159\u00edtk\u016f", "information": "board", "name": "\u0160utr\u00e1k tvrdohlav\u00fd \u0160ut\u0159enka l\u00e9ka\u0159sk\u00e1", "tourism": "information"}}, {"type": "node", "id": 13142786453, "lat": 49.0723007, "lon": 14.0567242, "tags": {"board_type": "information", "description": "Stezka lesn\u00edch sk\u0159\u00edtk\u016f", "information": "board", "name": "Houb\u00edk smrkov\u00fd", "tourism": "information"}}, {"type": "node", "id": 13142786454, "lat": 49.0728017, "lon": 14.0579471, "tags": {"board_type": "information", "description": "Stezka lesn\u00edch sk\u0159\u00edtk\u016f", "information": "board", "name": "K\u0159e\u0148\u00e1\u010dek mechov\u00fd", "tourism": "information"}}, {"type": "node", "id": 13142786484, "lat": 49.0733567, "lon": 14.0583966, "tags": {"board_type": "information", "description": "Stezka lesn\u00edch sk\u0159\u00edtk\u016f", "information": "board", "name": "Strouhal\u00ed\u010dek kouzeln\u00fd", "tourism": "information"}}, {"type": "node", "id": 13142786485, "lat": 49.0736259, "lon": 14.0592213, "tags": {"board_type": "information", "description": "Stezka lesn\u00edch sk\u0159\u00edtk\u016f", "information": "board", "name": "Pod\u0161\u00edvka zv\u00eddav\u00fd", "tourism": "information"}}, {"type": "node", "id": 13142786490, "lat": 49.0734371, "lon": 14.0601123, "tags": {"board_type": "information", "description": "Stezka lesn\u00edch sk\u0159\u00edtk\u016f", "information": "board", "name": "Bramborovka p\u0159espoln\u00ed", "tourism": "information"}}, {"type": "node", "id": 13142822301, "lat": 49.0732081, "lon": 14.0609767, "tags": {"board_type": "information", "description": "Stezka lesn\u00edch sk\u0159\u00edtk\u016f", "information": "board", "name": "Mech\u00e1\u010dek lesn\u00ed", "tourism": "information"}}, {"type": "node", "id": 13142822303, "lat": 49.0734174, "lon": 14.0624137, "tags": {"board_type": "information", "description": "Stezka lesn\u00edch sk\u0159\u00edtk\u016f", "information": "board", "name": "Krumber\u00e1\u010dek osikov\u00fd", "tourism": "information"}}, {"type": "node", "id": 13142822313, "lat": 49.0741105, "lon": 14.0628933, "tags": {"board_type": "information", "information": "board", "name": "Stezka lesn\u00edch sk\u0159\u00edtk\u016f", "tourism": "information"}}, {"type": "node", "id": 13142822329, "lat": 49.0838978, "lon": 14.0550172, "tags": {"information": "map", "name": "M\u011bstys Strunkovice nad Blanic\u00ed", "tourism": "information"}}, {"type": "node", "id": 13145156584, "lat": 49.1194849, "lon": 14.0747267, "tags": {"horse": "yes", "information": "guidepost", "name": "Bavorov (rozc.)", "operator": "cz:K\u010cT", "ref": "ST030", "tourism": "information"}}, {"type": "node", "id": 13305178656, "lat": 49.0789866, "lon": 14.0766985, "tags": {"name": "Paraservice", "sport": "parachuting", "tourism": "attraction", "website": "https://paraservice.cz/"}}, {"type": "way", "id": 36790113, "nodes": [427711481, 427711483, 427711487, 12871132163, 427711488, 427711481], "tags": {"building": "civic", "building:architecture": "renaissance", "building:ruian:type": "5", "castle_type": "stately", "castle_type:cs": "z\u00e1mek", "castle_type:de": "wasserschloss", "email": "kratochvile@npu.cz", "historic": "castle", "moated": "yes", "name": "Z\u00e1mek Kratochv\u00edle", "name:de": "Schloss Kurzweil", "phone": "+420 388 324 380", "ref:ruian:building": "17550483", "source": "cuzk:ruian", "tourism": "attraction", "website": "https://www.zamek-kratochvile.cz", "wikidata": "Q370894", "wikipedia": "cs:Kratochv\u00edle (z\u00e1mek)"}}, {"type": "way", "id": 258563137, "nodes": [2638984918, 2638984916, 2638984917, 2638984919, 2638984918], "tags": {"amenity": "shelter", "ref:ruian": "38988232", "shelter_type": "public_transport", "source": "cuzk:ruian"}}, {"type": "way", "id": 260085509, "nodes": [2655739252, 2655739255, 2655739247, 2655739242, 2655739252], "tags": {"building": "civic", "building:ruian:type": "5", "height": "27", "man_made": "tower", "name": "Rozhledna Lib\u00edn", "ref:ruian:building": "49154818", "source": "cuzk:ruian", "tourism": "viewpoint", "tower:type": "observation"}}, {"type": "way", "id": 301700096, "nodes": [3057918554, 3057918564, 3057918565, 3057918566, 3057918561, 3057918556, 3057918555, 3057918554], "tags": {"amenity": "shelter", "shelter_type": "public_transport"}}, {"type": "way", "id": 706673250, "nodes": [6640598699, 6640598698, 6640598697, 6640598696, 6640598699], "tags": {"amenity": "shelter", "building": "yes", "building:ruian:type": "17", "ref:ruian:building": "46149279", "shelter_type": "public_transport", "source": "cuzk:ruian"}}, {"type": "way", "id": 1212218873, "nodes": [11230895033, 11230895032, 11230895031, 11230895030, 11230895033], "tags": {"amenity": "shelter", "shelter_type": "picnic_shelter"}}, {"type": "way", "id": 1357141982, "nodes": [12560827382, 12560827383, 12560827384, 12560827385, 12560827382], "tags": {"amenity": "shelter", "building": "yes", "shelter_type": "picnic_shelter"}}, {"type": "way", "id": 1421103100, "nodes": [13059264487, 13059264488, 13059264489, 13059264490, 13059264487], "tags": {"amenity": "shelter", "building": "yes", "shelter_type": "picnic_shelter"}}]}