{"version": 0.6, "generator": "Overpass API 0.7.62.8 e802775f", "osm3s": {"timestamp_osm_base": "2026-01-04T12:13:26Z", "copyright": "The data included in this document is from www.openstreetmap.org. The data is made available under ODbL."}, "elements": [{"type": "node", "id": 28298433, "lat": 49.0739769, "lon": 13.1564226, "tags": {"bench": "no", "highway": "bus_stop", "name": "Bretterschachten, Langlaufzentrum", "operator": "RBO Regionalbus Ostbayern GmbH", "shelter": "yes", "tactile_paving": "no"}}, {"type": "node", "id": 28306608, "lat": 48.9955202, "lon": 13.6546463, "tags": {"bus": "yes", "highway": "bus_stop", "name": "Borov\u00e1 Lada, Svinn\u00e1 Lada", "official_name": "Borov\u00e1 Lada,Svinn\u00e1 Lada", "public_transport": "stop_position", "ref:CIS_JR": "2121", "source": "gps"}}, {"type": "node", "id": 29692987, "lat": 49.1768805, "lon": 13.1339263, "tags": {"bus": "yes", "highway": "bus_stop", "name": "Altlohbergh\u00fctte, Hotel Goltz", "public_transport": "stop_position", "ref:IFOPT": "de:09372:55177"}}, {"type": "node", "id": 29693048, "lat": 49.1188878, "lon": 13.1948089, "tags": {"bus": "yes", "fixme": "Nur ungef\u00e4hre Position, bitte ggf. korrigieren!", "highway": "bus_stop", "name": "Bayer. Eisenstein, Tankstelle/Bahnhofstr.", "public_transport": "stop_position", "public_transport:version": "2"}}, {"type": "node", "id": 29693058, "lat": 49.0909136, "lon": 13.198595, "tags": {"bus": "yes", "highway": "bus_stop", "name": "Seebachschleife, Abzw", "public_transport": "stop_position", "ref": "B 11", "ref:IFOPT": "de:09276:4723"}}, {"type": "node", "id": 53313281, "lat": 49.052607, "lon": 13.2377039, "tags": {"alt_name": "Ludwigsthal Pauli", "bench": "no", "bin": "no", "bus": "yes", "highway": "bus_stop", "lit": "yes", "name": "Ludwigsthal Gh. Pauli", "public_transport": "stop_position", "ref:IFOPT": "de:09276:4719:0:2", "shelter": "no", "tactile_paving": "no"}}, {"type": "node", "id": 75072701, "lat": 49.0513664, "lon": 13.5714161, "tags": {"bus": "yes", "highway": "bus_stop", "name": "Horsk\u00e1 Kvilda, u Vyd\u0159\u00edho Mostu", "public_transport": "stop_position", "source": "HELP SERVICE - REMOTE SENSING spol. s r.o. http://www.bnhelp.cz"}}, {"type": "node", "id": 82536970, "lat": 49.0395569, "lon": 13.3038417, "tags": {"bus": "yes", "highway": "bus_stop", "name": "Jungmaierh\u00fctte", "operator": "Lamb\u00fcrger", "public_transport": "stop_position", "uic_ref": "840350"}}, {"type": "node", "id": 205140511, "lat": 48.9524576, "lon": 13.3689015, "tags": {"bus": "yes", "highway": "bus_stop", "name": "Seelensteig", "public_transport": "stop_position"}}, {"type": "node", "id": 248565582, "lat": 49.09923, "lon": 13.1589597, "tags": {"bench": "no", "bin": "no", "highway": "bus_stop", "lit": "no", "name": "Gr. Arbersee", "public_transport": "platform", "ref:IFOPT": "de:09276:5167:0:2", "shelter": "no", "surface": "unpaved", "tactile_paving": "no", "wheelchair": "no"}}, {"type": "node", "id": 276773015, "lat": 49.2231665, "lon": 13.6023283, "tags": {"highway": "bus_stop", "name": "Dra\u017eovice, Podhr\u00e1z\u00ed rozc.0.5", "public_transport": "platform"}}, {"type": "node", "id": 276780521, "lat": 49.2120676, "lon": 13.5989015, "tags": {"bench": "yes", "highway": "bus_stop", "name": "\u017dihobce, Kade\u0161ice", "public_transport": "platform", "shelter": "yes"}}, {"type": "node", "id": 281927062, "lat": 49.0958809, "lon": 13.4863093, "tags": {"bus": "yes", "highway": "bus_stop", "name": "Srn\u00ed, chata Povyd\u0159\u00ed", "public_transport": "stop_position"}}, {"type": "node", "id": 282382215, "lat": 49.0690069, "lon": 13.6199242, "tags": {"bench": "yes", "bin": "no", "bus": "yes", "highway": "bus_stop", "lit": "no", "name": "Stachy, Zadov Sporthotel", "official_name": "Stachy,,Zadov Sporthotel", "public_transport": "platform", "ref:CIS_JR": "32681", "shelter": "yes", "tactile_paving": "no"}}, {"type": "node", "id": 282382943, "lat": 49.054482, "lon": 13.6333464, "tags": {"bench": "no", "bin": "no", "bus": "yes", "highway": "bus_stop", "lit": "no", "name": "Nov\u00e9 Hut\u011b, Pl\u00e1n\u011b", "official_name": "Nov\u00e9 Hut\u011b,,Pl\u00e1n\u011b", "public_transport": "platform", "ref:CIS_JR": "23803", "shelter": "no", "tactile_paving": "no"}}, {"type": "node", "id": 282383514, "lat": 49.038692, "lon": 13.645886, "tags": {"bus": "yes", "highway": "bus_stop", "name": "Nov\u00e9 Hut\u011b", "official_name": "Nov\u00e9 Hut\u011b", "public_transport": "platform", "ref:CIS_JR": "23798"}}, {"type": "node", "id": 282383528, "lat": 49.0342926, "lon": 13.6471119, "tags": {"bus": "yes", "highway": "bus_stop", "name": "Nov\u00e9 Hut\u011b, chata", "official_name": "Nov\u00e9 Hut\u011b,,chata", "public_transport": "platform", "ref:CIS_JR": "23799"}}, {"type": "node", "id": 287040568, "lat": 49.0678118, "lon": 13.6250954, "tags": {"bench": "yes", "bin": "no", "bus": "yes", "highway": "bus_stop", "lit": "yes", "name": "Stachy, Zadov Chur\u00e1\u0148ov hotel", "official_name": "Stachy,,Zadov Chur\u00e1\u0148ov hotel", "public_transport": "platform", "ref:CIS_JR": "32679", "shelter": "yes", "tactile_paving": "no"}}, {"type": "node", "id": 287072459, "lat": 49.0394031, "lon": 13.5784404, "tags": {"bus": "yes", "highway": "bus_stop", "name": "Kvilda, park. u Jezern\u00ed slat\u011b", "official_name": "Kvilda,,park.u Jezern\u00ed slat\u011b", "public_transport": "stop_position", "ref:CIS_JR": "17271", "source": "gps"}}, {"type": "node", "id": 287073880, "lat": 49.0366649, "lon": 13.5785663, "tags": {"bus": "yes", "highway": "bus_stop", "name": "Kvilda, Horsk\u00e1 Kvilda rozc.3.0", "official_name": "Kvilda,,Horsk\u00e1 Kvilda rozc.3.0", "public_transport": "platform", "ref:CIS_JR": "17273"}}, {"type": "node", "id": 287704605, "lat": 49.0864412, "lon": 13.4790867, "tags": {"bus": "yes", "highway": "bus_stop", "name": "Srn\u00ed, hasi\u010dsk\u00e1 zbrojnice", "public_transport": "platform"}}, {"type": "node", "id": 299416848, "lat": 49.1711021, "lon": 13.6024978, "tags": {"bus": "yes", "highway": "bus_stop", "name": "Nezdice na \u0160umav\u011b, Ostru\u017eno, rozc. 2.0", "public_transport": "platform", "ref:CIS_JR": "23182", "shelter": "yes"}}, {"type": "node", "id": 309864001, "lat": 49.1596797, "lon": 13.1585158, "tags": {"bench": "no", "bus": "yes", "highway": "bus_stop", "name": "Scheibensattel", "public_transport": "stop_position", "public_transport:version": "2", "ref:IFOPT": "de:09372:55174", "shelter": "no", "tactile_paving": "no"}}, {"type": "node", "id": 323137241, "lat": 49.170004, "lon": 13.1465083, "tags": {"bench": "no", "bus": "yes", "highway": "bus_stop", "name": "Oberhaiderberg, Abzw.", "public_transport": "stop_position", "public_transport:version": "2", "ref:IFOPT": "de:09372:55176:0:1", "shelter": "no", "tactile_paving": "no"}}, {"type": "node", "id": 339179558, "lat": 48.9783577, "lon": 13.1574863, "tags": {"bus": "yes", "highway": "bus_stop", "name": "Neigerm\u00fchle, Regen", "public_transport": "stop_position", "public_transport:version": "2"}}, {"type": "node", "id": 357860769, "lat": 49.0577616, "lon": 13.5580727, "tags": {"bus": "yes", "highway": "bus_stop", "name": "Horsk\u00e1 Kvilda, u hotelu", "public_transport": "stop_position", "source": "gps"}}, {"type": "node", "id": 440949183, "lat": 49.0029079, "lon": 13.075726, "tags": {"bus": "yes", "highway": "bus_stop", "name": "Sohl", "public_transport": "stop_position", "ref:IFOPT": "de:09276:5228", "source": "Bing"}}, {"type": "node", "id": 467114172, "lat": 49.0688735, "lon": 13.6201105, "tags": {"bench": "no", "bin": "no", "bus": "yes", "highway": "bus_stop", "lit": "no", "name": "Zadov, Sporthotel", "official_name": "Stachy,,Zadov Sporthotel", "public_transport": "platform", "ref:CIS_JR": "32681", "shelter": "no", "tactile_paving": "no"}}, {"type": "node", "id": 467651012, "lat": 49.0679809, "lon": 13.6253275, "tags": {"bench": "yes", "bin": "no", "bus": "yes", "highway": "bus_stop", "lit": "yes", "name": "Zadov, Hotel Chur\u00e1\u0148ov", "official_name": "Stachy,,Zadov Chur\u00e1\u0148ov hotel", "public_transport": "platform", "ref:CIS_JR": "32679", "shelter": "yes", "tactile_paving": "no"}}, {"type": "node", "id": 467687923, "lat": 49.0858698, "lon": 13.6418574, "tags": {"bus": "yes", "highway": "bus_stop", "name": "Kusov", "official_name": "Stachy,K\u016fsov", "public_transport": "platform", "ref:CIS_JR": "32669"}}, {"type": "node", "id": 467690388, "lat": 49.0909107, "lon": 13.6422353, "tags": {"bus": "yes", "highway": "bus_stop", "name": "Domov Duchodcu", "official_name": "Stachy,K\u016fsov,dom.d\u016fch.", "public_transport": "platform", "ref:CIS_JR": "32670", "shelter": "yes"}}, {"type": "node", "id": 467691001, "lat": 49.0787097, "lon": 13.6348944, "tags": {"bus": "yes", "highway": "bus_stop", "name": "U Krizku", "official_name": "Stachy,,Zadov U K\u0159\u00ed\u017eku", "public_transport": "platform", "ref:CIS_JR": "32682"}}, {"type": "node", "id": 467692143, "lat": 49.0738753, "lon": 13.6337259, "tags": {"bus": "yes", "highway": "bus_stop", "name": "Zadov, Pod Javorem", "official_name": "Stachy,,Zadov Pod Javorem", "public_transport": "platform", "ref:CIS_JR": "45244"}}, {"type": "node", "id": 467694389, "lat": 49.0668016, "lon": 13.630462, "tags": {"bus": "yes", "highway": "bus_stop", "name": "Zadov, Horsk\u00e1 Slu\u017eba", "official_name": "Stachy,,Zadov horsk\u00e1 slu\u017eba", "public_transport": "platform", "ref:CIS_JR": "32678"}}, {"type": "node", "id": 469141331, "lat": 49.0627701, "lon": 13.30587, "tags": {"bus": "yes", "highway": "bus_stop", "name": "Scheuereck", "operator": "Lamb\u00fcrger", "public_transport": "stop_position", "ref:IFOPT": "de:09276:11452:0:1", "ref_name": "Scheuereck, Lindberg", "uic_ref": "840091"}}, {"type": "node", "id": 519651738, "lat": 49.173372, "lon": 13.1061946, "tags": {"bus": "yes", "highway": "bus_stop", "name": "Lohberg, Gemeindeverwaltung", "public_transport": "stop_position", "public_transport:version": "2", "ref:IFOPT": "de:09372:1856"}}, {"type": "node", "id": 521250827, "lat": 49.0380543, "lon": 13.2589799, "tags": {"bench": "no", "highway": "bus_stop", "name": "Lehen / Dr. Lippmann", "shelter": "no"}}, {"type": "node", "id": 527040248, "lat": 48.9362015, "lon": 13.2187633, "tags": {"bus": "yes", "highway": "bus_stop", "name": "Ried bei Richnach, Abzw", "network": "RBO", "public_transport": "stop_position"}}, {"type": "node", "id": 527040306, "lat": 48.9368456, "lon": 13.2175849, "tags": {"bus": "yes", "highway": "bus_stop", "name": "Ried bei Richnach, Abzw", "public_transport": "stop_position"}}, {"type": "node", "id": 529409262, "lat": 49.0569761, "lon": 13.2361649, "tags": {"bench": "no", "bus": "yes", "highway": "bus_stop", "name": "Ludwigsthal Kirche", "public_transport": "stop_position", "ref:IFOPT": "de:09276:4720:0:1", "shelter": "no", "tactile_paving": "no"}}, {"type": "node", "id": 534915656, "lat": 49.021725, "lon": 13.2892198, "tags": {"bus": "yes", "highway": "bus_stop", "name": "Pocherm\u00fchle", "operator": "Lamb\u00fcrger", "public_transport": "stop_position", "ref:IFOPT": "de:09276:10911:0:1", "uic_ref": "840534"}}, {"type": "node", "id": 538792436, "lat": 49.0638192, "lon": 13.1371117, "tags": {"bench": "no", "bus": "yes", "covered": "no", "highway": "bus_stop", "name": "Sch\u00f6nebene", "operator": "RBO Regionalbus Ostbayern GmbH", "public_transport": "stop_position", "ref:IFOPT": "de:09276:5170", "shelter": "no", "tactile_paving": "no"}}, {"type": "node", "id": 565374170, "lat": 49.152161, "lon": 13.2259825, "tags": {"bus": "yes", "highway": "bus_stop", "name": "\u017delezn\u00e1 Ruda, \u0160pi\u010d\u00e1k, Jezerka", "public_transport": "platform"}}, {"type": "node", "id": 567329423, "lat": 49.0515794, "lon": 13.3047867, "tags": {"bus": "yes", "highway": "bus_stop", "name": "Spiegelh\u00fctte", "operator": "Lamb\u00fcrger", "public_transport": "stop_position", "uic_ref": "840714"}}, {"type": "node", "id": 603554315, "lat": 49.0440294, "lon": 13.2265656, "tags": {"alt_name": "Theresienthal Rotkot", "bench": "no", "bin": "no", "highway": "bus_stop", "lit": "no", "name": "F\u00e4llenrechen", "passenger_information_display": "yes", "public_transport": "platform", "route_ref": "6191;7710", "shelter": "no", "tactile_paving": "no"}}, {"type": "node", "id": 607001784, "lat": 48.9421834, "lon": 13.2100631, "tags": {"bus": "yes", "highway": "bus_stop", "name": "Rinchnach, Probstberg", "network": "RBO", "public_transport": "stop_position"}}, {"type": "node", "id": 664135298, "lat": 49.3247561, "lon": 13.5962443, "tags": {"bus": "yes", "highway": "bus_stop", "name": "Hrade\u0161ice", "public_transport": "platform", "source": "survey"}}, {"type": "node", "id": 664135304, "lat": 49.3246528, "lon": 13.5962271, "tags": {"bus": "yes", "highway": "bus_stop", "name": "Hrade\u0161ice", "public_transport": "platform", "source": "survey"}}, {"type": "node", "id": 683453118, "lat": 48.9462251, "lon": 13.2027304, "tags": {"bus": "yes", "highway": "bus_stop", "name": "Rinchnach, Rosenau", "public_transport": "stop_position"}}, {"type": "node", "id": 730791193, "lat": 49.324398, "lon": 13.695648, "tags": {"bus": "yes", "highway": "bus_stop", "local_ref": "1", "name": "Hora\u017e\u010fovice, u \u0161koly", "public_transport": "platform", "ref:PID": "U32280Z1"}}, {"type": "node", "id": 736753416, "lat": 49.3120585, "lon": 13.5897605, "tags": {"highway": "bus_stop", "name": "Hrade\u0161ice, \u010cern\u00ed\u010d", "public_transport": "platform", "source": "survey"}}, {"type": "node", "id": 975858038, "lat": 49.1212873, "lon": 13.2078683, "tags": {"bus": "yes", "highway": "bus_stop", "name": "Bayerisch Eisenstein, Bahnhof", "public_transport": "stop_position", "public_transport:version": "2"}}, {"type": "node", "id": 1011590337, "lat": 48.9721875, "lon": 13.6760853, "tags": {"bench": "no", "bin": "no", "bus": "yes", "highway": "bus_stop", "lit": "no", "name": "Zahr\u00e1dky", "official_name": "Borov\u00e1 Lada,,Zahr\u00e1dky", "public_transport": "platform", "ref:CIS_JR": "2123", "shelter": "no", "tactile_paving": "no"}}, {"type": "node", "id": 1150675588, "lat": 49.0700768, "lon": 13.1010706, "tags": {"bus": "yes", "description": "Am Bahnhof", "highway": "bus_stop", "name": "Rathaus/Bahnhof", "public_transport": "stop_position", "shelter": "yes"}}, {"type": "node", "id": 1172634453, "lat": 49.1699316, "lon": 13.0922103, "tags": {"bench": "no", "bus": "yes", "highway": "bus_stop", "kerb": "no", "name": "Lohbergh\u00fctte Abzweig Sommerau", "platform:width": "1", "public_transport": "platform", "ref:IFOPT": "de:09372:1864:0:2", "shelter": "no", "tactile_paving": "no"}}, {"type": "node", "id": 1172634951, "lat": 49.1700924, "lon": 13.0919387, "tags": {"bench": "yes", "bin": "no", "bus": "yes", "highway": "bus_stop", "kerb": "raised", "lit": "yes", "name": "Lohbergh\u00fctte, Tierpark", "platform:width": "1.35", "public_transport": "platform", "public_transport:version": "2", "ref:IFOPT": "de:09372:1864:0:1", "shelter": "yes", "tactile_paving": "no"}}, {"type": "node", "id": 1172655945, "lat": 49.014972, "lon": 13.2365019, "tags": {"bench": "no", "bin": "yes", "bus": "yes", "highway": "bus_stop", "kerb": "raised", "kerb:height": "0.09", "lit": "yes", "name": "Friedhof", "platform:width": "1.8", "public_transport": "platform", "public_transport:version": "2", "ref:IFOPT": "de:09276:10972:0:1", "shelter": "no"}}, {"type": "node", "id": 1176681597, "lat": 49.1796823, "lon": 13.1085595, "tags": {"bus": "yes", "highway": "bus_stop", "name": "Oberlohberg", "public_transport": "stop_position", "public_transport:version": "2", "ref:IFOPT": "de:09372:1857", "shelter": "yes", "tactile_paving": "no"}}, {"type": "node", "id": 1240419070, "lat": 49.0228378, "lon": 13.275766, "tags": {"bus": "yes", "highway": "bus_stop", "name": "Unterzwieselau", "operator": "Lamb\u00fcrger", "public_transport": "stop_position", "uic_ref": "840763"}}, {"type": "node", "id": 1240419149, "lat": 49.0200287, "lon": 13.2776783, "tags": {"bus": "yes", "highway": "bus_stop", "name": "Abzw. Unterzwieselau", "operator": "Lamb\u00fcrger", "public_transport": "stop_position", "ref_name": "Unterzwieselau Abzw, Lindberg", "uic_ref": "840107"}}, {"type": "node", "id": 1240419610, "lat": 49.052969, "lon": 13.2645572, "tags": {"bus": "yes", "highway": "bus_stop", "name": "Lindbergm\u00fchle", "operator": "Lamb\u00fcrger", "public_transport": "stop_position", "ref_name": "Lindbergm\u00fchle, Lindberg", "uic_ref": "840425"}}, {"type": "node", "id": 1245099626, "lat": 48.945077, "lon": 13.3354149, "tags": {"highway": "bus_stop", "shelter_type": "public_transport"}}, {"type": "node", "id": 1268876991, "lat": 49.0969688, "lon": 13.2163169, "tags": {"bus": "yes", "highway": "bus_stop", "name": "Schwellh\u00e4usl", "operator": "Lamb\u00fcrger", "public_transport": "stop_position", "uic_ref": "841300"}}, {"type": "node", "id": 1278188419, "lat": 48.9528375, "lon": 13.4260636, "tags": {"bench": "yes", "bus": "yes", "highway": "bus_stop", "name": "Racheldiensth\u00fctte", "platform:width": "2", "public_transport": "platform", "ref:IFOPT": "de:09272:5337:0:1", "shelter": "yes", "surface": "unpaved", "wheelchair": "no"}}, {"type": "node", "id": 1289871621, "lat": 48.9606792, "lon": 13.374781, "tags": {"bench": "yes", "bin": "no", "designation": "Igelbus-Station", "highway": "bus_stop", "lit": "no", "name": "Gf\u00e4ll", "public_transport": "platform", "shelter": "yes", "tactile_paving": "no"}}, {"type": "node", "id": 1337972105, "lat": 49.0145197, "lon": 13.2725946, "tags": {"bus": "yes", "highway": "bus_stop", "name": "Dampfs\u00e4ge", "operator": "Lamb\u00fcrger", "public_transport": "stop_position", "uic_ref": "840923"}}, {"type": "node", "id": 1372495036, "lat": 48.9617241, "lon": 13.2969892, "tags": {"bench": "no", "bin": "no", "bus": "yes", "highway": "bus_stop", "kerb": "raised", "kerb:height": "0.13", "lit": "no", "name": "Flanitzh\u00fctte Abzw.", "platform:width": "1.4", "public_transport": "platform", "ref:IFOPT": "de:09272:5034:0:2", "shelter": "no", "tactile_paving": "no", "wheelchair": "limited"}}, {"type": "node", "id": 1373482850, "lat": 49.0525679, "lon": 13.2933624, "tags": {"bus": "yes", "highway": "bus_stop", "name": "Scheuereck Abzweig", "operator": "Lamb\u00fcrger", "public_transport": "stop_position", "ref:IFOPT": "de:09276:10915:0:1", "uic_ref": "840663"}}, {"type": "node", "id": 1373894899, "lat": 48.9616292, "lon": 13.2971278, "tags": {"bench": "no", "bin": "no", "bus": "yes", "highway": "bus_stop", "kerb": "raised", "kerb:height": "0.11", "lit": "no", "name": "Flanitzh\u00fctte Abzw.", "platform:width": "1.9", "public_transport": "platform", "ref:IFOPT": "de:09272:5034:0:1", "shelter": "no", "tactile_paving": "no"}}, {"type": "node", "id": 1411192826, "lat": 48.9778036, "lon": 13.1240044, "tags": {"bus": "yes", "highway": "bus_stop", "name": "Kalvarienberg", "operator": "Stadtlinie UV Moser", "public_transport": "stop_position"}}, {"type": "node", "id": 1411229301, "lat": 48.9764575, "lon": 13.1187243, "tags": {"bench": "yes", "bin": "no", "bus": "yes", "highway": "bus_stop", "kerb": "raised", "kerb:height": "0.08", "lit": "yes", "name": "Altenheim", "operator": "Stadtlinie UV Moser", "platform:width": "0.9", "public_transport": "platform", "ref:IFOPT": "de:09276:10283:0:1", "shelter": "no", "tactile_paving": "no"}}, {"type": "node", "id": 1411229308, "lat": 48.9765752, "lon": 13.1286463, "tags": {"bus": "yes", "highway": "bus_stop", "name": "Guntherstra\u00dfe/A.-Stifter-Str.", "operator": "Stadtlinie UV Moser", "public_transport": "stop_position"}}, {"type": "node", "id": 1419381367, "lat": 49.0105827, "lon": 13.1515409, "tags": {"bus": "yes", "highway": "bus_stop", "name": "Langdorf, Schule", "note": "FIXME: Nur ungef\u00e4hre Position, bitte ggf. korrigieren!", "public_transport": "stop_position", "shelter": "no"}}, {"type": "node", "id": 1469910384, "lat": 49.2725023, "lon": 13.0651078, "tags": {"bus": "yes", "highway": "bus_stop", "name": "Chuden\u00edn, Svat\u00e1 Kate\u0159ina", "public_transport": "platform", "shelter": "yes", "source": "survey"}}, {"type": "node", "id": 1469910467, "lat": 49.1403155, "lon": 13.515185, "tags": {"bench": "yes", "bin": "yes", "bus": "yes", "highway": "bus_stop", "name": "Rej\u0161tejn", "public_transport": "platform", "shelter": "yes", "source": "survey", "tactile_paving": "no"}}, {"type": "node", "id": 1472403828, "lat": 49.084849, "lon": 13.6943986, "tags": {"bus": "yes", "highway": "bus_stop", "name": "Zd\u00edkov, Novodvorsk\u00e1", "official_name": "Zd\u00edkov,,Novodvorsk\u00e1", "public_transport": "platform", "ref:CIS_JR": "50344", "source": "survey"}}, {"type": "node", "id": 1482181169, "lat": 49.0199322, "lon": 13.2800849, "tags": {"bus": "yes", "highway": "bus_stop", "name": "Oberzwieselau", "operator": "Lamb\u00fcrger", "public_transport": "stop_position", "uic_ref": "840513"}}, {"type": "node", "id": 1635684788, "lat": 49.0133824, "lon": 13.2299593, "tags": {"bench": "yes", "bin": "yes", "bus": "yes", "highway": "bus_stop", "lit": "yes", "name": "Stadtplatz Sparkasse", "platform:width": "2.1", "public_transport": "platform", "public_transport:version": "2", "ref:IFOPT": "de:09276:10374:0:1", "shelter": "no", "tactile_paving": "no"}}, {"type": "node", "id": 1654527858, "lat": 49.0068486, "lon": 13.6699099, "tags": {"bench": "yes", "bin": "no", "bus": "yes", "check_date:shelter": "2021-12-04", "highway": "bus_stop", "lit": "no", "name": "Borov\u00e1 Lada, Nov\u00fd Sv\u011bt", "official_name": "Borov\u00e1 Lada,Nov\u00fd Sv\u011bt", "public_transport": "platform", "ref:CIS_JR": "2120", "shelter": "yes", "tactile_paving": "no"}}, {"type": "node", "id": 1672774184, "lat": 48.9765934, "lon": 13.1395946, "tags": {"bus": "yes", "highway": "bus_stop", "name": "Krampersbachersteig/Eibenweg", "operator": "VU-Moser", "public_transport": "stop_position"}}, {"type": "node", "id": 1672774538, "lat": 48.9793432, "lon": 13.1410131, "tags": {"bus": "yes", "highway": "bus_stop", "kerb": "raised", "kerb:height": "0.09", "name": "B\u00fcrgerholzstr./Pappelweg", "operator": "VU-Moser", "platform:width": "0.9", "public_transport": "platform", "ref:IFOPT": "de:09276:10253:0:2", "surface": "unpaved", "wheelchair": "no"}}, {"type": "node", "id": 1695208505, "lat": 48.9792184, "lon": 13.076236, "tags": {"bus": "yes", "highway": "bus_stop", "name": "Obermitterdorf", "public_transport": "stop_position"}}, {"type": "node", "id": 1695347752, "lat": 48.967549, "lon": 13.137773, "tags": {"bus": "yes", "fixme": "name", "highway": "bus_stop", "public_transport": "stop_position"}}, {"type": "node", "id": 1695348064, "lat": 48.9685889, "lon": 13.1192029, "tags": {"bus": "yes", "highway": "bus_stop", "name": "Turnhalle Deggendorfer Str.", "operator": "Stadtlinie UV Moser", "public_transport": "stop_position"}}, {"type": "node", "id": 1695348309, "lat": 48.9691859, "lon": 13.1426453, "tags": {"fixme": "name", "highway": "bus_stop", "name": "Schulbus", "public_transport": "stop_position"}}, {"type": "node", "id": 1695348757, "lat": 48.9701958, "lon": 13.1264729, "tags": {"bench": "yes", "bin": "yes", "bus": "yes", "highway": "bus_stop", "lit": "yes", "name": "Regen, Stadtplatz", "platform:width": "3.5", "public_transport": "platform", "ref:IFOPT": "de:09276:5001:0:1", "shelter": "no", "tactile_paving": "no", "wheelchair": "yes"}}, {"type": "node", "id": 1695348989, "lat": 48.9703227, "lon": 13.1017798, "tags": {"bus": "yes", "highway": "bus_stop", "name": "Oleumh\u00fctte", "public_transport": "stop_position"}}, {"type": "node", "id": 1695349633, "lat": 48.9716948, "lon": 13.1350789, "tags": {"alt_name": "Einkaufspark/Kaufhaus Bauer", "bus": "yes", "highway": "bus_stop", "name": "Einkaufspark", "public_transport": "stop_position", "shelter": "no"}}, {"type": "node", "id": 1695349672, "lat": 48.9718576, "lon": 13.1362917, "tags": {"bus": "yes", "highway": "bus_stop", "name": "Regen, Postamt", "public_transport": "stop_position"}}, {"type": "node", "id": 1695350639, "lat": 48.9749463, "lon": 13.131627, "tags": {"bus": "yes", "highway": "bus_stop", "name": "B\u00fcrgerholzstr./Sparkasse", "note": "Stadtbus", "public_transport": "stop_position"}}, {"type": "node", "id": 1695350704, "lat": 48.9752726, "lon": 13.0952471, "tags": {"bus": "yes", "fixme": "name", "highway": "bus_stop", "name": "Metten", "public_transport": "stop_position"}}, {"type": "node", "id": 1695352041, "lat": 48.9805675, "lon": 13.1383401, "tags": {"bus": "yes", "highway": "bus_stop", "name": "Lindenweg/B\u00fcrgerholzring", "operator": "VU-Moser", "public_transport": "stop_position"}}, {"type": "node", "id": 1695352198, "lat": 48.982594, "lon": 13.1340841, "tags": {"bus": "yes", "highway": "bus_stop", "name": "Abzw. Hofbauerstra\u00dfe, Regen", "public_transport": "stop_position"}}, {"type": "node", "id": 1695352258, "lat": 48.9835579, "lon": 13.136612, "tags": {"bus": "yes", "highway": "bus_stop", "name": "Lindenweg", "operator": "VU-Moser", "public_transport": "stop_position"}}, {"type": "node", "id": 1695352350, "lat": 48.9837931, "lon": 13.1347337, "tags": {"bus": "yes", "highway": "bus_stop", "name": "Regen, Lindenweg Anw S. Schiller", "operator": "VU-Moser", "public_transport": "stop_position"}}, {"type": "node", "id": 1695355129, "lat": 49.0095116, "lon": 13.1434872, "tags": {"bus": "yes", "highway": "bus_stop", "lit": "yes", "name": "Langdorf, Siedlung", "public_transport": "platform", "ref:IFOPT": "de:09276:5023:0:2", "surface": "unpaved", "wheelchair": "no"}}, {"type": "node", "id": 1776053729, "lat": 48.9902719, "lon": 13.660239, "tags": {"bus": "yes", "highway": "bus_stop", "name": "Borov\u00e1 Lada", "official_name": "Borov\u00e1 Lada", "public_transport": "platform", "ref:CIS_JR": "2117", "shelter": "yes"}}, {"type": "node", "id": 1776053741, "lat": 48.9901145, "lon": 13.6596782, "tags": {"bus": "yes", "highway": "bus_stop", "name": "Borov\u00e1 Lada", "official_name": "Borov\u00e1 Lada", "public_transport": "stop_position", "ref:CIS_JR": "2117"}}, {"type": "node", "id": 1804601972, "lat": 48.9933584, "lon": 13.6665735, "tags": {"bus": "yes", "highway": "bus_stop", "name": "Borov\u00e1 Lada, \u010cesk\u00e9 chalupy", "official_name": "Borov\u00e1 Lada,,\u010cesk\u00e9 Chalupy", "public_transport": "platform", "ref:CIS_JR": "2118"}}, {"type": "node", "id": 1804602007, "lat": 49.0024973, "lon": 13.6720305, "tags": {"bench": "no", "bin": "no", "highway": "bus_stop", "lit": "no", "name": "Borov\u00e1 Lada, Hrabick\u00e1 Lada", "shelter": "no", "tactile_paving": "no"}}, {"type": "node", "id": 1805603400, "lat": 48.9542904, "lon": 13.1312316, "tags": {"fixme": "name", "highway": "bus_stop", "public_transport": "platform"}}, {"type": "node", "id": 1805603401, "lat": 48.956695, "lon": 13.1218027, "tags": {"bench": "yes", "bus": "yes", "highway": "bus_stop", "kerb": "no", "name": "Kattersdorf", "platform:width": "5.8", "public_transport": "platform", "ref:IFOPT": "de:09276:10351:0:2", "shelter": "yes"}}, {"type": "node", "id": 1863489914, "lat": 48.9414376, "lon": 13.5748714, "tags": {"bus": "yes", "highway": "bus_stop", "name": "Finsterau Ski-Sportstadion", "platform:width": "0.00", "public_transport": "platform", "ref:IFOPT": "de:09272:8146:0:1", "wheelchair": "no"}}, {"type": "node", "id": 1863489924, "lat": 48.942218, "lon": 13.571503, "tags": {"bench": "yes", "bin": "no", "bus": "yes", "contact:website": "https://www.bayerwald-ticket.com/wp-content/uploads/2023/04/603-1.pdf", "departures_board": "timetable", "highway": "bus_stop", "lit": "no", "name": "Wistlberg", "network": "Igelbus", "public_transport": "platform", "ref": "Wistlberg", "ref:IFOPT": "de:09272:1774:0:2", "shelter": "no", "surface": "asphalt", "tactile_paving": "no", "wheelchair": "no"}}, {"type": "node", "id": 1863504407, "lat": 48.9650824, "lon": 13.5881831, "tags": {"bench": "yes", "bin": "no", "bus": "yes", "highway": "bus_stop", "lit": "no", "name": "Teufelsh\u00e4ng Grenze", "old_name": "Buchwald, Landesgrenze", "public_transport": "platform", "ref:IFOPT": "de:09272:5876:0:1", "shelter": "yes", "surface": "unpaved", "tactile_paving": "no", "wheelchair": "no"}}, {"type": "node", "id": 1996154193, "lat": 49.0938531, "lon": 13.2466939, "tags": {"bus": "yes", "highway": "bus_stop", "name": "Gasthaus Zwieseler Waldhaus", "operator": "Lamb\u00fcrger", "public_transport": "stop_position", "ref_name": "Zwieslerwaldhaus Gasthaus, Lindberg", "uic_ref": "540100"}}, {"type": "node", "id": 2094636615, "lat": 49.0647102, "lon": 13.1003656, "tags": {"bus": "yes", "designation": "Ski bus", "highway": "bus_stop", "kerb": "raised", "kerb:height": "0.08", "lit": "yes", "name": "Bodenmais Ev. Kirche Am Lehen", "platform:width": "1.6", "public_transport": "platform", "ref:IFOPT": "de:09276:9556:0:1", "tactile_paving": "no"}}, {"type": "node", "id": 2094636616, "lat": 49.0654597, "lon": 13.1025569, "tags": {"bench": "no", "bin": "no", "bus": "yes", "designation": "Ski bus", "highway": "bus_stop", "kerb": "raised", "kerb:height": "0.05", "lit": "no", "name": "Bodenmais H\u00fcttenparkplatz", "platform:width": "20.00", "public_transport": "platform", "ref:IFOPT": "de:09276:5054:0:1", "shelter": "no", "tactile_paving": "no", "wheelchair": "limited"}}, {"type": "node", "id": 2133051621, "lat": 49.2101105, "lon": 13.198282, "tags": {"bench": "yes", "bin": "yes", "highway": "bus_stop", "lit": "yes", "name": "\u017delezn\u00e1 Ruda, Hojsova Str\u00e1\u017e", "shelter": "yes", "source": "survey", "tactile_paving": "no"}}, {"type": "node", "id": 2133051622, "lat": 49.2112971, "lon": 13.1972947, "tags": {"bench": "no", "bin": "yes", "highway": "bus_stop", "lit": "yes", "name": "\u017delezn\u00e1 Ruda, Hojsova Str\u00e1\u017e", "shelter": "no", "source": "survey", "tactile_paving": "yes"}}, {"type": "node", "id": 2146256141, "lat": 48.9952681, "lon": 13.0762076, "tags": {"bus": "yes", "highway": "bus_stop", "name": "Aden, Abzw.", "public_transport": "stop_position"}}, {"type": "node", "id": 2152978633, "lat": 48.9486032, "lon": 13.2007886, "tags": {"bus": "yes", "highway": "bus_stop", "public_transport": "stop_position"}}, {"type": "node", "id": 2198032920, "lat": 49.0584114, "lon": 13.2355873, "tags": {"bench": "yes", "bin": "no", "bus": "yes", "highway": "bus_stop", "kerb": "no", "lit": "yes", "name": "Ludwigsthal Haus zur Wildnis", "platform:width": "0.9", "public_transport": "platform", "ref:IFOPT": "de:09276:10812:0:2", "shelter": "yes", "source": "bing", "tactile_paving": "no"}}, {"type": "node", "id": 2198032921, "lat": 49.0593222, "lon": 13.2355866, "tags": {"bench": "yes", "bin": "no", "bus": "yes", "highway": "bus_stop", "kerb": "raised", "kerb:height": "0.10", "lit": "no", "name": "Ludwigsthal Haus zur Wildnis", "platform:width": "1.2", "public_transport": "platform", "public_transport:version": "2", "shelter": "yes", "tactile_paving": "no"}}, {"type": "node", "id": 2199396047, "lat": 49.0208467, "lon": 13.2271903, "tags": {"bus": "yes", "highway": "bus_stop", "name": "Zwiesel, Bahnhof", "network": "RBO", "public_transport": "stop_position", "ref": "3", "uic_ref": "841288"}}, {"type": "node", "id": 2199396049, "lat": 49.0207631, "lon": 13.2271294, "tags": {"bus": "yes", "highway": "bus_stop", "name": "Zwiesel, Bahnhof", "network": "RBO", "public_transport": "stop_position", "ref": "2"}}, {"type": "node", "id": 2199396055, "lat": 49.0207809, "lon": 13.227045, "tags": {"bench": "yes", "bin": "yes", "bus": "yes", "highway": "bus_stop", "lit": "yes", "name": "Zwiesel, Bahnhof", "passenger_information_display": "yes", "platform:width": "1.57", "public_transport": "platform", "ref": "2", "ref:IFOPT": "de:09276:5025:2:1", "route_ref": "6197", "shelter": "no", "source": "survey", "tactile_paving": "no"}}, {"type": "node", "id": 2199396056, "lat": 49.012281, "lon": 13.2342628, "tags": {"bench": "yes", "bin": "no", "bus": "yes", "highway": "bus_stop", "kerb": "raised", "kerb:height": "0.17", "lit": "yes", "name": "Zwiesel, Busbahnhof", "platform:width": "1.50", "public_transport": "platform", "ref:IFOPT": "de:09276:5026:0:2", "shelter": "yes", "tactile_paving": "no"}}, {"type": "node", "id": 2201661113, "lat": 49.1196119, "lon": 13.2030501, "tags": {"bench": "yes", "bin": "no", "bus": "yes", "highway": "bus_stop", "kerb": "no", "lit": "yes", "name": "Bayerisch Eisenstein, Local-Bahn-Museum", "platform:width": "2", "public_transport": "platform", "public_transport:version": "2", "ref:IFOPT": "de:09276:5133:0:1", "shelter": "yes", "tactile_paving": "no"}}, {"type": "node", "id": 2206272573, "lat": 49.049342, "lon": 13.2017947, "tags": {"highway": "bus_stop", "name": "Parkplatz Kaisersteigloipe", "public_transport": "platform", "public_transport:version": "2"}}, {"type": "node", "id": 2219213506, "lat": 49.0770082, "lon": 13.6608743, "tags": {"bus": "yes", "highway": "bus_stop", "name": "Nov\u00fd Dv\u016fr", "official_name": "Zd\u00edkov,Nov\u00fd Dv\u016fr", "public_transport": "platform", "ref:CIS_JR": "41764"}}, {"type": "node", "id": 2270785615, "lat": 49.0043944, "lon": 13.2178965, "tags": {"bus": "yes", "highway": "bus_stop", "name": "Buschweg", "public_transport": "stop_position"}}, {"type": "node", "id": 2345189318, "lat": 48.9654129, "lon": 13.5899421, "tags": {"bench": "yes", "bin": "no", "bus": "yes", "highway": "bus_stop", "lit": "no", "name": "Kvilda, Bu\u010dina st.hr.", "public_transport": "platform", "ref:CIS_JR": "59469", "shelter": "no", "tactile_paving": "no"}}, {"type": "node", "id": 2362258255, "lat": 49.1254948, "lon": 13.195616, "tags": {"bus": "yes", "highway": "bus_stop", "kerb": "lowered", "kerb:height": "0.05", "lit": "yes", "name": "H\u00e4usl, Bayerisch Eisenstein", "operator": "RBO", "platform:width": "1.1", "public_transport": "platform", "ref:IFOPT": "de:09276:5163:0:1", "shelter": "no", "tactile_paving": "no", "wheelchair": "limited"}}, {"type": "node", "id": 2362258256, "lat": 49.119239, "lon": 13.1993764, "tags": {"bus": "yes", "highway": "bus_stop", "name": "Bayerisch Eisenstein, Schule", "public_transport": "stop_position", "ref:IFOPT": "de:09276:4725"}}, {"type": "node", "id": 2364635420, "lat": 49.0684424, "lon": 13.225868, "tags": {"bus": "yes", "highway": "bus_stop", "name": "Zwieslerwaldhaus, Abzw", "public_transport": "stop_position"}}, {"type": "node", "id": 2373600866, "lat": 49.1708076, "lon": 13.5165923, "tags": {"bench": "no", "bin": "yes", "bus": "yes", "highway": "bus_stop", "lit": "yes", "name": "Dlouh\u00e1 Ves, Ann\u00edn, rozcest\u00ed", "official_name": "Dlouh\u00e1 Ves, Ann\u00edn, rozc. 0.5", "public_transport": "platform", "ref:CIS_JR": "5916", "shelter": "no", "tactile_paving": "no"}}, {"type": "node", "id": 2409280842, "lat": 49.1325307, "lon": 13.1226348, "tags": {"highway": "bus_stop", "name": "Abzweigung kleiner Arbersee"}}, {"type": "node", "id": 2421232625, "lat": 48.9989444, "lon": 13.233469, "tags": {"bench": "no", "bin": "no", "bus": "yes", "highway": "bus_stop", "lit": "yes", "name": "Glasberg Abzweigung", "operator": "RBO", "public_transport": "platform", "public_transport:version": "2", "ref": "7144", "ref:IFOPT": "de:09276:10387:0:1", "shelter": "no", "surface": "unpaved", "tactile_paving": "no", "wheelchair": "no"}}, {"type": "node", "id": 2421233898, "lat": 49.0002004, "lon": 13.2413416, "tags": {"bus": "yes", "disused:highway": "bus_stop", "highway": "bus_stop", "name": "Schafhauser", "operator": "RBO", "public_transport": "platform", "ref:IFOPT": "de:09276:10388:0:1", "route_ref": "7144", "surface": "unpaved", "wheelchair": "no"}}, {"type": "node", "id": 2424147468, "lat": 49.0009632, "lon": 13.2163349, "tags": {"bench": "no", "bin": "no", "bus": "yes", "highway": "bus_stop", "lit": "yes", "name": "Naturparkhaus", "operator": "RBO", "public_transport": "platform", "ref": "City-Bus Zwiesel", "shelter": "no", "tactile_paving": "no"}}, {"type": "node", "id": 2426031464, "lat": 49.0043081, "lon": 13.2212705, "tags": {"bench": "no", "bin": "no", "bus": "yes", "highway": "bus_stop", "kerb": "raised", "kerb:height": "0.15", "lit": "yes", "name": "Zwieselberg, Siedlung", "platform:width": "0.6", "public_transport": "platform", "public_transport:version": "2", "ref:IFOPT": "de:09276:4748:0:2", "shelter": "no", "tactile_paving": "no", "wheelchair": "no"}}, {"type": "node", "id": 2426031465, "lat": 49.0042768, "lon": 13.2214209, "tags": {"bench": "no", "bin": "no", "bus": "yes", "highway": "bus_stop", "lit": "yes", "name": "Zwieselberg, Siedlung", "platform:width": "1.80", "public_transport": "platform", "public_transport:version": "2", "ref:IFOPT": "de:09276:4748:0:1", "shelter": "no", "tactile_paving": "no"}}, {"type": "node", "id": 2426729880, "lat": 48.9944751, "lon": 13.2207467, "tags": {"bench": "yes", "bin": "no", "bus": "yes", "highway": "bus_stop", "lit": "no", "name": "B\u00e4rnzell", "operator": "Stadtlinie Zwiesel", "platform:width": "5", "public_transport": "platform", "public_transport:version": "2", "ref:IFOPT": "de:09276:10386:0:1", "shelter": "yes", "tactile_paving": "no"}}, {"type": "node", "id": 2429132304, "lat": 48.9863047, "lon": 13.1970715, "tags": {"bench": "no", "bin": "no", "highway": "bus_stop", "lit": "no", "name": "Schulbus", "shelter": "no"}}, {"type": "node", "id": 2435072256, "lat": 48.9870853, "lon": 13.1776885, "tags": {"bench": "yes", "bin": "no", "bus": "yes", "highway": "bus_stop", "kerb": "raised", "kerb:height": "0.12", "lit": "no", "name": "Schweinh\u00fctt, Gh. M\u00fchl", "note": "7710", "platform:width": "1.35", "public_transport": "platform", "public_transport:version": "2", "ref": "7710", "ref:IFOPT": "de:09276:4743:0:2", "shelter": "yes", "tactile_paving": "no", "wheelchair": "no"}}, {"type": "node", "id": 2435835659, "lat": 48.9898858, "lon": 13.2001681, "tags": {"bench": "no", "bin": "no", "bus": "yes", "highway": "bus_stop", "kerb": "raised", "kerb:height": "0.10", "lit": "no", "name": "Dreieck, Rinchnacherstra\u00dfe", "network": "RBO", "note": "Linie 6109", "platform:width": "1.3", "public_transport": "platform", "ref": "6109", "ref:IFOPT": "de:09276:5162:0:1", "shelter": "no", "tactile_paving": "no", "wheelchair": "no"}}, {"type": "node", "id": 2435835660, "lat": 48.9908169, "lon": 13.2005721, "tags": {"bench": "yes", "bin": "no", "check_date:shelter": "2022-11-26", "highway": "bus_stop", "lit": "no", "name": "Dreieck", "public_transport": "platform", "shelter": "yes", "tactile_paving": "no"}}, {"type": "node", "id": 2701663464, "lat": 49.1707385, "lon": 13.5167916, "tags": {"bench": "no", "bin": "yes", "bus": "yes", "highway": "bus_stop", "lit": "yes", "name": "Dlouh\u00e1 Ves, Ann\u00edn, rozcest\u00ed", "official_name": "Dlouh\u00e1 Ves, Ann\u00edn, rozc. 0.5", "public_transport": "platform", "ref:CIS_JR": "5916", "shelter": "yes", "tactile_paving": "no"}}, {"type": "node", "id": 2701668389, "lat": 49.1765277, "lon": 13.5183787, "tags": {"bus": "yes", "highway": "bus_stop", "name": "Dlouh\u00e1 Ves, Bohda\u0161ice, rozcest\u00ed", "official_name": "Dlouh\u00e1 Ves, Bohda\u0161ice, rozc. 0.5", "public_transport": "platform", "ref:CIS_JR": "5917", "shelter": "no"}}, {"type": "node", "id": 2712151110, "lat": 49.2462253, "lon": 13.5421501, "tags": {"bench": "yes", "bus": "yes", "highway": "bus_stop", "local_ref": "9", "name": "Su\u0161ice, \u017eel. st.", "network": "IDPK", "public_transport": "platform", "ref:CIS_JR": "34082", "shelter": "yes"}}, {"type": "node", "id": 2733560137, "lat": 49.0355411, "lon": 13.2545915, "tags": {"bus": "yes", "highway": "bus_stop", "name": "Lindberg Gemeinde", "operator": "Lamb\u00fcrger", "public_transport": "stop_position", "ref_name": "Lindberg Ortsmitte", "uic_ref": "840424"}}, {"type": "node", "id": 2837696149, "lat": 49.1702637, "lon": 13.4546591, "tags": {"bench": "yes", "bus": "yes", "highway": "bus_stop", "name": "Hartmanice", "public_transport": "platform", "shelter": "yes", "tactile_paving": "no"}}, {"type": "node", "id": 2837696150, "lat": 49.1705133, "lon": 13.4546308, "tags": {"bench": "yes", "bin": "yes", "bus": "yes", "highway": "bus_stop", "lit": "yes", "name": "Hartmanice", "panoramax": "31d7db38-4bf1-46b1-a84b-d794c1c9b2f7", "public_transport": "platform", "shelter": "yes", "tactile_paving": "yes", "traffic_sign": "SK:V11a", "wheelchair": "yes"}}, {"type": "node", "id": 3022405124, "lat": 49.003625, "lon": 13.2704324, "tags": {"bench": "no", "bin": "no", "bus": "yes", "highway": "bus_stop", "lit": "yes", "name": "Schulbus", "note": "Schulbus", "public_transport": "platform", "shelter": "yes", "tactile_paving": "no"}}, {"type": "node", "id": 3042303081, "lat": 49.0124637, "lon": 13.2267912, "tags": {"bench": "yes", "bin": "yes", "bus": "yes", "covered": "yes", "departures_board": "timetable", "highway": "bus_stop", "kerb": "no", "lit": "yes", "name": "Zwiesel, Anger", "platform:width": "2.4", "public_transport": "platform", "ref:IFOPT": "de:09276:4702:0:2", "shelter": "yes", "tactile_paving": "no"}}, {"type": "node", "id": 3048134556, "lat": 49.0178456, "lon": 13.2418358, "tags": {"bench": "no", "bin": "no", "bus": "yes", "highway": "bus_stop", "kerb": "raised", "kerb:height": "0.14", "lit": "yes", "name": "Haarholz/Seniorenheim", "platform:width": "1.9", "public_transport": "platform", "public_transport:version": "2", "ref:IFOPT": "de:09276:10379:0:1", "shelter": "no", "tactile_paving": "no"}}, {"type": "node", "id": 3204047400, "lat": 49.1144076, "lon": 13.506295, "tags": {"bus": "yes", "highway": "bus_stop", "name": "Svoj\u0161e", "official_name": "Rej\u0161tejn, Svoj\u0161e", "public_transport": "platform", "ref:CIS_JR": "29737", "shelter": "yes"}}, {"type": "node", "id": 3249099661, "lat": 49.1313609, "lon": 13.5000408, "tags": {"bench": "no", "bin": "yes", "bus": "yes", "highway": "bus_stop", "lit": "no", "name": "Svoj\u0161e, rozcest\u00ed", "official_name": "Rej\u0161tejn, Svoj\u0161e, rozc. 3.0", "public_transport": "platform", "ref:CIS_JR": "29738", "shelter": "no", "source": "survey", "tactile_paving": "no"}}, {"type": "node", "id": 3264138710, "lat": 49.0712363, "lon": 13.2297286, "tags": {"bus": "yes", "highway": "bus_stop", "name": "Deffernik", "public_transport": "stop_position", "ref:IFOPT": "de:09276:10299:0:2"}}, {"type": "node", "id": 3302354762, "lat": 49.1341591, "lon": 13.1440779, "tags": {"alt_name": "Schibus-Haltestelle", "bench": "no", "bin": "no", "bus": "yes", "highway": "bus_stop", "kerb": "raised", "kerb:height": "0.06", "lit": "no", "name": "Brennes Sporthotel", "platform:width": "1.00", "public_transport": "platform", "ref:IFOPT": "de:09276:5165:0:2", "shelter": "no", "tactile_paving": "no", "wheelchair": "limited"}}, {"type": "node", "id": 3304234335, "lat": 49.1340842, "lon": 13.1444552, "tags": {"bench": "no", "bin": "no", "bus": "yes", "highway": "bus_stop", "kerb": "raised", "kerb:height": "0.12", "lit": "no", "name": "Brennes Sporthotel", "public_transport": "platform", "public_transport:version": "2", "ref:IFOPT": "de:09276:5165:0:1", "shelter": "no", "tactile_paving": "no", "wheelchair": "no"}}, {"type": "node", "id": 3375341578, "lat": 49.0676078, "lon": 13.1048926, "tags": {"bench": "no", "bin": "no", "bus": "yes", "covered": "no", "highway": "bus_stop", "lit": "yes", "name": "Bodenmais, Gh. Arbersee", "operator": "RBO Regionalbus Ostbayern GmbH", "public_transport": "stop_position", "ref:IFOPT": "de:09276:935:0:1", "shelter": "no", "tactile_paving": "no"}}, {"type": "node", "id": 3376429171, "lat": 49.0615236, "lon": 13.1180171, "tags": {"bench": "no", "bus": "yes", "covered": "no", "highway": "bus_stop", "name": "Silberberg Sesselbahn, Talstation", "operator": "RBO Regionalbus Ostbayern GmbH", "public_transport": "stop_position", "ref:IFOPT": "de:09276:5173:0:1", "shelter": "no", "tactile_paving": "no"}}, {"type": "node", "id": 3425041552, "lat": 48.9872049, "lon": 13.1768143, "tags": {"bus": "yes", "highway": "bus_stop", "name": "Schweinh\u00fctt, Gh. M\u00fchl", "network": "RBO", "public_transport": "stop_position"}}, {"type": "node", "id": 3459661970, "lat": 49.0987969, "lon": 13.1593522, "tags": {"bench": "no", "bin": "no", "bus": "yes", "highway": "bus_stop", "kerb": "raised", "kerb:height": "0.10", "lit": "no", "name": "Gr.Arbersee", "platform:width": "1.2", "public_transport": "platform", "public_transport:version": "2", "ref:IFOPT": "de:09276:5167:0:1", "shelter": "no", "tactile_paving": "no", "wheelchair": "yes"}}, {"type": "node", "id": 3473781258, "lat": 48.9684791, "lon": 13.1283783, "tags": {"bus": "yes", "highway": "bus_stop", "name": "Regen Ruselstra\u00dfe", "public_transport": "stop_position"}}, {"type": "node", "id": 3632138536, "lat": 48.987174, "lon": 13.1766695, "tags": {"bench": "yes", "bin": "no", "bus": "yes", "highway": "bus_stop", "kerb": "raised", "kerb:height": "0.15", "lit": "no", "name": "Schweinh\u00fctt, Gh. M\u00fchl", "platform:width": "1.2", "public_transport": "platform", "public_transport:version": "2", "ref:IFOPT": "de:09276:4743:0:1", "shelter": "yes", "tactile_paving": "no"}}, {"type": "node", "id": 3632160740, "lat": 48.963553, "lon": 13.2048942, "tags": {"bench": "no", "bin": "no", "bus": "yes", "highway": "bus_stop", "kerb": "raised", "kerb:height": "0.05", "lit": "no", "name": "Unterasberg, Abzw.", "platform:width": "1.1", "public_transport": "platform", "public_transport:version": "2", "ref:IFOPT": "de:09276:4710:0:2", "shelter": "no", "tactile_paving": "no"}}, {"type": "node", "id": 3635863840, "lat": 49.0136189, "lon": 13.2265167, "tags": {"bus": "yes", "highway": "bus_stop", "name": "Zwiesel, Schlachthof", "note": "Position passt f\u00fcr beide Fahrtrichtungen", "public_transport": "stop_position", "shelter": "no"}}, {"type": "node", "id": 3654717803, "lat": 49.01238, "lon": 13.2266919, "tags": {"bus": "yes", "highway": "bus_stop", "name": "Zwiesel, Anger", "public_transport": "stop_position", "ref:IFOPT": "de:09276:4702"}}, {"type": "node", "id": 3659156238, "lat": 49.3060326, "lon": 13.662596, "tags": {"bus": "yes", "highway": "bus_stop", "name": "Mal\u00fd Bor, Mal\u00e9 Hyd\u010dice, rozc.1.0", "public_transport": "platform", "ref:CIS_JR": "20334", "source": "survey"}}, {"type": "node", "id": 3665163914, "lat": 49.1254047, "lon": 13.1952645, "tags": {"bus": "yes", "highway": "bus_stop", "kerb": "lowered", "kerb:height": "0.05", "lit": "yes", "name": "H\u00e4usl, Bayerisch Eisenstein", "platform:width": "1.1", "public_transport": "platform", "ref:IFOPT": "de:09276:5163:0:2", "shelter": "no", "tactile_paving": "no", "wheelchair": "limited"}}, {"type": "node", "id": 3667690355, "lat": 49.1769416, "lon": 13.1338956, "tags": {"bus": "yes", "highway": "bus_stop", "name": "Altlohbergh\u00fctte, Hotel Goltz", "platform:width": "1.30", "public_transport": "platform", "public_transport:version": "2", "ref:IFOPT": "de:09372:55177:0:1", "shelter": "no", "tactile_paving": "no"}}, {"type": "node", "id": 3667690357, "lat": 49.1213841, "lon": 13.1420324, "tags": {"bench": "yes", "bin": "yes", "bus": "yes", "highway": "bus_stop", "lit": "yes", "name": "Arber Bergbahn, Talstation", "platform:width": "20.00", "public_transport": "platform", "public_transport:version": "2", "ref:IFOPT": "de:09276:5166:0:1", "shelter": "no", "tactile_paving": "no"}}, {"type": "node", "id": 3667690362, "lat": 49.1704079, "lon": 13.0991618, "tags": {"bus": "yes", "highway": "bus_stop", "name": "Lohberg, Gasthaus Wastl", "public_transport": "stop_position", "public_transport:version": "2"}}, {"type": "node", "id": 3667690363, "lat": 49.17931, "lon": 13.0730083, "tags": {"alt_name": "Schrenkenthal", "bus": "yes", "highway": "bus_stop", "name": "Neuschrenkenthal", "public_transport": "stop_position", "public_transport:version": "2", "ref:IFOPT": "de:09372:1852"}}, {"type": "node", "id": 3667690630, "lat": 48.9698277, "lon": 13.1265685, "tags": {"bench": "yes", "bin": "no", "bus": "yes", "highway": "bus_stop", "lit": "yes", "name": "Regen, Stadtplatz", "platform:width": "4", "public_transport": "platform", "ref:IFOPT": "de:09276:5001:0:2", "shelter": "no", "tactile_paving": "no", "toilets:wheelchair": "yes", "wheelchair": "yes"}}, {"type": "node", "id": 3667690631, "lat": 49.1590024, "lon": 13.1588817, "tags": {"bus": "yes", "highway": "bus_stop", "name": "Scheibensattel", "public_transport": "platform", "public_transport:version": "2"}}, {"type": "node", "id": 3667690632, "lat": 49.1769421, "lon": 13.0787717, "tags": {"bus": "yes", "highway": "bus_stop", "name": "Schwarzenbach b. Lohberg, Steg", "public_transport": "stop_position", "public_transport:version": "2"}}, {"type": "node", "id": 3673818509, "lat": 49.0308206, "lon": 13.2325011, "tags": {"bus": "yes", "highway": "bus_stop", "name": "Zwiesel, Glaspark/Glasmuseum", "operator": "Lamb\u00fcrger", "public_transport": "stop_position", "uic_ref": "840840"}}, {"type": "node", "id": 3673866877, "lat": 49.0317169, "lon": 13.3244835, "tags": {"bus": "yes", "highway": "bus_stop", "name": "Buchenau", "operator": "Lamb\u00fcrger", "public_transport": "stop_position", "public_transport:version": "2", "uic_ref": "840118"}}, {"type": "node", "id": 3673866897, "lat": 49.0534035, "lon": 13.2868285, "tags": {"bus": "yes", "fixme": "Falsche Position, muss nach NO", "highway": "bus_stop", "name": "Weisse Br\u00fccke", "operator": "Lamb\u00fcrger", "public_transport": "stop_position", "ref:IFOPT": "de:09276:10916:0:1", "uic_ref": "840090"}}, {"type": "node", "id": 3676192433, "lat": 49.0394325, "lon": 13.2621938, "tags": {"alt_name": "Lehen/Dr. Lippmann", "bench": "no", "bin": "no", "bus": "yes", "highway": "bus_stop", "lit": "yes", "name": "Lehen", "operator": "Lamb\u00fcrger", "public_transport": "platform", "ref:IFOPT": "de:09276:10294:0:1", "ref_name": "Dr. Lippmann, Lindberg", "shelter": "no", "surface": "unpaved", "uic_ref": "840420", "wheelchair": "no"}}, {"type": "node", "id": 3676218662, "lat": 49.0679302, "lon": 13.2290275, "tags": {"bus": "yes", "highway": "bus_stop", "name": "Zwieslerwaldhaus, Abzw", "public_transport": "stop_position"}}, {"type": "node", "id": 3676239703, "lat": 49.08699, "lon": 13.2449781, "tags": {"bus": "yes", "highway": "bus_stop", "name": "Abzw. Wildniscamp", "operator": "Lamb\u00fcrger", "public_transport": "stop_position", "ref:IFOPT": "de:09276:10300:0:1", "ref_name": "Wildnis Camp, Lindberg-Zwieslerwaldhaus", "uic_ref": "840026"}}, {"type": "node", "id": 3676256102, "lat": 49.0965452, "lon": 13.2375699, "tags": {"bus": "yes", "fixme": "Position nach Westen", "highway": "bus_stop", "name": "Brechh\u00e4usl", "public_transport": "stop_position", "ref:IFOPT": "de:09276:10979:0:1"}}, {"type": "node", "id": 3676759257, "lat": 49.0375589, "lon": 13.199259, "tags": {"bus": "yes", "highway": "bus_stop", "name": "Auackerweg", "public_transport": "platform", "public_transport:version": "2", "ref:IFOPT": "de:09276:10358:0:1", "surface": "unpaved", "wheelchair": "no"}}, {"type": "node", "id": 3676759259, "lat": 49.0358613, "lon": 13.209982, "tags": {"bench": "yes", "bus": "yes", "highway": "bus_stop", "name": "Br\u00fccklh\u00f6he", "platform:width": "1.05", "public_transport": "platform", "public_transport:version": "2", "ref:IFOPT": "de:09276:10357:0:1", "shelter": "yes"}}, {"type": "node", "id": 3676759260, "lat": 49.0399551, "lon": 13.20263, "tags": {"bench": "no", "bin": "no", "highway": "bus_stop", "lit": "yes", "name": "Dorfplatz Rabenstein", "note": "FIXME: Ungef\u00e4hre Position, Korrektur notwendig", "public_transport": "platform", "public_transport:version": "2", "shelter": "no", "tactile_paving": "no"}}, {"type": "node", "id": 3676759261, "lat": 49.0397897, "lon": 13.1996317, "tags": {"bench": "yes", "bus": "yes", "highway": "bus_stop", "lit": "yes", "name": "Dr.-G.-Sch\u00e4fer-Stra\u00dfe", "public_transport": "platform", "public_transport:version": "2", "ref:IFOPT": "de:09276:10359:0:2", "surface": "unpaved", "wheelchair": "no"}}, {"type": "node", "id": 3676759262, "lat": 49.024063, "lon": 13.2212507, "tags": {"alt_name": "Ferienpark Arber", "bench": "yes", "bin": "no", "bus": "yes", "highway": "bus_stop", "kerb": "raised", "kerb:height": "0.08", "lit": "yes", "name": "Zwiesel, Ferienzentrum", "platform:width": "2.50", "public_transport": "platform", "public_transport:version": "2", "ref:IFOPT": "de:09276:10383:0:1", "shelter": "yes", "tactile_paving": "no", "wheelchair": "no"}}, {"type": "node", "id": 3676759268, "lat": 49.0112302, "lon": 13.2216896, "tags": {"bench": "no", "bin": "no", "bus": "yes", "highway": "bus_stop", "kerb": "raised", "kerb:height": "0.17", "lit": "yes", "name": "Realmarkt/Schlachthofstra\u00dfe", "note": "FIXME: Obwohls dran steht: Ist das die einzige Real-Haltestelle?", "platform:width": "2.1", "public_transport": "platform", "public_transport:version": "2", "ref:IFOPT": "de:09276:5122:0:1", "shelter": "no"}}, {"type": "node", "id": 3676759269, "lat": 49.025015, "lon": 13.2286944, "tags": {"bus": "yes", "departures_board": "yes", "highway": "bus_stop", "lit": "yes", "name": "Reifen Haase", "note": "FIXME: Ungef\u00e4hre Position, Korrektur notwendig", "operator": "RBO", "public_transport": "platform", "public_transport:version": "2", "shelter": "no"}}, {"type": "node", "id": 3676759270, "lat": 49.0434227, "lon": 13.2041325, "tags": {"bench": "yes", "bus": "yes", "check_date:shelter": "2021-08-19", "highway": "bus_stop", "kerb": "no", "lit": "yes", "name": "Schlo\u00dfparkplatz", "platform:width": "4", "public_transport": "platform", "public_transport:version": "2", "ref:IFOPT": "de:09276:10360:0:2", "shelter": "yes", "tactile_paving": "no"}}, {"type": "node", "id": 3676759271, "lat": 49.0249231, "lon": 13.2258953, "tags": {"bench": "yes", "bin": "no", "bus": "yes", "highway": "bus_stop", "kerb": "raised", "kerb:height": "0.02", "lit": "yes", "name": "Tennishalle/Ferienzentr.-ZEB", "platform:width": "4.3", "public_transport": "platform", "public_transport:version": "2", "ref:IFOPT": "de:09276:11981:0:1", "shelter": "yes", "tactile_paving": "no"}}, {"type": "node", "id": 3676759272, "lat": 49.016413, "lon": 13.228219, "tags": {"bus": "yes", "highway": "bus_stop", "name": "Zwiesel, Kristallglas/Glaspyramide", "public_transport": "stop_position", "ref:IFOPT": "de:09276:5119"}}, {"type": "node", "id": 3676815300, "lat": 49.0091391, "lon": 13.2228569, "tags": {"bus": "yes", "highway": "bus_stop", "name": "Zwiesel, Brauerei Pfeffer", "public_transport": "stop_position", "public_transport:version": "2", "ref:IFOPT": "de:09276:4703:0:2"}}, {"type": "node", "id": 3676815301, "lat": 49.0148873, "lon": 13.2330306, "tags": {"bench": "no", "bin": "no", "bus": "yes", "highway": "bus_stop", "kerb": "raised", "kerb:height": "0.13", "lit": "yes", "name": "Kath. Kirche", "platform:width": "2.6", "public_transport": "platform", "public_transport:version": "2", "ref:IFOPT": "de:09276:11170:0:1", "shelter": "no", "tactile_paving": "no"}}, {"type": "node", "id": 3676815302, "lat": 49.0072715, "lon": 13.219141, "tags": {"bench": "yes", "bin": "yes", "bus": "yes", "highway": "bus_stop", "kerb": "no", "lit": "yes", "name": "Krankenhaus/Waldschmidtweg", "platform:width": "1.8", "public_transport": "platform", "public_transport:version": "2", "ref:IFOPT": "de:09276:10375:0:1", "shelter": "yes", "tactile_paving": "no", "wheelchair": "limited"}}, {"type": "node", "id": 3676815303, "lat": 49.0099351, "lon": 13.2389895, "tags": {"bench": "no", "bin": "yes", "bus": "yes", "highway": "bus_stop", "kerb": "raised", "kerb:height": "0.04", "lit": "yes", "name": "Lichtenthal, Abzweig", "platform:width": "1.40", "public_transport": "platform", "public_transport:version": "2", "ref:IFOPT": "de:09276:5027:0:1", "shelter": "no", "tactile_paving": "no", "wheelchair": "limited"}}, {"type": "node", "id": 3676815312, "lat": 49.0069558, "lon": 13.2222705, "tags": {"bench": "no", "bin": "no", "bus": "yes", "highway": "bus_stop", "kerb": "raised", "kerb:height": "0.15", "lit": "yes", "name": "Rotkreuzhaus", "platform:width": "1.85", "public_transport": "platform", "public_transport:version": "2", "ref:IFOPT": "de:09276:10377:0:1", "shelter": "no", "tactile_paving": "no"}}, {"type": "node", "id": 3676815313, "lat": 49.0200602, "lon": 13.2312526, "tags": {"bench": "yes", "bin": "no", "bus": "yes", "highway": "bus_stop", "kerb": "raised", "kerb:height": "0.16", "lit": "yes", "name": "Tankstelle", "platform:width": "1.5", "public_transport": "platform", "public_transport:version": "2", "ref:IFOPT": "de:09276:4704:0:1", "shelter": "no", "tactile_paving": "no"}}, {"type": "node", "id": 3676853508, "lat": 49.0253944, "lon": 13.2353367, "tags": {"bench": "no", "bin": "no", "bus": "yes", "highway": "bus_stop", "lit": "yes", "name": "Hochleiten", "public_transport": "platform", "public_transport:version": "2", "ref:IFOPT": "de:09276:10371:0:1", "shelter": "no", "surface": "unpaved", "tactile_paving": "no", "wheelchair": "no"}}, {"type": "node", "id": 3676856699, "lat": 49.0182038, "lon": 13.239243, "tags": {"alt_name": "Sonnenh\u00fcgel Realschule", "bench": "no", "bin": "no", "bus": "yes", "highway": "bus_stop", "lit": "yes", "name": "Realschule / Franz-Betz-Stra\u00dfe", "public_transport": "platform", "public_transport:version": "2", "shelter": "no"}}, {"type": "node", "id": 3676856700, "lat": 49.022461, "lon": 13.2392568, "tags": {"bench": "no", "bin": "no", "bus": "yes", "highway": "bus_stop", "kerb": "raised", "kerb:height": "0.10", "lit": "yes", "name": "Ringweg", "platform:width": "2.1", "public_transport": "platform", "public_transport:version": "2", "ref:IFOPT": "de:09276:10369:0:1", "shelter": "no", "tactile_paving": "no"}}, {"type": "node", "id": 3676856701, "lat": 49.018532, "lon": 13.2240125, "tags": {"bench": "yes", "bin": "no", "bus": "yes", "highway": "bus_stop", "lit": "no", "name": "R\u00f6ckkellerstra\u00dfe", "public_transport": "platform", "public_transport:version": "2", "ref:IFOPT": "de:09276:10381:0:1", "shelter": "no", "surface": "unpaved", "tactile_paving": "no", "wheelchair": "no"}}, {"type": "node", "id": 3676856702, "lat": 49.0242691, "lon": 13.2379688, "tags": {"bench": "yes", "bin": "no", "bus": "yes", "highway": "bus_stop", "kerb": "raised", "kerb:height": "0.03", "lit": "yes", "name": "Sonnenh\u00fcgel", "platform:width": "1.7", "public_transport": "platform", "public_transport:version": "2", "ref:IFOPT": "de:09276:10370:0:1", "shelter": "yes", "tactile_paving": "no"}}, {"type": "node", "id": 3676856703, "lat": 49.0205844, "lon": 13.2418063, "tags": {"bench": "yes", "bin": "no", "bus": "yes", "check_date:shelter": "2021-08-20", "highway": "bus_stop", "kerb": "raised", "kerb:height": "0.09", "lit": "yes", "name": "Terrassenhaus", "note": "FIXME: Ungef\u00e4hre Position, Korrektur notwendig", "platform:width": "2.3", "public_transport": "platform", "public_transport:version": "2", "ref:IFOPT": "de:09276:10367:0:1", "shelter": "yes", "tactile_paving": "no"}}, {"type": "node", "id": 3678413679, "lat": 49.3054063, "lon": 13.66168, "tags": {"highway": "bus_stop", "name": "Mal\u00fd Bor, Mal\u00e9 Hyd\u010dice, rozc.1.0", "public_transport": "platform", "ref:CIS_JR": "20334", "source": "survey"}}, {"type": "node", "id": 3679010691, "lat": 49.0254502, "lon": 13.6530959, "tags": {"bench": "yes", "bus": "yes", "covered": "yes", "highway": "bus_stop", "name": "Nov\u00e9 Hut\u011b,,poles\u00ed", "official_name": "Nov\u00e9 Hut\u011b,,poles\u00ed", "public_transport": "platform", "ref:CIS_JR": "23800", "shelter": "yes"}}, {"type": "node", "id": 3701798437, "lat": 49.0222579, "lon": 13.2215873, "tags": {"alt_name": "Kreuz R\u00f6ckkellerstra\u00dfe/ Ahornweg", "bench": "yes", "bin": "no", "bus": "yes", "highway": "bus_stop", "kerb": "raised", "kerb:height": "0.10", "lit": "yes", "name": "Ahornweg", "platform:width": "1.3", "public_transport": "platform", "public_transport:version": "2", "ref:IFOPT": "de:09276:10382:0:1", "shelter": "no", "tactile_paving": "no"}}, {"type": "node", "id": 3701936272, "lat": 49.0132698, "lon": 13.2298332, "tags": {"bench": "yes", "bin": "yes", "bus": "yes", "highway": "bus_stop", "kerb": "raised", "kerb:height": "0.15", "lit": "yes", "name": "Stadtplatz Brunnen", "platform:width": "2.1", "public_transport": "platform", "public_transport:version": "2", "ref:IFOPT": "de:09276:10362:0:1", "shelter": "yes", "tactile_paving": "no"}}, {"type": "node", "id": 3702591917, "lat": 49.01456, "lon": 13.2369307, "tags": {"bench": "yes", "bin": "no", "bus": "yes", "highway": "bus_stop", "lit": "yes", "name": "B\u00f6hmerwaldstra\u00dfe / Abzw. St.-Gunther-Weg", "public_transport": "platform", "public_transport:version": "2", "shelter": "no", "tactile_paving": "no"}}, {"type": "node", "id": 3702692602, "lat": 49.013217, "lon": 13.2458873, "tags": {"bench": "yes", "bin": "no", "bus": "yes", "highway": "bus_stop", "kerb": "raised", "kerb:height": "0.03", "lit": "yes", "name": "B\u00e4rwurzerei Hieke", "platform:width": "1.2", "public_transport": "platform", "ref:IFOPT": "de:09276:5028:0:2", "shelter": "no", "tactile_paving": "no"}}, {"type": "node", "id": 3702692603, "lat": 49.0135158, "lon": 13.2463427, "tags": {"bench": "no", "bin": "no", "bus": "yes", "highway": "bus_stop", "lit": "yes", "name": "B\u00e4rwurzerei Hieke", "public_transport": "platform", "public_transport:version": "2", "ref:IFOPT": "de:09276:5028:0:1", "shelter": "no", "surface": "unpaved", "tactile_paving": "no", "wheelchair": "no"}}, {"type": "node", "id": 3702692604, "lat": 49.0122899, "lon": 13.2407901, "tags": {"bench": "yes", "bin": "no", "bus": "yes", "highway": "bus_stop", "kerb": "raised", "kerb:height": "0.15", "lit": "yes", "name": "B\u00f6hmerwaldstra\u00dfe / Abzwg. Rachelstra\u00dfe", "platform:width": "1.4", "public_transport": "platform", "public_transport:version": "2", "ref:IFOPT": "de:09276:10364:0:1", "shelter": "no", "tactile_paving": "no"}}, {"type": "node", "id": 3704424197, "lat": 49.0168644, "lon": 13.233955, "tags": {"bench": "no", "bin": "no", "bus": "yes", "highway": "bus_stop", "lit": "yes", "name": "Zwiesel, Grundschule", "platform:width": "3", "public_transport": "platform", "ref:IFOPT": "de:09276:5134:0:1", "shelter": "no"}}, {"type": "node", "id": 3707269562, "lat": 49.0204196, "lon": 13.2313252, "tags": {"bench": "no", "bin": "no", "bus": "yes", "highway": "bus_stop", "kerb": "raised", "kerb:height": "0.18", "lit": "yes", "name": "Tankstelle", "platform:width": "1.2", "public_transport": "platform", "public_transport:version": "2", "ref:IFOPT": "de:09276:4704:0:2", "shelter": "no", "tactile_paving": "no"}}, {"type": "node", "id": 3709215960, "lat": 48.9948767, "lon": 13.1874386, "tags": {"bench": "no", "bin": "no", "highway": "bus_stop", "lit": "yes", "name": "Schulbus", "shelter": "no", "tactile_paving": "no"}}, {"type": "node", "id": 3709215961, "lat": 48.9975084, "lon": 13.1868269, "tags": {"bench": "no", "bin": "no", "bus": "yes", "highway": "bus_stop", "lit": "yes", "name": "Bettmanns\u00e4ge, Bahnhof", "public_transport": "platform", "ref:IFOPT": "de:09276:16774:0:1", "shelter": "no", "surface": "unpaved", "tactile_paving": "no", "wheelchair": "no"}}, {"type": "node", "id": 3709292219, "lat": 49.0039914, "lon": 13.1801277, "tags": {"bench": "yes", "bin": "no", "bus": "yes", "highway": "bus_stop", "lit": "yes", "name": "Kohlnberg", "platform:width": "1.3", "public_transport": "platform", "ref:IFOPT": "de:09276:16765:0:1", "shelter": "yes"}}, {"type": "node", "id": 3710919758, "lat": 49.0315608, "lon": 13.2268692, "tags": {"bench": "yes", "bin": "no", "highway": "bus_stop", "lit": "yes", "name": "F\u00fcrhaupten/Bahn\u00fcbergang", "public_transport": "platform", "public_transport:version": "2", "shelter": "no"}}, {"type": "node", "id": 3711096321, "lat": 49.0328234, "lon": 13.2205234, "tags": {"bench": "no", "bin": "no", "bus": "yes", "highway": "bus_stop", "lit": "yes", "name": "Klautzenbach", "public_transport": "platform", "public_transport:version": "2", "ref:IFOPT": "de:09276:10356:0:1", "shelter": "no", "surface": "unpaved", "tactile_paving": "no", "wheelchair": "no"}}, {"type": "node", "id": 3712215163, "lat": 49.0221399, "lon": 13.2432038, "tags": {"bench": "no", "bin": "no", "bus": "yes", "highway": "bus_stop", "kerb": "raised", "kerb:height": "0.12", "lit": "yes", "name": "Sportzentrum Rotwald", "platform:width": "1.9", "public_transport": "platform", "public_transport:version": "2", "ref:IFOPT": "de:09276:10368:0:1", "shelter": "no", "tactile_paving": "no"}}, {"type": "node", "id": 3712215164, "lat": 49.0350875, "lon": 13.2339673, "tags": {"bench": "yes", "bin": "yes", "bus": "yes", "highway": "bus_stop", "kerb": "raised", "kerb:height": "0.14", "lit": "yes", "name": "Theresienthal Linke Haus", "platform:width": "1.8", "public_transport": "platform", "public_transport:version": "2", "ref:IFOPT": "de:09276:4718:0:1", "shelter": "yes", "tactile_paving": "no"}}, {"type": "node", "id": 3712624362, "lat": 49.0128406, "lon": 13.2381378, "tags": {"bench": "yes", "bin": "no", "bus": "yes", "highway": "bus_stop", "kerb": "raised", "kerb:height": "0.14", "lit": "yes", "name": "Zwiesel, Anton-Pech-Stra\u00dfe", "platform:width": "1.4", "public_transport": "platform", "public_transport:version": "2", "ref:IFOPT": "de:09276:10365:0:1", "shelter": "no", "tactile_paving": "no"}}, {"type": "node", "id": 3712624363, "lat": 49.0105009, "lon": 13.2375045, "tags": {"bench": "yes", "bin": "yes", "bus": "yes", "highway": "bus_stop", "lit": "yes", "name": "Hindenburgstra\u00dfe", "public_transport": "platform", "public_transport:version": "2", "ref:IFOPT": "de:09276:10363:0:1", "shelter": "no", "surface": "unpaved", "tactile_paving": "no", "wheelchair": "no"}}, {"type": "node", "id": 3712624364, "lat": 49.0245941, "lon": 13.2259833, "tags": {"bench": "no", "bin": "no", "bus": "yes", "highway": "bus_stop", "kerb": "raised", "kerb:height": "0.09", "lit": "yes", "name": "Tennishalle/Ferienzentr.-ZEB", "platform:width": "0.9", "public_transport": "platform", "public_transport:version": "2", "ref:IFOPT": "de:09276:11981:0:2", "shelter": "no", "tactile_paving": "no"}}, {"type": "node", "id": 3712624365, "lat": 49.0243502, "lon": 13.2313138, "tags": {"bench": "no", "bin": "no", "highway": "bus_stop", "lit": "yes", "name": "Theresienthaler Stra\u00dfe (Prenissl)", "public_transport": "platform", "public_transport:version": "2", "shelter": "no", "tactile_paving": "no"}}, {"type": "node", "id": 3714992965, "lat": 49.021734, "lon": 13.2099997, "tags": {"bench": "yes", "check_date:shelter": "2021-08-19", "highway": "bus_stop", "name": "Innenried (Stadtbus)", "shelter": "yes", "tactile_paving": "no"}}, {"type": "node", "id": 3715836326, "lat": 49.0153259, "lon": 13.1888442, "tags": {"bus": "yes", "highway": "bus_stop", "name": "Au\u00dfenried", "public_transport": "stop_position"}}, {"type": "node", "id": 3715916121, "lat": 49.0162266, "lon": 13.1814235, "tags": {"bus": "yes", "highway": "bus_stop", "name": "Au\u00dfenried, Bahn\u00fcbergang", "note": "FIXME: nur ungef\u00e4hre Position", "public_transport": "stop_position", "public_transport:version": "2"}}, {"type": "node", "id": 3715917127, "lat": 49.0093791, "lon": 13.1966885, "tags": {"bench": "no", "bin": "no", "bus": "yes", "highway": "bus_stop", "public_transport": "platform", "public_transport:version": "2", "shelter": "no", "tactile_paving": "no"}}, {"type": "node", "id": 3715917177, "lat": 49.011621, "lon": 13.2049963, "tags": {"bench": "no", "bin": "no", "bus": "yes", "highway": "bus_stop", "lit": "no", "name": "Reisachm\u00fchle", "public_transport": "platform", "public_transport:version": "2", "shelter": "no", "tactile_paving": "no"}}, {"type": "node", "id": 3715917178, "lat": 49.012853, "lon": 13.2063485, "tags": {"bench": "no", "bin": "no", "bus": "yes", "highway": "bus_stop", "lit": "no", "name": "Reisachm\u00fchle", "public_transport": "platform", "public_transport:version": "2", "ref:IFOPT": "de:09276:5795:0:1", "shelter": "no", "surface": "unpaved", "tactile_paving": "no", "wheelchair": "no"}}, {"type": "node", "id": 3715917179, "lat": 49.0129865, "lon": 13.2119328, "tags": {"bench": "yes", "bin": "no", "bus": "yes", "highway": "bus_stop", "lit": "no", "name": "Tr\u00f6pplkeller", "public_transport": "platform", "shelter": "yes", "tactile_paving": "no"}}, {"type": "node", "id": 3717631880, "lat": 48.9888594, "lon": 13.1848669, "tags": {"bench": "no", "bin": "no", "bus": "yes", "highway": "bus_stop", "kerb": "raised", "kerb:height": "0.11", "lit": "no", "name": "Schweinh\u00fctt, Kapelle", "platform:width": "1.4", "public_transport": "platform", "ref:IFOPT": "de:09276:4744:0:2", "shelter": "no", "tactile_paving": "no"}}, {"type": "node", "id": 3717631881, "lat": 48.9892945, "lon": 13.1872536, "tags": {"bus": "yes", "highway": "bus_stop", "name": "Schweinh\u00fctt, Kapelle", "public_transport": "stop_position", "ref:IFOPT": "de:09276:4744:0:1"}}, {"type": "node", "id": 3719101222, "lat": 49.0323657, "lon": 13.2512334, "tags": {"bench": "no", "bin": "no", "bus": "yes", "highway": "bus_stop", "kerb": "raised", "kerb:height": "0.10", "lit": "yes", "name": "Lindberg Am Lust", "platform:width": "3.00", "public_transport": "platform", "public_transport:version": "2", "ref:IFOPT": "de:09276:10917:0:1", "shelter": "no", "wheelchair": "no"}}, {"type": "node", "id": 3719101223, "lat": 49.032409, "lon": 13.2510366, "tags": {"bench": "yes", "bin": "no", "bus": "yes", "highway": "bus_stop", "kerb": "raised", "kerb:height": "0.10", "lit": "yes", "name": "Lindberg Am Lust", "platform:width": "1.20", "public_transport": "platform", "public_transport:version": "2", "ref:IFOPT": "de:09276:10917:0:2", "shelter": "yes", "wheelchair": "no"}}, {"type": "node", "id": 3719263743, "lat": 49.03946, "lon": 13.2625843, "tags": {"alt_name": "Lehen/Dr. Lippmann", "bench": "no", "bin": "no", "bus": "yes", "highway": "bus_stop", "kerb": "lowered", "kerb:height": "0.02", "lit": "yes", "name": "Lehen", "operator": "Lamb\u00fcrger", "platform:width": "1.1", "public_transport": "platform", "public_transport:version": "2", "ref:IFOPT": "de:09276:10294:0:2", "shelter": "no"}}, {"type": "node", "id": 3756612126, "lat": 49.075506, "lon": 13.079445, "tags": {"bench": "no", "bus": "yes", "highway": "bus_stop", "name": "Mooshof", "public_transport": "platform", "ref:IFOPT": "de:09276:5081:0:2", "shelter": "no", "surface": "unpaved", "wheelchair": "no"}}, {"type": "node", "id": 3758216875, "lat": 48.9768829, "lon": 13.1328961, "tags": {"bus": "yes", "highway": "bus_stop", "kerb": "raised", "kerb:height": "0.13", "lit": "yes", "name": "Fraunhoferstra\u00dfe, Regen", "note": "Nur ungef\u00e4hre Position - bitte korrigieren", "platform:width": "1.9", "public_transport": "platform", "public_transport:version": "2", "ref:IFOPT": "de:09276:5019:0:2", "tactile_paving": "no"}}, {"type": "node", "id": 3758229065, "lat": 48.9728015, "lon": 13.1295461, "tags": {"bus": "yes", "highway": "bus_stop", "name": "Regen, Realschule", "public_transport": "stop_position"}}, {"type": "node", "id": 3758265306, "lat": 48.9887125, "lon": 13.1342061, "tags": {"bus": "yes", "highway": "bus_stop", "name": "Kaserne, Regen", "public_transport": "stop_position"}}, {"type": "node", "id": 3789021787, "lat": 49.2358007, "lon": 13.6366294, "tags": {"bus": "yes", "highway": "bus_stop", "name": "\u017dihobce, B\u00edlenice, Podol\u00ed", "public_transport": "platform"}}, {"type": "node", "id": 3789021788, "lat": 49.2385808, "lon": 13.6422626, "tags": {"bus": "yes", "highway": "bus_stop", "name": "\u017dihobce, B\u00edlenice", "public_transport": "platform", "ref:CIS_JR": "42813", "shelter": "yes"}}, {"type": "node", "id": 3793842226, "lat": 49.1372928, "lon": 13.2321866, "tags": {"bus": "yes", "highway": "bus_stop", "lit": "yes", "name": "\u017delezn\u00e1 Ruda", "network": "Arriva", "network:wikidata": "Q680991", "public_transport": "platform", "shelter": "no", "source": "gps", "tactile_paving": "no"}}, {"type": "node", "id": 3796943819, "lat": 49.0546951, "lon": 13.5631067, "tags": {"bus": "yes", "highway": "bus_stop", "name": "Horsk\u00e1 Kvilda, u prodejny", "public_transport": "stop_position"}}, {"type": "node", "id": 3796943822, "lat": 49.071189, "lon": 13.4856842, "tags": {"bus": "yes", "highway": "bus_stop", "name": "Srn\u00ed, penzion Zvone\u010dek", "public_transport": "stop_position"}}, {"type": "node", "id": 3796962909, "lat": 49.1025411, "lon": 13.4299441, "tags": {"bench": "no", "bin": "no", "bus": "yes", "highway": "bus_stop", "name": "Pr\u00e1\u0161ily, Velk\u00fd Bor", "public_transport": "platform", "shelter": "no"}}, {"type": "node", "id": 3797903413, "lat": 49.0032358, "lon": 13.6190251, "tags": {"bus": "yes", "highway": "bus_stop", "name": "Kvilda, Franti\u0161kov", "official_name": "Kvilda,Franti\u0161kov", "public_transport": "stop_position", "ref:CIS_JR": "17272"}}, {"type": "node", "id": 3808518934, "lat": 49.0207074, "lon": 13.2271046, "tags": {"bus": "yes", "highway": "bus_stop", "name": "Zwiesel, Bahnhof", "network": "RBO", "public_transport": "stop_position", "ref": "1"}}, {"type": "node", "id": 3872371654, "lat": 49.2939013, "lon": 13.6428098, "tags": {"bus": "yes", "highway": "bus_stop", "local_ref": "2", "name": "Rab\u00ed, Bojanovice", "public_transport": "platform", "ref:PID": "U32281Z2"}}, {"type": "node", "id": 3936196746, "lat": 49.004308, "lon": 13.2213726, "tags": {"bus": "yes", "highway": "bus_stop", "name": "Zwieselberg, Siedlung", "public_transport": "stop_position"}}, {"type": "node", "id": 3936196748, "lat": 48.9995288, "lon": 13.2156459, "tags": {"bus": "yes", "highway": "bus_stop", "name": "Zwieselberg, Info Zentrum", "public_transport": "stop_position"}}, {"type": "node", "id": 3936226505, "lat": 48.9870227, "lon": 13.1776486, "tags": {"bus": "yes", "highway": "bus_stop", "name": "Schweinh\u00fctt, Gh. M\u00fchl", "public_transport": "stop_position"}}, {"type": "node", "id": 3936293211, "lat": 48.9505218, "lon": 13.1974489, "tags": {"bus": "yes", "highway": "bus_stop", "name": "Rinchnach, Busbahnhof", "public_transport": "stop_position"}}, {"type": "node", "id": 3936293216, "lat": 48.9593496, "lon": 13.1535395, "tags": {"bus": "yes", "highway": "bus_stop", "name": "Poschetsried, Abzw", "public_transport": "stop_position"}}, {"type": "node", "id": 3936293220, "lat": 48.9536039, "lon": 13.1753376, "tags": {"bus": "yes", "highway": "bus_stop", "name": "H\u00f6nigsgrub, Abzw", "public_transport": "stop_position", "ref:IFOPT": "de:09276:4716"}}, {"type": "node", "id": 3936309950, "lat": 48.9343482, "lon": 13.2278981, "tags": {"bus": "yes", "highway": "bus_stop", "name": "Grub bei Rinchnach", "public_transport": "stop_position", "ref:IFOPT": "de:09276:4711"}}, {"type": "node", "id": 3936314157, "lat": 48.9310133, "lon": 13.2277906, "tags": {"bus": "yes", "highway": "bus_stop", "name": "Grub bei Richnach", "public_transport": "stop_position"}}, {"type": "node", "id": 3959663862, "lat": 49.1460648, "lon": 13.5694136, "tags": {"bus": "yes", "highway": "bus_stop", "name": "Ka\u0161persk\u00e9 Hory, Cik\u00e1nka", "public_transport": "platform"}}, {"type": "node", "id": 3967171966, "lat": 49.0854472, "lon": 13.6799558, "tags": {"bus": "yes", "highway": "bus_stop", "name": "Mas\u00e1kova Lhota", "official_name": "Zd\u00edkov,Mas\u00e1kova Lhota", "public_transport": "platform", "ref:CIS_JR": "41763"}}, {"type": "node", "id": 3967847312, "lat": 49.0142839, "lon": 13.5839769, "tags": {"bench": "yes", "bin": "yes", "bus": "yes", "covered": "yes", "highway": "bus_stop", "name": "Kvilda,,Vil\u00e9mov", "official_name": "Kvilda,,Vil\u00e9mov", "public_transport": "platform", "ref:CIS_JR": "17277", "shelter": "yes"}}, {"type": "node", "id": 3967853891, "lat": 49.02251, "lon": 13.6664366, "tags": {"bench": "no", "bus": "yes", "covered": "no", "highway": "bus_stop", "name": "Borov\u00e1 Lada,\u0160indlov,rozc.0.5", "official_name": "Borov\u00e1 Lada,\u0160indlov,rozc.0.5", "public_transport": "platform", "ref:CIS_JR": "2122", "shelter": "no"}}, {"type": "node", "id": 3974859190, "lat": 48.977748, "lon": 13.1416694, "tags": {"bus": "yes", "highway": "bus_stop", "name": "Kindergarten St. Anna", "operator": "VU-Moser", "public_transport": "stop_position"}}, {"type": "node", "id": 4203342747, "lat": 49.262587, "lon": 13.6748017, "tags": {"bus": "yes", "highway": "bus_stop", "name": "Nezamyslice", "public_transport": "platform"}}, {"type": "node", "id": 4248089439, "lat": 49.1264303, "lon": 13.1881554, "tags": {"bench": "no", "bin": "no", "bus": "yes", "highway": "bus_stop", "kerb": "raised", "kerb:height": "0.04", "name": "Bayerisch Eisenstein, Neuh\u00fctte", "platform:width": "1.3", "public_transport": "platform", "ref:IFOPT": "de:09276:5164:0:2", "shelter": "no", "surface": "unpaved", "tactile_paving": "no", "wheelchair": "no"}}, {"type": "node", "id": 4292801535, "lat": 49.1768173, "lon": 13.507124, "tags": {"bench": "no", "bin": "yes", "bus": "yes", "highway": "bus_stop", "lit": "no", "name": "Dlouh\u00e1 Ves, Ann\u00edn, camp", "public_transport": "platform", "ref:CIS_JR": "5915", "shelter": "no", "tactile_paving": "no"}}, {"type": "node", "id": 4325264291, "lat": 49.3066731, "lon": 13.6486613, "tags": {"bus": "yes", "highway": "bus_stop", "name": "Mal\u00fd Bor, Hlin\u011bn\u00fd \u00dajezd", "public_transport": "platform", "ref:CIS_JR": "20333", "source": "survey;GPS"}}, {"type": "node", "id": 4325264292, "lat": 49.3066237, "lon": 13.6485352, "tags": {"bus": "yes", "highway": "bus_stop", "name": "Mal\u00fd Bor, Hlin\u011bn\u00fd \u00dajezd", "public_transport": "platform", "ref:CIS_JR": "20333", "source": "survey"}}, {"type": "node", "id": 4357090960, "lat": 49.0296648, "lon": 13.232354, "tags": {"bench": "no", "bin": "no", "bus": "yes", "highway": "bus_stop", "lit": "yes", "name": "Zwiesel, Glaspark/Glasmuseum", "public_transport": "stop_position", "ref:IFOPT": "de:09276:10372:0:1", "shelter": "no", "tactile_paving": "no"}}, {"type": "node", "id": 4365374335, "lat": 49.0045861, "lon": 13.2396893, "tags": {"bench": "yes", "bin": "no", "bus": "yes", "highway": "bus_stop", "lit": "yes", "name": "Glasberglift", "operator": "Lamb\u00fcrger", "public_transport": "platform", "shelter": "yes", "tactile_paving": "no"}}, {"type": "node", "id": 4532550311, "lat": 48.9877898, "lon": 13.2990166, "tags": {"bench": "yes", "bin": "no", "bus": "yes", "highway": "bus_stop", "lit": "no", "name": "Frauenau Glasmuseum", "public_transport": "platform", "shelter": "yes", "tactile_paving": "no"}}, {"type": "node", "id": 4564797770, "lat": 49.0301903, "lon": 13.2684774, "tags": {"bench": "no", "bin": "no", "highway": "bus_stop", "lit": "no", "name": "Riesst\u00fcberl", "shelter": "no", "tactile_paving": "no"}}, {"type": "node", "id": 4564806216, "lat": 49.0291936, "lon": 13.2725127, "tags": {"bench": "yes", "bus": "yes", "highway": "bus_stop", "name": "Beihof", "platform:width": "1", "public_transport": "platform", "ref:IFOPT": "de:09276:10907:0:2", "shelter": "yes", "surface": "unpaved", "wheelchair": "no"}}, {"type": "node", "id": 4697257239, "lat": 48.9366663, "lon": 13.3168055, "tags": {"bench": "yes", "bin": "no", "bus": "yes", "highway": "bus_stop", "lit": "yes", "name": "Alth\u00fctte", "platform:width": "3.4", "public_transport": "platform", "ref:IFOPT": "de:09272:4977:0:1", "shelter": "yes"}}, {"type": "node", "id": 4713180692, "lat": 49.0212324, "lon": 13.1606808, "tags": {"bus": "yes", "highway": "bus_stop", "name": "Langdorf", "public_transport": "platform"}}, {"type": "node", "id": 4720561442, "lat": 48.9692314, "lon": 13.1365113, "tags": {"bus": "yes", "description": "Regen, Busbahnhof, Bussteig, Steig 6, Linie 6121, 7710", "highway": "bus_stop", "name": "Regen Busbahnhof (6)", "public_transport": "stop_position", "ref": "6", "wheelchair": "yes"}}, {"type": "node", "id": 4720561443, "lat": 48.9691504, "lon": 13.1365823, "tags": {"bus": "yes", "description": "Regen, Busbahnhof, Bussteig, Steig 4, Linie 6199", "highway": "bus_stop", "name": "Regen Busbahnhof (4)", "public_transport": "stop_position", "ref": "4", "wheelchair": "yes"}}, {"type": "node", "id": 4720562755, "lat": 48.9692767, "lon": 13.1364716, "tags": {"bus": "yes", "description": "Regen, Busbahnhof, Bussteig, Steig 7, Linie 7153", "highway": "bus_stop", "name": "Regen Busbahnhof (7)", "public_transport": "stop_position", "ref": "7", "wheelchair": "yes"}}, {"type": "node", "id": 4720562756, "lat": 48.9691929, "lon": 13.136545, "tags": {"bus": "yes", "description": "Regen, Busbahnhof, Bussteig, Steig 5, Linie 6196, Rufbusse 8200, 8207, 8208, 8209, 8211, 8212, 8218", "highway": "bus_stop", "name": "Regen Busbahnhof (5)", "public_transport": "stop_position", "ref": "5", "wheelchair": "yes"}}, {"type": "node", "id": 4720562757, "lat": 48.9691048, "lon": 13.1366223, "tags": {"bus": "yes", "description": "Regen, Busbahnhof, Bussteig, Steig 3, Linie 6195", "highway": "bus_stop", "name": "Regen Busbahnhof (3)", "public_transport": "stop_position", "ref": "3", "wheelchair": "yes"}}, {"type": "node", "id": 4720562758, "lat": 48.9690147, "lon": 13.1367012, "tags": {"bus": "yes", "description": "Regen, Busbahnhof, Bussteig, Steig 1, Linie 6201", "highway": "bus_stop", "name": "Regen Busbahnhof (1)", "public_transport": "stop_position", "ref": "1", "wheelchair": "yes"}}, {"type": "node", "id": 4720562993, "lat": 48.9690616, "lon": 13.1366601, "tags": {"bus": "yes", "description": "Regen, Busbahnhof, Bussteig, Steig 2, Linie 6200, 7710, SEV", "highway": "bus_stop", "name": "Regen Busbahnhof (2)", "public_transport": "stop_position", "ref": "2", "wheelchair": "yes"}}, {"type": "node", "id": 4777037929, "lat": 48.9909795, "lon": 13.2013731, "tags": {"bench": "yes", "bin": "no", "bus": "yes", "highway": "bus_stop", "kerb": "raised", "kerb:height": "0.12", "lit": "no", "name": "Dreieck, Abzw", "platform:width": "1.20", "public_transport": "platform", "ref:IFOPT": "de:09276:4745:0:1", "shelter": "yes", "tactile_paving": "no", "wheelchair": "no"}}, {"type": "node", "id": 4777037930, "lat": 48.990837, "lon": 13.2008206, "tags": {"bench": "no", "bin": "no", "bus": "yes", "highway": "bus_stop", "kerb": "raised", "kerb:height": "0.16", "lit": "no", "name": "Dreieck, Abzw", "platform:width": "1.20", "public_transport": "platform", "ref:IFOPT": "de:09276:4745:0:2", "shelter": "no", "tactile_paving": "no", "wheelchair": "no"}}, {"type": "node", "id": 4959691871, "lat": 49.0070125, "lon": 13.6698501, "tags": {"bench": "no", "bin": "no", "bus": "yes", "highway": "bus_stop", "lit": "no", "name": "Borov\u00e1 Lada, Nov\u00fd Sv\u011bt", "official_name": "Borov\u00e1 Lada,Nov\u00fd Sv\u011bt", "public_transport": "platform", "ref:CIS_JR": "2120", "shelter": "yes", "tactile_paving": "no"}}, {"type": "node", "id": 5037848694, "lat": 48.9970798, "lon": 13.2995519, "tags": {"bench": "no", "bin": "no", "bus": "yes", "highway": "bus_stop", "kerb": "raised", "kerb:height": "0.08", "name": "D\u00f6rfl Wasserh\u00e4uslweg", "platform:width": "1", "public_transport": "platform", "ref:IFOPT": "de:09276:5031:0:2", "shelter": "no", "tactile_paving": "no", "wheelchair": "no"}}, {"type": "node", "id": 5037848695, "lat": 48.9917328, "lon": 13.3014208, "tags": {"bench": "no", "bus": "yes", "highway": "bus_stop", "kerb": "raised", "kerb:height": "0.02", "name": "Haus St. Hermann", "platform:width": "3.7", "public_transport": "platform", "ref:IFOPT": "de:09276:5032:0:2", "shelter": "no"}}, {"type": "node", "id": 5037848696, "lat": 49.0488876, "lon": 13.2646685, "tags": {"bench": "no", "bin": "no", "bus": "yes", "highway": "bus_stop", "lit": "yes", "name": "Oberlindbergm\u00fchle Kreuzung, Lindberg", "public_transport": "platform", "ref:IFOPT": "de:09276:11430:0:1", "shelter": "no", "surface": "unpaved", "wheelchair": "no"}}, {"type": "node", "id": 5050151744, "lat": 48.9917453, "lon": 13.3016431, "tags": {"bench": "no", "bus": "yes", "highway": "bus_stop", "name": "Haus St. Hermann", "platform:width": "2.1", "public_transport": "platform", "public_transport:version": "2", "ref:IFOPT": "de:09276:5032:0:1", "shelter": "no"}}, {"type": "node", "id": 5084762714, "lat": 49.0021357, "lon": 13.2547205, "tags": {"bench": "no", "bin": "no", "bus": "yes", "covered": "no", "highway": "bus_stop", "lit": "yes", "name": "Griesbach", "public_transport": "platform", "public_transport:version": "2", "ref:IFOPT": "de:09276:10389:0:1", "shelter": "no", "surface": "unpaved", "tactile_paving": "no", "wheelchair": "no"}}, {"type": "node", "id": 5302058078, "lat": 49.2463305, "lon": 13.541171, "tags": {"bus": "yes", "description": "MHD", "highway": "bus_stop", "local_ref": "10", "name": "Su\u0161ice, \u017eel. st. (MHD)", "network": "Su\u0161ice", "public_transport": "platform", "shelter": "yes"}}, {"type": "node", "id": 5302058079, "lat": 49.246217, "lon": 13.5420957, "tags": {"bench": "yes", "bus": "yes", "highway": "bus_stop", "local_ref": "8", "name": "Su\u0161ice, \u017eel. st.", "network": "IDPK", "public_transport": "platform", "ref:CIS_JR": "34082", "shelter": "yes"}}, {"type": "node", "id": 5302058080, "lat": 49.2462059, "lon": 13.5420229, "tags": {"bench": "yes", "bus": "yes", "highway": "bus_stop", "local_ref": "7", "name": "Su\u0161ice, \u017eel. st.", "network": "IDPK", "public_transport": "platform", "ref:CIS_JR": "34082", "shelter": "yes"}}, {"type": "node", "id": 5302058081, "lat": 49.2461945, "lon": 13.5419485, "tags": {"bench": "yes", "bus": "yes", "highway": "bus_stop", "local_ref": "6", "name": "Su\u0161ice, \u017eel. st.", "network": "IDPK", "public_transport": "platform", "ref:CIS_JR": "34082", "shelter": "yes"}}, {"type": "node", "id": 5302058082, "lat": 49.246184, "lon": 13.5418795, "tags": {"bench": "yes", "bus": "yes", "highway": "bus_stop", "local_ref": "5", "name": "Su\u0161ice, \u017eel. st.", "network": "IDPK", "public_transport": "platform", "ref:CIS_JR": "34082", "shelter": "yes"}}, {"type": "node", "id": 5302058083, "lat": 49.2461726, "lon": 13.5418049, "tags": {"bench": "yes", "bus": "yes", "highway": "bus_stop", "local_ref": "4", "name": "Su\u0161ice, \u017eel. st.", "network": "IDPK", "public_transport": "platform", "ref:CIS_JR": "34082", "shelter": "yes"}}, {"type": "node", "id": 5302058084, "lat": 49.2461609, "lon": 13.5417279, "tags": {"bench": "yes", "bus": "yes", "highway": "bus_stop", "local_ref": "3", "name": "Su\u0161ice, \u017eel. st.", "network": "IDPK", "public_transport": "platform", "ref:CIS_JR": "34082", "shelter": "yes"}}, {"type": "node", "id": 5302058085, "lat": 49.2461505, "lon": 13.5416601, "tags": {"bench": "yes", "bus": "yes", "highway": "bus_stop", "local_ref": "2", "name": "Su\u0161ice, \u017eel. st.", "network": "IDPK", "public_transport": "platform", "ref:CIS_JR": "34082", "shelter": "yes"}}, {"type": "node", "id": 5302058086, "lat": 49.2461419, "lon": 13.5416033, "tags": {"bench": "yes", "bus": "yes", "highway": "bus_stop", "local_ref": "1", "name": "Su\u0161ice, \u017eel. st.", "network": "IDPK", "public_transport": "platform", "ref:CIS_JR": "34082", "shelter": "yes"}}, {"type": "node", "id": 5302079321, "lat": 49.2304226, "lon": 13.5271123, "tags": {"bus": "yes", "highway": "bus_stop", "name": "Su\u0161ice, u nem.", "public_transport": "platform"}}, {"type": "node", "id": 5347808487, "lat": 49.2798725, "lon": 13.0909154, "tags": {"bus": "yes", "highway": "bus_stop", "name": "Chuden\u00edn, Uhli\u0161t\u011b", "public_transport": "platform"}}, {"type": "node", "id": 5347820226, "lat": 49.2803257, "lon": 13.1145054, "tags": {"bus": "yes", "highway": "bus_stop", "name": "Chuden\u00edn, Skeln\u00e1 Hu\u0165", "public_transport": "platform"}}, {"type": "node", "id": 5380328874, "lat": 49.293828, "lon": 13.1439849, "tags": {"bus": "yes", "highway": "bus_stop", "name": "N\u00fdrsko, n\u00e1m.", "public_transport": "platform"}}, {"type": "node", "id": 5380345373, "lat": 49.2969701, "lon": 13.1513509, "tags": {"bus": "yes", "highway": "bus_stop", "name": "N\u00fdrsko, u \u017eel.st.0.3", "passenger_information_display": "yes", "public_transport": "platform", "ref": "2", "route_ref": "960;982"}}, {"type": "node", "id": 5380345374, "lat": 49.2968477, "lon": 13.1511484, "tags": {"bus": "yes", "highway": "bus_stop", "name": "N\u00fdrsko, u \u017eel.st.0.3", "passenger_information_display": "yes", "public_transport": "platform", "ref": "1", "route_ref": "960;963;964;965;966;982"}}, {"type": "node", "id": 5380367882, "lat": 49.2744911, "lon": 13.1567622, "tags": {"bus": "yes", "covered": "yes", "highway": "bus_stop", "name": "De\u0161enice, Milence", "public_transport": "platform", "shelter": "yes"}}, {"type": "node", "id": 5380367883, "lat": 49.2745546, "lon": 13.1570492, "tags": {"bus": "yes", "covered": "yes", "highway": "bus_stop", "name": "De\u0161enice, Milence", "public_transport": "platform", "shelter": "yes"}}, {"type": "node", "id": 5380374943, "lat": 49.2460381, "lon": 13.1737668, "tags": {"bus": "yes", "covered": "yes", "highway": "bus_stop", "name": "N\u00fdrsko, Zelen\u00e1 Lhota, rozcest\u00ed k n\u00e1dra\u017e\u00ed", "old_name": "N\u00fdrsko, Zelen\u00e1 Lhota, \u017eel.st.rozc.1.0", "public_transport": "platform", "shelter": "yes"}}, {"type": "node", "id": 5380387561, "lat": 49.2414293, "lon": 13.1738244, "tags": {"bus": "yes", "covered": "yes", "highway": "bus_stop", "name": "N\u00fdrsko, Zelen\u00e1 Lhota", "public_transport": "platform", "shelter": "yes"}}, {"type": "node", "id": 5380392482, "lat": 49.2451263, "lon": 13.1707373, "tags": {"bus": "yes", "covered": "yes", "highway": "bus_stop", "name": "N\u00fdrsko, Zelen\u00e1 Lhota, host.", "public_transport": "platform", "shelter": "yes"}}, {"type": "node", "id": 5380399150, "lat": 49.2375797, "lon": 13.1567502, "tags": {"covered": "yes", "highway": "bus_stop", "name": "Hamry, rozc. 1.0", "public_transport": "platform", "shelter": "yes"}}, {"type": "node", "id": 5380405876, "lat": 49.2150644, "lon": 13.1604021, "tags": {"bus": "yes", "covered": "yes", "highway": "bus_stop", "name": "Hamry, hostinec", "official_name": "Hamry, host.", "public_transport": "platform", "shelter": "yes"}}, {"type": "node", "id": 5380425283, "lat": 49.2070262, "lon": 13.1774354, "tags": {"bus": "yes", "highway": "bus_stop", "name": "Hamry, to\u010dna", "public_transport": "platform"}}, {"type": "node", "id": 5831428946, "lat": 48.9699943, "lon": 13.130596, "tags": {"bus": "yes", "highway": "bus_stop", "lit": "yes", "name": "Auwiesenweg", "public_transport": "platform", "shelter": "no", "tactile_paving": "no"}}, {"type": "node", "id": 5833519215, "lat": 48.9749954, "lon": 13.123067, "tags": {"bus": "yes", "highway": "bus_stop", "lit": "yes", "name": "Schulbus", "public_transport": "platform", "tactile_paving": "no"}}, {"type": "node", "id": 5835191017, "lat": 48.9825653, "lon": 13.1218332, "tags": {"bus": "yes", "highway": "bus_stop", "name": "Gasthof Loderbauer", "note": "Stadtbuslinie 1", "public_transport": "platform", "ref:IFOPT": "de:09276:10349:0:1", "surface": "unpaved", "wheelchair": "no"}}, {"type": "node", "id": 5835225241, "lat": 48.9742771, "lon": 13.1193709, "tags": {"bench": "yes", "bin": "no", "bus": "yes", "highway": "bus_stop", "kerb": "raised", "kerb:height": "0.11", "lit": "yes", "name": "Pfleggasse/BRK", "platform:width": "1.5", "public_transport": "platform", "ref:IFOPT": "de:09276:10282:0:2", "shelter": "no", "tactile_paving": "no"}}, {"type": "node", "id": 5835225242, "lat": 48.972145, "lon": 13.1170508, "tags": {"bench": "no", "bin": "no", "highway": "bus_stop", "name": "Blumenstra\u00dfe", "note": "FIXME: Position noch nicht korrekt! Sollte aber wg Namen hier in der N\u00e4he sein...", "public_transport": "platform", "shelter": "no", "tactile_paving": "no"}}, {"type": "node", "id": 5835225243, "lat": 48.9721397, "lon": 13.114897, "tags": {"bench": "yes", "bin": "no", "bus": "yes", "highway": "bus_stop", "kerb": "raised", "kerb:height": "0.10", "name": "St.-Florian-Stra\u00dfe", "note": "FIXME: Position noch nicht korrekt! Sollte aber wg Namen hier in der N\u00e4he sein...", "platform:width": "1.8", "public_transport": "platform", "ref:IFOPT": "de:09276:10276:0:1", "shelter": "no", "tactile_paving": "no"}}, {"type": "node", "id": 5835225244, "lat": 48.9726379, "lon": 13.110525, "tags": {"bench": "no", "bin": "no", "bus": "yes", "highway": "bus_stop", "kerb": "raised", "kerb:height": "0.14", "lit": "yes", "name": "Waldfriedhof", "platform:width": "1.45", "public_transport": "platform", "ref:IFOPT": "de:09276:10275:0:1", "shelter": "no", "tactile_paving": "no"}}, {"type": "node", "id": 5835225245, "lat": 48.9733546, "lon": 13.0965534, "tags": {"highway": "bus_stop", "name": "Hagebaumarkt", "public_transport": "platform"}}, {"type": "node", "id": 5837223775, "lat": 48.9694845, "lon": 13.1468877, "tags": {"bus": "yes", "highway": "bus_stop", "lit": "yes", "name": "Regen, Riedhamring", "public_transport": "platform", "ref:IFOPT": "de:09276:10262:0:1", "surface": "unpaved", "tactile_paving": "no", "wheelchair": "no"}}, {"type": "node", "id": 5837274392, "lat": 48.9821023, "lon": 13.1207308, "tags": {"highway": "bus_stop", "name": "B\u00e4rndorf/Feuerwehrhaus", "note": "FIXME: Position noch nicht korrekt! Sollte aber wg Namen hier in der N\u00e4he sein...", "operator": "Stadtlinie UV Moser", "public_transport": "platform"}}, {"type": "node", "id": 5837274393, "lat": 48.9786643, "lon": 13.1181868, "tags": {"bus": "yes", "highway": "bus_stop", "kerb": "raised", "kerb:height": "0.04", "lit": "yes", "name": "Eben\u00e4ckerhof", "operator": "Stadtlinie UV Moser", "platform:width": "1.20", "public_transport": "platform", "ref:IFOPT": "de:09276:10284:0:1", "tactile_paving": "no", "wheelchair": "limited"}}, {"type": "node", "id": 5837274395, "lat": 48.9725252, "lon": 13.1069548, "tags": {"bench": "no", "bin": "no", "bus": "yes", "highway": "bus_stop", "lit": "yes", "name": "Maschenberg", "operator": "Stadtlinie UV Moser", "platform:width": "1.5", "public_transport": "platform", "ref:IFOPT": "de:09276:10274:0:1", "shelter": "no", "tactile_paving": "no"}}, {"type": "node", "id": 5837274396, "lat": 48.9687732, "lon": 13.1130141, "tags": {"bench": "no", "bin": "no", "highway": "bus_stop", "lit": "yes", "name": "Johannesfeldstra\u00dfe", "operator": "Stadtlinie UV Moser", "public_transport": "platform", "shelter": "no", "tactile_paving": "no"}}, {"type": "node", "id": 5837274397, "lat": 48.968252, "lon": 13.1067324, "tags": {"alt_name": "Maschenberger Stra\u00dfe/Kl\u00e4ranlage", "bench": "no", "bin": "no", "highway": "bus_stop", "lit": "no", "name": "Reithalle", "note": "FIXME: Position noch nicht korrekt! Sollte aber wg Namen hier in der N\u00e4he sein...", "operator": "Stadtlinie UV Moser", "public_transport": "platform", "shelter": "no", "tactile_paving": "no"}}, {"type": "node", "id": 5837274398, "lat": 48.9905054, "lon": 13.1243625, "tags": {"highway": "bus_stop", "name": "Schollenried", "note": "Stadtbuslinie 1", "public_transport": "platform"}}, {"type": "node", "id": 5839732785, "lat": 49.2643166, "lon": 13.3034862, "tags": {"bus": "yes", "highway": "bus_stop", "name": "\u010cachrov", "public_transport": "platform"}}, {"type": "node", "id": 5844760995, "lat": 48.9782453, "lon": 13.1371003, "tags": {"bench": "yes", "bin": "yes", "bus": "yes", "highway": "bus_stop", "kerb": "raised", "kerb:height": "0.03", "lit": "yes", "name": "B\u00fcrgerholzstra\u00dfe/Tanzschule", "platform:width": "3.00", "public_transport": "platform", "ref:IFOPT": "de:09276:10254:0:1", "shelter": "yes", "tactile_paving": "no", "wheelchair": "limited"}}, {"type": "node", "id": 5868831249, "lat": 49.2516358, "lon": 13.4279358, "tags": {"bench": "yes", "highway": "bus_stop", "name": "Hlav\u0148ovice, Cihelna", "public_transport": "platform", "shelter": "yes"}}, {"type": "node", "id": 6313969840, "lat": 49.0696739, "lon": 13.0949349, "tags": {"bench": "no", "bin": "no", "bus": "yes", "highway": "bus_stop", "lit": "yes", "name": "Bodenmais JOSKA Arkaden", "platform:width": "2.7", "public_transport": "platform", "ref:IFOPT": "de:09276:962:0:1", "shelter": "no", "tactile_paving": "no"}}, {"type": "node", "id": 6313969841, "lat": 49.0693929, "lon": 13.0956974, "tags": {"bench": "no", "bin": "no", "bus": "yes", "highway": "bus_stop", "lit": "yes", "name": "Bodenmais, Joska Arkaden", "platform:width": "2.2", "public_transport": "platform", "ref:IFOPT": "de:09276:962:0:2", "shelter": "no", "tactile_paving": "no"}}, {"type": "node", "id": 6313982150, "lat": 49.130017, "lon": 13.1414316, "tags": {"bench": "no", "bin": "no", "bus": "yes", "highway": "bus_stop", "lit": "no", "name": "Thurnhoflift, Hst.", "platform:width": "3.50", "public_transport": "platform", "ref:IFOPT": "de:09276:936:0:1", "shelter": "no", "tactile_paving": "no"}}, {"type": "node", "id": 6688382901, "lat": 49.1380815, "lon": 13.6637869, "tags": {"bus": "yes", "highway": "bus_stop", "official_name": "Vacov,Javorn\u00edk", "public_transport": "platform", "ref:CIS_JR": "37990"}}, {"type": "node", "id": 6688382902, "lat": 49.1380798, "lon": 13.6639653, "tags": {"bus": "yes", "highway": "bus_stop", "official_name": "Vacov,Javorn\u00edk", "public_transport": "platform", "ref:CIS_JR": "37990"}}, {"type": "node", "id": 6688382939, "lat": 49.1239621, "lon": 13.6202721, "tags": {"bench": "no", "bin": "no", "bus": "yes", "highway": "bus_stop", "official_name": "Nicov", "public_transport": "platform", "ref:CIS_JR": "23194", "shelter": "no"}}, {"type": "node", "id": 6688382940, "lat": 49.1240968, "lon": 13.6202689, "tags": {"bus": "yes", "highway": "bus_stop", "name": "Nicov", "official_name": "Nicov", "public_transport": "platform", "ref:CIS_JR": "23194", "shelter": "yes"}}, {"type": "node", "id": 6688383114, "lat": 49.1351548, "lon": 13.6825262, "tags": {"bus": "yes", "highway": "bus_stop", "official_name": "Vacov,,Bo\u0161ice", "public_transport": "platform", "ref:CIS_JR": "37986"}}, {"type": "node", "id": 6688383145, "lat": 49.1005206, "lon": 13.6457933, "tags": {"bench": "no", "bin": "no", "bus": "yes", "highway": "bus_stop", "lit": "no", "name": "Stachy, Michalov", "official_name": "Stachy,,Michalov", "public_transport": "platform", "ref:CIS_JR": "32671", "shelter": "no", "tactile_paving": "no"}}, {"type": "node", "id": 6688383168, "lat": 49.1001602, "lon": 13.6454708, "tags": {"bench": "no", "bin": "yes", "bus": "yes", "highway": "bus_stop", "lit": "yes", "name": "Stachy, Michalov", "official_name": "Stachy,,Michalov", "public_transport": "platform", "ref:CIS_JR": "32671", "shelter": "yes", "tactile_paving": "no"}}, {"type": "node", "id": 6699801991, "lat": 49.0071014, "lon": 13.2500232, "tags": {"bench": "no", "bin": "no", "highway": "bus_stop", "note": "fixme: Name?", "shelter": "no"}}, {"type": "node", "id": 6703086808, "lat": 49.0910256, "lon": 13.6426122, "tags": {"bench": "no", "bin": "no", "bus": "yes", "highway": "bus_stop", "official_name": "Stachy,K\u016fsov,dom.d\u016fch.", "public_transport": "platform", "ref:CIS_JR": "32670", "shelter": "no", "tactile_paving": "no"}}, {"type": "node", "id": 6703086920, "lat": 49.0858504, "lon": 13.6416956, "tags": {"bus": "yes", "highway": "bus_stop", "official_name": "Stachy,K\u016fsov", "public_transport": "platform", "ref:CIS_JR": "32669"}}, {"type": "node", "id": 6703086964, "lat": 49.0855921, "lon": 13.6796844, "tags": {"bus": "yes", "highway": "bus_stop", "name": "Mas\u00e1kova Lhota", "official_name": "Zd\u00edkov,Mas\u00e1kova Lhota", "public_transport": "platform", "ref:CIS_JR": "41763"}}, {"type": "node", "id": 6705359568, "lat": 49.0992632, "lon": 13.6890896, "tags": {"bench": "yes", "bin": "yes", "bus": "yes", "highway": "bus_stop", "official_name": "Zd\u00edkov,Zd\u00edkovec,rozc.0.5", "public_transport": "platform", "ref:CIS_JR": "41769", "shelter": "yes"}}, {"type": "node", "id": 6708381631, "lat": 49.0147359, "lon": 13.1459959, "tags": {"bench": "yes", "bus": "yes", "highway": "bus_stop", "kerb": "raised", "kerb:height": "0.05", "lit": "yes", "name": "Langdorf, Regener Stra\u00dfe", "passenger_information_display": "no", "platform:width": "1.2", "public_transport": "platform", "public_transport:version": "2", "ref:IFOPT": "de:09276:5024:0:2", "shelter": "no", "tactile_paving": "no"}},