{"version": 0.6, "generator": "Overpass API 0.7.62.8 e802775f", "osm3s": {"timestamp_osm_base": "2026-01-05T16:43:34Z", "copyright": "The data included in this document is from www.openstreetmap.org. The data is made available under ODbL."}, "elements": [{"type": "node", "id": 274055431, "lat": 49.675561, "lon": 14.3822432, "tags": {"name": "V\u011btrn\u00fd ml\u00fdn", "tourism": "attraction"}}, {"type": "node", "id": 274593795, "lat": 49.7447918, "lon": 14.3431906}, {"type": "node", "id": 274594161, "lat": 49.7466746, "lon": 14.3640777, "tags": {"historic": "wayside_shrine", "name": "svat\u00fd Jan Nepomuck\u00fd", "tourism": "viewpoint"}}, {"type": "node", "id": 369977391, "lat": 49.7447724, "lon": 14.3432221}, {"type": "node", "id": 369977392, "lat": 49.7448138, "lon": 14.343223}, {"type": "node", "id": 369977393, "lat": 49.7447944, "lon": 14.3432545}, {"type": "node", "id": 441075185, "lat": 49.627762, "lon": 14.20486, "tags": {"tourism": "viewpoint"}}, {"type": "node", "id": 567104009, "lat": 49.6095347, "lon": 14.3423575, "tags": {"ele": "462", "hiking": "yes", "information": "guidepost", "name": "Bl\u00e1hova Lhota", "operator": "cz:K\u010cT", "ref": "PB167;0025/44;6056/16", "tourism": "information"}}, {"type": "node", "id": 567381069, "lat": 49.6144944, "lon": 14.3251796, "tags": {"hiking": "yes", "information": "guidepost", "name": "Ple\u0161i\u0161t\u011b", "operator": "cz:K\u010cT", "ref": "PB204", "tourism": "information"}}, {"type": "node", "id": 567393543, "lat": 49.5955261, "lon": 14.382182, "tags": {"hiking": "yes", "information": "guidepost", "name": "Po\u010depice", "operator": "cz:K\u010cT", "ref": "PB193", "tourism": "information"}}, {"type": "node", "id": 567417303, "lat": 49.610264, "lon": 14.3510058, "tags": {"hiking": "yes", "information": "guidepost", "name": "Po\u0159e\u0161ice", "ref": "PB166", "tourism": "information"}}, {"type": "node", "id": 567432121, "lat": 49.6231949, "lon": 14.3150578, "tags": {"hiking": "yes", "information": "guidepost", "name": "Smr\u010d\u00ed", "operator": "cz:K\u010cT", "ref": "PB205", "tourism": "information"}}, {"type": "node", "id": 764629802, "lat": 49.7070112, "lon": 14.2459615, "tags": {"ele": "508", "name": "Bes\u00eddka", "natural": "peak"}}, {"type": "node", "id": 791062243, "lat": 49.7465479, "lon": 14.3438508, "tags": {"board_type": "nature", "information": "board", "name": "Lo\u017eisko Mokrsko-Z\u00e1pad", "tourism": "information"}}, {"type": "node", "id": 791062530, "lat": 49.7325352, "lon": 14.351628, "tags": {"board_type": "history", "information": "board", "name": "Kov\u00e1rna a p\u016fvodn\u00ed hlavn\u00ed \u0161achta", "tourism": "information"}}, {"type": "node", "id": 791062656, "lat": 49.7303843, "lon": 14.348352, "tags": {"board_type": "history", "information": "board", "name": "UEF Josef", "tourism": "information"}}, {"type": "node", "id": 791129704, "lat": 49.7309649, "lon": 14.3478531, "tags": {"information": "board", "tourism": "information"}}, {"type": "node", "id": 791736555, "lat": 49.6513323, "lon": 14.3585795, "tags": {"hiking": "yes", "information": "guidepost", "name": "T\u0159ebnice", "operator": "cz:K\u010cT", "ref": "PB190", "tourism": "information"}}, {"type": "node", "id": 791736637, "lat": 49.6365603, "lon": 14.3110171, "tags": {"ele": "418", "hiking": "yes", "information": "guidepost", "name": "Svat\u00fd Jan", "operator": "cz:K\u010cT", "ref": "PB188", "tourism": "information"}}, {"type": "node", "id": 791736668, "lat": 49.6414236, "lon": 14.3833481, "tags": {"hiking": "yes", "information": "guidepost", "name": "O\u0159\u00edkov", "operator": "cz:K\u010cT", "ref": "PB191", "tourism": "information"}}, {"type": "node", "id": 791736692, "lat": 49.6512949, "lon": 14.3586573, "tags": {"information": "map", "tourism": "information"}}, {"type": "node", "id": 791795824, "lat": 49.6402452, "lon": 14.2559934, "tags": {"hiking": "yes", "information": "guidepost", "name": "Kam\u00fdk nad Vltavou", "operator": "cz:K\u010cT", "ref": "PB185", "tourism": "information"}}, {"type": "node", "id": 791795831, "lat": 49.6410401, "lon": 14.2528009, "tags": {"hiking": "yes", "information": "guidepost", "name": "Kam\u00fdk nad Vltavou", "operator": "cz:K\u010cT", "ref": "PB184", "tourism": "information"}}, {"type": "node", "id": 791958605, "lat": 49.6560629, "lon": 14.2214923, "tags": {"hiking": "yes", "information": "guidepost", "name": "Doln\u00ed T\u0159t\u00ed", "operator": "cz:K\u010cT", "ref": "PB182", "tourism": "information"}}, {"type": "node", "id": 857443308, "lat": 49.6272741, "lon": 14.2021494, "tags": {"direction": "180", "name": "Nad podkovou", "tourism": "viewpoint"}}, {"type": "node", "id": 857443502, "lat": 49.6276688, "lon": 14.2036529, "tags": {"direction": "180", "tourism": "viewpoint"}}, {"type": "node", "id": 899722503, "lat": 49.7188683, "lon": 14.3300961, "tags": {"ele": "287", "hiking": "yes", "information": "guidepost", "name": "Chol\u00edn", "operator": "cz:K\u010cT", "ref": "PB112", "tourism": "information"}}, {"type": "node", "id": 900311439, "lat": 49.6543327, "lon": 14.2699665, "tags": {"hiking": "yes", "information": "guidepost", "name": "Hoj\u0161\u00edn", "operator": "cz:K\u010cT", "ref": "PB124", "tourism": "information"}}, {"type": "node", "id": 900311493, "lat": 49.6505695, "lon": 14.2889189, "tags": {"horse": "yes", "information": "guidepost", "name": "Dr\u00e1\u017ekov", "operator": "cz:K\u010cT", "ref": "173;147;146", "tourism": "information"}}, {"type": "node", "id": 900311694, "lat": 49.6656651, "lon": 14.3228385, "tags": {"horse": "yes", "information": "guidepost", "name": "Chramosty", "tourism": "information"}}, {"type": "node", "id": 900312129, "lat": 49.6763497, "lon": 14.3194107, "tags": {"horse": "yes", "information": "guidepost", "name": "L\u00edchovy", "operator": "cz:K\u010cT", "ref": "160;161;178", "tourism": "information"}}, {"type": "node", "id": 901570087, "lat": 49.6802595, "lon": 14.2242712, "tags": {"hiking": "yes", "information": "guidepost", "name": "Obory (rozc.)", "operator": "cz:K\u010cT", "ref": "PB062", "tourism": "information"}}, {"type": "node", "id": 901570546, "lat": 49.6700586, "lon": 14.2231287, "tags": {"hiking": "yes", "information": "guidepost", "name": "V\u00e1penice", "operator": "cz:K\u010cT", "ref": "PB075", "tourism": "information"}}, {"type": "node", "id": 901570971, "lat": 49.679908, "lon": 14.2644444, "tags": {"hiking": "yes", "information": "guidepost", "name": "Vestec", "operator": "cz:K\u010cT", "ref": "PB060", "tourism": "information"}}, {"type": "node", "id": 901647906, "lat": 49.7049935, "lon": 14.243183, "tags": {"ele": "442", "hiking": "yes", "information": "guidepost", "name": "\u017debr\u00e1k", "operator": "cz:K\u010cT", "ref": "PB057", "tourism": "information"}}, {"type": "node", "id": 901648063, "lat": 49.686562, "lon": 14.2749153, "tags": {"hiking": "yes", "information": "guidepost", "name": "H\u0159im\u011b\u017edice", "operator": "cz:K\u010cT", "ref": "PB059", "tourism": "information"}}, {"type": "node", "id": 901648099, "lat": 49.6870855, "lon": 14.273803, "tags": {"information": "map", "tourism": "information"}}, {"type": "node", "id": 901649094, "lat": 49.721581, "lon": 14.2615725, "tags": {"hiking": "yes", "information": "guidepost", "name": "Slovansk\u00e1 Lhota", "operator": "cz:K\u010cT", "ref": "PB056", "tourism": "information"}}, {"type": "node", "id": 901649767, "lat": 49.6974338, "lon": 14.2644124, "tags": {"ele": "392", "hiking": "yes", "information": "guidepost", "name": "P\u0159edn\u00ed h\u00e1je", "operator": "cz:K\u010cT", "ref": "PB058", "tourism": "information"}}, {"type": "node", "id": 925092957, "lat": 49.744754, "lon": 14.3435356, "tags": {"ele": "489", "name": "Vesel\u00fd vrch", "natural": "peak", "wikidata": "Q11883681", "wikipedia": "cs:Vesel\u00fd vrch (Bene\u0161ovsk\u00e1 pahorkatina)"}}, {"type": "node", "id": 1322643447, "lat": 49.5520234, "lon": 14.3451297, "tags": {"name": "Vr\u0161k\u00e1men", "tourism": "attraction"}}, {"type": "node", "id": 1354039228, "lat": 49.7254115, "lon": 14.3680976, "tags": {"name": "Albertovy sk\u00e1ly", "tourism": "viewpoint"}}, {"type": "node", "id": 1354039322, "lat": 49.7178808, "lon": 14.3700576, "tags": {"hiking": "yes", "information": "guidepost", "name": "U K\u0159\u00ed\u017eku", "operator": "cz:K\u010cT", "ref": "1058/5;6138/3", "tourism": "information"}}, {"type": "node", "id": 1642582987, "lat": 49.7213098, "lon": 14.367212, "tags": {"name": "Bart\u016f\u0148kova vyhl\u00eddka", "tourism": "viewpoint"}}, {"type": "node", "id": 1658997576, "lat": 49.7295165, "lon": 14.3968866, "tags": {"hiking": "yes", "information": "guidepost", "name": "Hrazany", "operator": "cz:K\u010cT", "ref": "PB131", "tourism": "information"}}, {"type": "node", "id": 1722339031, "lat": 49.7172272, "lon": 14.3544163, "tags": {"hiking": "yes", "information": "guidepost", "name": "Drb\u00e1kov", "operator": "cz:K\u010cT", "ref": "1058/4", "tourism": "information"}}, {"type": "node", "id": 1722339057, "lat": 49.7029116, "lon": 14.3464032, "tags": {"ele": "353", "hiking": "yes", "information": "guidepost", "name": "K\u0159epenice", "operator": "cz:K\u010cT", "ref": "1058/0;1055/61;6050/0", "tourism": "information"}}, {"type": "node", "id": 1722340104, "lat": 49.7175662, "lon": 14.3620867, "tags": {"board_type": "nature", "information": "board", "tourism": "information"}}, {"type": "node", "id": 1722340310, "lat": 49.7234089, "lon": 14.3682102, "tags": {"tourism": "viewpoint"}}, {"type": "node", "id": 1722340520, "lat": 49.7254915, "lon": 14.367634, "tags": {"information": "board", "tourism": "information"}}, {"type": "node", "id": 1722341167, "lat": 49.7326197, "lon": 14.3678346, "tags": {"information": "board", "tourism": "information"}}, {"type": "node", "id": 1722851346, "lat": 49.6984642, "lon": 14.379655, "tags": {"hiking": "yes", "information": "guidepost", "name": "Chlum", "operator": "cz:K\u010cT", "ref": "PB134", "tourism": "information"}}, {"type": "node", "id": 1722851348, "lat": 49.6718481, "lon": 14.3913304, "tags": {"hiking": "yes", "information": "guidepost", "name": "P\u0159\u00ed\u010dovy", "operator": "cz:K\u010cT", "ref": "PB135", "tourism": "information"}}, {"type": "node", "id": 1764561727, "lat": 49.5677222, "lon": 14.3191938, "tags": {"tourism": "viewpoint"}}, {"type": "node", "id": 1778054318, "lat": 49.5871477, "lon": 14.3493233, "tags": {"ele": "580", "name": "K\u0159emenice", "natural": "peak", "source": "\u010c\u00daZK"}}, {"type": "node", "id": 1778054330, "lat": 49.6077242, "lon": 14.3901499, "tags": {"ele": "486", "name": "Pivovarsk\u00e1 hora", "natural": "peak", "wikidata": "Q86598958", "wikipedia": "cs:Pivovarsk\u00e1 hora"}}, {"type": "node", "id": 1778054338, "lat": 49.5914844, "lon": 14.3729193, "tags": {"ele": "536", "name": "Po\u010depick\u00e1 hora", "natural": "peak"}}, {"type": "node", "id": 1778054341, "lat": 49.6032981, "lon": 14.3691877, "tags": {"ele": "546", "name": "Rade\u0161\u00edn", "natural": "peak", "source": "\u010c\u00daZK"}}, {"type": "node", "id": 1778054346, "lat": 49.5871109, "lon": 14.3977554, "tags": {"ele": "565", "name": "Skuhrovsk\u00fd vrch", "natural": "peak"}}, {"type": "node", "id": 1778054350, "lat": 49.6171585, "lon": 14.3749513, "tags": {"ele": "553", "name": "P\u00fdrn\u00fd", "natural": "peak", "source": "\u010c\u00daZK"}}, {"type": "node", "id": 1799427868, "lat": 49.6717074, "lon": 14.2303184, "tags": {"ele": "455.8", "name": "Velk\u00e1 hora", "natural": "peak"}}, {"type": "node", "id": 1799427869, "lat": 49.6614496, "lon": 14.2153808, "tags": {"ele": "480", "name": "Chotinsk\u00e1", "natural": "peak"}}, {"type": "node", "id": 1922500991, "lat": 49.6180254, "lon": 14.23824, "tags": {"tourism": "viewpoint"}}, {"type": "node", "id": 2082378889, "lat": 49.6602304, "lon": 14.2525945, "tags": {"bicycle": "yes", "hiking": "yes", "information": "map", "map_size": "region", "map_type": "topo", "name": "Sedl\u010dansko", "tourism": "information"}}, {"type": "node", "id": 2090162196, "lat": 49.6655707, "lon": 14.2475004, "tags": {"name": "Vyhl\u00eddka Lavi\u010dka", "tourism": "viewpoint"}}, {"type": "node", "id": 2234201227, "lat": 49.6654026, "lon": 14.2188324, "tags": {"ele": "463.2", "natural": "peak", "noname": "yes"}}, {"type": "node", "id": 2234201246, "lat": 49.6525002, "lon": 14.219947, "tags": {"ele": "422", "name": "Perdl\u00e1k", "natural": "peak"}}, {"type": "node", "id": 2234201252, "lat": 49.6519029, "lon": 14.2418237, "tags": {"ele": "391", "name": "\u010cel\u00e1kov\u00e1", "natural": "peak"}}, {"type": "node", "id": 2234201280, "lat": 49.655565, "lon": 14.2046798, "tags": {"ele": "502.9", "name": "\u010cepel", "natural": "peak"}}, {"type": "node", "id": 2234201284, "lat": 49.6723793, "lon": 14.2518922, "tags": {"ele": "357", "name": "Pat\u011bkov\u00e1", "natural": "peak"}}, {"type": "node", "id": 2234201297, "lat": 49.6682728, "lon": 14.2462892, "tags": {"ele": "391", "name": "Barovec", "natural": "peak"}}, {"type": "node", "id": 2380655845, "lat": 49.6353687, "lon": 14.2692893, "tags": {"board_type": "history", "information": "board", "name": "NS Kam\u00fdk nad Vltavou: \u017didovsk\u00fd h\u0159bitov", "tourism": "information"}}, {"type": "node", "id": 2391355003, "lat": 49.6612751, "lon": 14.2560912, "tags": {"tourism": "viewpoint"}}, {"type": "node", "id": 2415650929, "lat": 49.7120234, "lon": 14.2140576, "tags": {"hiking": "yes", "information": "guidepost", "name": "B\u011blohradsk\u00e9 poles\u00ed (rozcest\u00ed)", "ref": "PB092", "source": "survey", "tourism": "information"}}, {"type": "node", "id": 2415650930, "lat": 49.6986263, "lon": 14.2339772, "tags": {"hiking": "yes", "information": "guidepost", "name": "Ne\u010d\u00edn", "ref": "PB080", "source": "survey", "tourism": "information"}}, {"type": "node", "id": 2415650951, "lat": 49.7120916, "lon": 14.2141326, "tags": {"amenity": "shelter", "shelter_type": "picnic_shelter"}}, {"type": "node", "id": 2479911296, "lat": 49.6174737, "lon": 14.389856, "tags": {"check_date": "2021-08-24", "information": "map", "tourism": "information"}}, {"type": "node", "id": 2510091763, "lat": 49.5641519, "lon": 14.3132104, "tags": {"man_made": "tower", "name": "Rozhledna Kun\u00ed\u010dek", "tourism": "viewpoint", "tower:type": "observation", "wikidata": "Q12049957", "wikipedia": "cs:Rozhledna Kun\u00ed\u010dek"}}, {"type": "node", "id": 2510112718, "lat": 49.5677204, "lon": 14.3632829, "tags": {"name": "Husova kazatelna", "tourism": "attraction"}}, {"type": "node", "id": 2641536676, "lat": 49.7226709, "lon": 14.3798814, "tags": {"hiking": "yes", "information": "guidepost", "name": "Mus\u00edk", "operator": "cz:K\u010cT", "ref": "PB132", "tourism": "information"}}, {"type": "node", "id": 2641537163, "lat": 49.7253623, "lon": 14.3687862, "tags": {"information": "board", "tourism": "information"}}, {"type": "node", "id": 2711760088, "lat": 49.725249, "lon": 14.3110201, "tags": {"hiking": "yes", "information": "guidepost", "name": "Hubenovsk\u00e1 z\u00e1toka", "operator": "cz:K\u010cT", "ref": "PB123", "source": "survey", "tourism": "information"}}, {"type": "node", "id": 2711760089, "lat": 49.7222166, "lon": 14.3090467, "tags": {"abandoned:information": "guidepost", "abandoned:tourism": "information", "hiking": "yes", "name": "Pod D\u011bjkovem (rozcest\u00ed)", "operator": "cz:K\u010cT", "source": "survey", "tourism": "information"}}, {"type": "node", "id": 2711760212, "lat": 49.7245763, "lon": 14.3198705, "tags": {"source": "survey", "tourism": "viewpoint"}}, {"type": "node", "id": 2711760294, "lat": 49.7091004, "lon": 14.2988931, "tags": {"ele": "300", "hiking": "yes", "information": "guidepost", "name": "\u017dupanovice", "operator": "cz:K\u010cT", "ref": "PB122", "source": "survey", "tourism": "information"}}, {"type": "node", "id": 3281261309, "lat": 49.7113642, "lon": 14.3712873, "tags": {"information": "guidepost", "name": "Nal\u017eovick\u00e9 Podh\u00e1j\u00ed", "tourism": "information"}}, {"type": "node", "id": 3281261312, "lat": 49.7112263, "lon": 14.3713455, "tags": {"hiking": "yes", "information": "guidepost", "name": "Nal\u017eovick\u00e9 Podh\u00e1j\u00ed", "operator": "cz:K\u010cT", "ref": "PB146", "tourism": "information"}}, {"type": "node", "id": 3525533516, "lat": 49.5676007, "lon": 14.3626928, "tags": {"hiking": "yes", "information": "guidepost", "name": "Husova kazatelna", "operator": "cz:K\u010cT", "ref": "1055/33", "tourism": "information"}}, {"type": "node", "id": 3525533517, "lat": 49.5674521, "lon": 14.3546809, "tags": {"ele": "465", "hiking": "yes", "information": "guidepost", "name": "Nad Varovsk\u00fdm potokem", "operator": "cz:K\u010cT", "ref": "PB197", "tourism": "information"}}, {"type": "node", "id": 3525533518, "lat": 49.5538735, "lon": 14.3369583, "tags": {"hiking": "yes", "information": "guidepost", "name": "Petrovice", "operator": "cz:K\u010cT", "ref": "none", "tourism": "information"}}, {"type": "node", "id": 3525533519, "lat": 49.5520418, "lon": 14.3975655, "tags": {"hiking": "yes", "information": "guidepost", "name": "Rade\u0161ice", "operator": "cz:K\u010cT", "ref": "PB211", "tourism": "information"}}, {"type": "node", "id": 3525535523, "lat": 49.5636905, "lon": 14.3678686, "tags": {"hiking": "yes", "information": "guidepost", "name": "\u017demli\u010dkova Lhota", "operator": "cz:K\u010cT", "ref": "1055/32", "tourism": "information"}}, {"type": "node", "id": 3890470011, "lat": 49.7349071, "lon": 14.3607594, "tags": {"hiking": "yes", "information": "guidepost", "name": "\u010castobo\u0159", "operator": "cz:K\u010cT", "ref": "PB147", "tourism": "information"}}, {"type": "node", "id": 3890555995, "lat": 49.7438006, "lon": 14.3431371, "tags": {"hiking": "yes", "information": "guidepost", "name": "Vesel\u00fd vrch rozc.", "operator": "cz:K\u010cT", "ref": "6064/5", "tourism": "information"}}, {"type": "node", "id": 4086250689, "lat": 49.5590527, "lon": 14.2380443, "tags": {"ele": "593", "hiking": "yes", "information": "guidepost", "name": "Onen Sv\u011bt (tur.ch.,rozhl.)", "operator": "cz:K\u010cT", "ref": "PB177", "tourism": "information"}}, {"type": "node", "id": 4086250690, "lat": 49.568167, "lon": 14.2583099, "tags": {"hiking": "yes", "information": "guidepost", "name": "Sychrov", "operator": "cz:K\u010cT", "ref": "0025/54", "tourism": "information"}}, {"type": "node", "id": 4086250691, "lat": 49.5607721, "lon": 14.2424735, "tags": {"hiking": "yes", "information": "guidepost", "name": "Tu\u0161ka", "operator": "cz:K\u010cT", "ref": "0025/55;3065/40", "tourism": "information"}}, {"type": "node", "id": 4086257559, "lat": 49.5590626, "lon": 14.2378381}, {"type": "node", "id": 4384062455, "lat": 49.6871695, "lon": 14.3684009, "tags": {"hiking": "yes", "information": "guidepost", "name": "Mus\u00edk rybn\u00edk", "operator": "cz:K\u010cT", "ref": "PB130", "tourism": "information"}}, {"type": "node", "id": 4384847540, "lat": 49.7106821, "lon": 14.3779709, "tags": {"hiking": "yes", "information": "guidepost", "name": "Ba\u0148ov", "operator": "cz:K\u010cT", "ref": "PB133", "tourism": "information"}}, {"type": "node", "id": 4384847541, "lat": 49.6871192, "lon": 14.3972345, "tags": {"hiking": "yes", "information": "guidepost", "name": "K\u0148ovice", "operator": "cz:K\u010cT", "ref": "PB137", "tourism": "information"}}, {"type": "node", "id": 4384849697, "lat": 49.6871435, "lon": 14.3974759, "tags": {"information": "board", "tourism": "information"}}, {"type": "node", "id": 4384849698, "lat": 49.6871573, "lon": 14.3975456, "tags": {"amenity": "shelter"}}, {"type": "node", "id": 4384903080, "lat": 49.7206881, "lon": 14.368669, "tags": {"hiking": "yes", "information": "guidepost", "name": "Bart\u016f\u0148kova vyhl\u00eddka odbo\u010dka", "operator": "cz:K\u010cT", "ref": "PB139;1058/4", "tourism": "information"}}, {"type": "node", "id": 4384903081, "lat": 49.721282, "lon": 14.3673519, "tags": {"ele": "416", "hiking": "yes", "information": "guidepost", "name": "Bart\u016f\u0148kova vyhl\u00eddka", "operator": "cz:K\u010cT", "ref": "1058/4", "tourism": "information"}}, {"type": "node", "id": 4384903083, "lat": 49.7206673, "lon": 14.3700637, "tags": {"hiking": "yes", "information": "guidepost", "name": "Pod Vyhl\u00eddkou", "operator": "cz:K\u010cT", "ref": "1058/4;6138/3", "tourism": "information"}}, {"type": "node", "id": 4384937881, "lat": 49.746839, "lon": 14.3550567, "tags": {"hiking": "yes", "information": "guidepost", "name": "Nad Sejckou h\u00e1jovnou", "operator": "cz:K\u010cT", "ref": "PB116", "tourism": "information"}}, {"type": "node", "id": 4384937884, "lat": 49.7468699, "lon": 14.3494089, "tags": {"hiking": "yes", "information": "guidepost", "name": "Pod Vesel\u00fdm vrchem (rozc.)", "operator": "cz:K\u010cT", "ref": "1015/0;6064/5;PB088", "tourism": "information"}}, {"type": "node", "id": 4424660396, "lat": 49.7439461, "lon": 14.3381921, "tags": {"ele": "292", "hiking": "yes", "information": "guidepost", "name": "Mokrsko", "operator": "cz:K\u010cT", "ref": "PB114;6064/4", "tourism": "information"}}, {"type": "node", "id": 4427666623, "lat": 49.7277885, "lon": 14.3688141, "tags": {"hiking": "yes", "information": "guidepost", "name": "P\u0159edn\u00ed Hlubok\u00e1", "operator": "cz:K\u010cT", "ref": "6035/10", "tourism": "information"}}, {"type": "node", "id": 4500724563, "lat": 49.5912006, "lon": 14.3959735, "tags": {"hiking": "yes", "information": "guidepost", "name": "Skuhrov", "operator": "cz:K\u010cT", "ref": "PB203", "tourism": "information"}}, {"type": "node", "id": 4613652588, "lat": 49.7508077, "lon": 14.2477827, "tags": {"hiking": "yes", "information": "guidepost", "name": "Hranice h\u00e1jenka", "operator": "cz:K\u010cT", "ref": "PB054", "tourism": "information"}}, {"type": "node", "id": 4613704133, "lat": 49.682517, "lon": 14.2384704, "tags": {"hiking": "yes", "information": "guidepost", "name": "Vrchy", "operator": "cz:K\u010cT", "ref": "PB061", "tourism": "information"}}, {"type": "node", "id": 4613727330, "lat": 49.7038182, "lon": 14.2702074, "tags": {"hiking": "yes", "information": "guidepost", "name": "Zadn\u00ed H\u00e1je", "operator": "cz:K\u010cT", "ref": "PB121", "tourism": "information"}}, {"type": "node", "id": 4613766577, "lat": 49.6981918, "lon": 14.3076735, "tags": {"hiking": "yes", "information": "guidepost", "name": "Zv\u00edrotice", "operator": "cz:K\u010cT", "ref": "PB128", "tourism": "information"}}, {"type": "node", "id": 4615746984, "lat": 49.6460298, "lon": 14.3003827, "tags": {"ele": "365", "hiking": "yes", "information": "guidepost", "name": "Skr\u00fd\u0161ov", "operator": "cz:K\u010cT", "ref": "PB230", "tourism": "information"}}, {"type": "node", "id": 4615747149, "lat": 49.653021, "lon": 14.3086713, "tags": {"hiking": "yes", "information": "guidepost", "name": "U Hradil\u016f", "operator": "cz:K\u010cT", "ref": "PB231", "tourism": "information"}}, {"type": "node", "id": 4615747332, "lat": 49.6665031, "lon": 14.2965557, "tags": {"hiking": "yes", "information": "guidepost", "name": "Hrachov", "operator": "cz:K\u010cT", "ref": "PB126", "tourism": "information"}}, {"type": "node", "id": 4615747333, "lat": 49.6767958, "lon": 14.2884437, "tags": {"hiking": "yes", "information": "guidepost", "name": "Zr\u016fbek hotel", "operator": "cz:K\u010cT", "ref": "PB125", "tourism": "information"}}, {"type": "node", "id": 4615747334, "lat": 49.6868311, "lon": 14.2968239, "tags": {"hiking": "yes", "information": "guidepost", "name": "Bu\u010dily", "operator": "cz:K\u010cT", "ref": "PB127", "tourism": "information"}}, {"type": "node", "id": 4615794564, "lat": 49.665334, "lon": 14.2572267, "tags": {"ele": "280", "hiking": "yes", "information": "guidepost", "name": "Rovi\u0161t\u011b atc", "operator": "cz:K\u010cT", "ref": "PB151", "tourism": "information"}}, {"type": "node", "id": 4616434150, "lat": 49.6812449, "lon": 14.2173708, "tags": {"hiking": "yes", "information": "guidepost", "name": "Obory", "operator": "cz:K\u010cT", "ref": "PB063", "tourism": "information"}}, {"type": "node", "id": 4616559956, "lat": 49.6403851, "lon": 14.2368879, "tags": {"hiking": "yes", "information": "guidepost", "name": "Vr\u0161kam\u00fdk (z\u0159\u00edc.)", "operator": "cz:K\u010cT", "ref": "PB294", "tourism": "information"}}, {"type": "node", "id": 4616559957, "lat": 49.6539836, "lon": 14.2132416, "tags": {"hiking": "yes", "information": "guidepost", "name": "Horn\u00ed T\u0159t\u00ed", "operator": "cz:K\u010cT", "ref": "PB181", "tourism": "information"}}, {"type": "node", "id": 4618106047, "lat": 49.6347293, "lon": 14.2963575, "tags": {"hiking": "yes", "information": "guidepost", "name": "Brzina", "operator": "cz:K\u010cT", "ref": "PB187", "tourism": "information"}}, {"type": "node", "id": 4618171126, "lat": 49.6480619, "lon": 14.3464579, "tags": {"hiking": "yes", "information": "guidepost", "name": "\u0160t\u00edle\u010dek", "operator": "cz:K\u010cT", "ref": "PB189", "tourism": "information"}}, {"type": "node", "id": 4618222408, "lat": 49.6340275, "lon": 14.3932648, "tags": {"hiking": "yes", "information": "guidepost", "name": "\u00dastupenice", "operator": "cz:K\u010cT", "ref": "PB164", "tourism": "information"}}, {"type": "node", "id": 4618222409, "lat": 49.6307024, "lon": 14.3772252, "tags": {"hiking": "yes", "information": "guidepost", "name": "Pou\u0161\u0165 Sv. Marka", "operator": "cz:K\u010cT", "ref": "PB165", "tourism": "information"}}, {"type": "node", "id": 4618312445, "lat": 49.6178854, "lon": 14.3894078, "tags": {"bicycle": "yes", "hiking": "yes", "information": "guidepost", "name": "Vysok\u00fd Chlumec", "operator": "cz:K\u010cT", "ref": "PB192", "tourism": "information"}}, {"type": "node", "id": 4618399224, "lat": 49.604485, "lon": 14.2767268, "tags": {"hiking": "yes", "information": "guidepost", "name": "Kr\u00e1sn\u00e1 Hora n\u00e1m.", "operator": "cz:K\u010cT", "ref": "PB232", "tourism": "information"}}, {"type": "node", "id": 4618399238, "lat": 49.6278065, "lon": 14.2972028, "tags": {"hiking": "yes", "information": "guidepost", "name": "Bra\u017en\u00e1", "operator": "cz:K\u010cT", "ref": "PB234", "tourism": "information"}}, {"type": "node", "id": 4618399239, "lat": 49.6045982, "lon": 14.3103992, "tags": {"hiking": "yes", "information": "guidepost", "name": "Vletice", "operator": "cz:K\u010cT", "ref": "PB229", "tourism": "information"}}, {"type": "node", "id": 4620132957, "lat": 49.6174023, "lon": 14.2557435, "tags": {"hiking": "yes", "information": "guidepost", "name": "Zho\u0159", "operator": "cz:K\u010cT", "ref": "PB235", "tourism": "information"}}, {"type": "node", "id": 4620132958, "lat": 49.6314692, "lon": 14.2472087, "tags": {"hiking": "yes", "information": "guidepost", "name": "Kam\u00fdk p\u0159ehrada", "operator": "cz:K\u010cT", "ref": "PB249", "tourism": "information"}}, {"type": "node", "id": 4620132959, "lat": 49.611782, "lon": 14.2419087, "tags": {"hiking": "yes", "information": "guidepost", "name": "U Slupn\u00e9 strouhy", "operator": "cz:K\u010cT", "ref": "PB238", "tourism": "information"}}, {"type": "node", "id": 4620132960, "lat": 49.6083998, "lon": 14.2662792, "tags": {"hiking": "yes", "information": "guidepost", "name": "Ve vindi\u0161i", "operator": "cz:K\u010cT", "ref": "PB237", "tourism": "information"}}, {"type": "node", "id": 4620197844, "lat": 49.615164, "lon": 14.2046692, "tags": {"hiking": "yes", "information": "guidepost", "name": "\u0160efrovna", "operator": "cz:K\u010cT", "ref": "PB220", "tourism": "information"}}, {"type": "node", "id": 4620199888, "lat": 49.6375119, "lon": 14.2091686, "tags": {"hiking": "yes", "information": "guidepost", "name": "Zduchovice", "operator": "cz:K\u010cT", "ref": "PB293", "tourism": "information"}}, {"type": "node", "id": 4620199958, "lat": 49.5985473, "lon": 14.2026736, "tags": {"hiking": "yes", "information": "guidepost", "name": "H\u0159ebeny", "operator": "cz:K\u010cT", "ref": "PB217", "tourism": "information"}}, {"type": "node", "id": 4620200159, "lat": 49.607615, "lon": 14.2036366, "tags": {"hiking": "yes", "information": "guidepost", "name": "U Jaro\u0161\u016f", "operator": "cz:K\u010cT", "ref": "PB219", "tourism": "information"}}, {"type": "node", "id": 4712981936, "lat": 49.5541827, "lon": 14.2399055, "tags": {"ele": "530", "hiking": "yes", "information": "guidepost", "name": "La\u0161ovice", "operator": "cz:K\u010cT", "ref": "MI383", "tourism": "information"}}, {"type": "node", "id": 4713038606, "lat": 49.5891511, "lon": 14.2206579, "tags": {"hiking": "yes", "information": "guidepost", "name": "Mile\u0161ov", "operator": "cz:K\u010cT", "ref": "PB216", "tourism": "information"}}, {"type": "node", "id": 4713038607, "lat": 49.5645829, "lon": 14.2247563, "tags": {"hiking": "yes", "information": "guidepost", "name": "Plan\u00e1 bus", "operator": "cz:K\u010cT", "ref": "PB215", "tourism": "information"}}, {"type": "node", "id": 4713038615, "lat": 49.565331, "lon": 14.2329638, "tags": {"hiking": "yes", "information": "guidepost", "name": "Plan\u00e1 bus", "operator": "cz:K\u010cT", "ref": "PB214", "tourism": "information"}}, {"type": "node", "id": 5095287030, "lat": 49.5537046, "lon": 14.3380487, "tags": {"hiking": "yes", "information": "guidepost", "name": "Petrovice", "operator": "cz:K\u010cT", "ref": "PB198", "tourism": "information"}}, {"type": "node", "id": 5894970584, "lat": 49.5911671, "lon": 14.3177158, "tags": {"ele": "390", "hiking": "yes", "information": "guidepost", "name": "Rozcest\u00ed pod peklem", "operator": "cz:K\u010cT", "ref": "PB170", "tourism": "information"}}, {"type": "node", "id": 5894971385, "lat": 49.5861197, "lon": 14.3169327, "tags": {"hiking": "yes", "information": "guidepost", "name": "\u010cerven\u00fd ml\u00fdn", "operator": "cz:K\u010cT", "ref": "PB171", "tourism": "information"}}, {"type": "node", "id": 5894971389, "lat": 49.5803931, "lon": 14.321843, "tags": {"ele": "405", "hiking": "yes", "information": "guidepost", "name": "Rad\u00e1\u0161\u016fv ml\u00fdn", "operator": "cz:K\u010cT", "ref": "PB228", "tourism": "information"}}, {"type": "node", "id": 5894971394, "lat": 49.5685444, "lon": 14.3591923, "tags": {"hiking": "yes", "information": "guidepost", "name": "Husova kazatelna (rozc.)", "operator": "cz:K\u010cT", "ref": "1055/33", "tourism": "information"}}, {"type": "node", "id": 5894971395, "lat": 49.5636832, "lon": 14.3678512, "tags": {"board_type": "history", "information": "board", "name": "\u017demli\u010dkova Lhota", "tourism": "information"}}, {"type": "node", "id": 5894986354, "lat": 49.5521714, "lon": 14.3974998, "tags": {"amenity": "shelter", "shelter_type": "picnic_shelter"}}, {"type": "node", "id": 5932317476, "lat": 49.7098861, "lon": 14.2387871, "tags": {"ele": "400", "information": "guidepost", "name": "U bronzov\u00e9ho pokladu", "operator": "cz:K\u010cT", "ref": "PB363", "tourism": "information"}}, {"type": "node", "id": 6579035531, "lat": 49.6803597, "lon": 14.3627171, "tags": {"amenity": "shelter", "shelter_type": "picnic_shelter"}}, {"type": "node", "id": 6579035533, "lat": 49.6456529, "lon": 14.3260472, "tags": {"amenity": "shelter", "shelter_type": "picnic_shelter"}}, {"type": "node", "id": 6621535302, "lat": 49.7253487, "lon": 14.3030942, "tags": {"information": "board", "tourism": "information"}}, {"type": "node", "id": 6675279340, "lat": 49.7393353, "lon": 14.2897091, "tags": {"ele": "518", "name": "Rohatec", "natural": "peak"}}, {"type": "node", "id": 6675279341, "lat": 49.7477031, "lon": 14.2592556, "tags": {"ele": "528", "name": "Pod sk\u00e1lou", "natural": "peak"}}, {"type": "node", "id": 7004719282, "lat": 49.7028965, "lon": 14.3480101, "tags": {"horse": "yes", "information": "guidepost", "name": "K\u0159epenice", "operator": "cz:K\u010cT", "ref": "179", "tourism": "information"}}, {"type": "node", "id": 7004719283, "lat": 49.7032089, "lon": 14.3487862, "tags": {"information": "map", "map_type": "topo", "tourism": "information"}}, {"type": "node", "id": 7005938493, "lat": 49.7288095, "lon": 14.3455095, "tags": {"hiking": "yes", "information": "guidepost", "name": "Homole", "operator": "cz:K\u010cT", "ref": "6064/2", "tourism": "information"}}, {"type": "node", "id": 7005938497, "lat": 49.7312076, "lon": 14.3419623, "tags": {"hiking": "yes", "information": "guidepost", "name": "V Luhu", "operator": "cz:K\u010cT", "ref": "6064/2", "tourism": "information"}}, {"type": "node", "id": 7005938522, "lat": 49.7439026, "lon": 14.3431673, "tags": {"information": "map", "tourism": "information"}}, {"type": "node", "id": 7005938523, "lat": 49.7447691, "lon": 14.3432139, "tags": {"information": "map", "tourism": "information"}}, {"type": "node", "id": 7005938533, "lat": 49.7503924, "lon": 14.3572751, "tags": {"information": "map", "tourism": "information"}}, {"type": "node", "id": 7005938534, "lat": 49.7492132, "lon": 14.3570149, "tags": {"information": "board", "tourism": "information"}}, {"type": "node", "id": 7463284784, "lat": 49.7029176, "lon": 14.3467463, "tags": {"ele": "353", "hiking": "yes", "information": "guidepost", "operator": "cz:K\u010cT", "ref": "PB129", "tourism": "information"}}, {"type": "node", "id": 7520953134, "lat": 49.6187094, "lon": 14.310885, "tags": {"ele": "373", "hiking": "yes", "information": "guidepost", "name": "L\u00e1vka p\u0159es Brsinu", "operator": "cz:K\u010cT", "ref": "PB157", "tourism": "information"}}, {"type": "node", "id": 7520969344, "lat": 49.6043434, "lon": 14.3403534, "tags": {"hiking": "yes", "information": "guidepost", "name": "Bl\u00e1hova Lhota (ml\u00fdn)", "operator": "cz:K\u010cT", "ref": "0025/44", "tourism": "information"}}, {"type": "node", "id": 7643992980, "lat": 49.5943421, "lon": 14.3270288, "tags": {"ele": "463", "hiking": "yes", "information": "guidepost", "name": "Meziho\u0159\u00ed", "operator": "cz:K\u010cT", "tourism": "information"}}, {"type": "node", "id": 7644044733, "lat": 49.6982218, "lon": 14.3020628, "tags": {"information": "map", "map_size": "region", "map_type": "topo", "tourism": "information"}}, {"type": "node", "id": 7663592468, "lat": 49.5538075, "lon": 14.2382991, "tags": {"board_type": "history", "description": "NS Kov\u00e1\u0159ovska", "information": "board", "name": "La\u0161ovice", "tourism": "information"}}, {"type": "node", "id": 7664042882, "lat": 49.5612618, "lon": 14.2677284, "tags": {"board_type": "history", "description": "Stezka na onen sv\u011bt", "information": "board", "name": "Jalov\u010d\u00ed", "tourism": "information"}}, {"type": "node", "id": 7664042883, "lat": 49.5637928, "lon": 14.2671955, "tags": {"hiking": "yes", "information": "guidepost", "name": "Jalov\u010d\u00ed", "operator": "cz:K\u010cT", "ref": "3065/38", "tourism": "information"}}, {"type": "node", "id": 7830499573, "lat": 49.605425, "lon": 14.2012336, "tags": {"hiking": "yes", "information": "guidepost", "name": "P\u0159edn\u00ed Chlum", "operator": "cz:K\u010cT", "ref": "0038/23;3065/49;PB218", "tourism": "information"}}, {"type": "node", "id": 8147180987, "lat": 49.6593157, "lon": 14.2821853, "tags": {"ele": "397.5", "name": "\u0160ibenn\u00fd", "natural": "peak", "wikidata": "Q30653559"}}, {"type": "node", "id": 8147180988, "lat": 49.6666098, "lon": 14.2866801, "tags": {"ele": "352", "name": "Na Hrachov\u011b", "natural": "peak"}}, {"type": "node", "id": 8147180989, "lat": 49.6612348, "lon": 14.2666056, "tags": {"ele": "388", "name": "Varta", "natural": "peak"}}, {"type": "node", "id": 8147180990, "lat": 49.6683988, "lon": 14.2733783, "tags": {"ele": "358.2", "natural": "peak", "noname": "yes"}}, {"type": "node", "id": 8147180991, "lat": 49.671033, "lon": 14.2775598, "tags": {"ele": "373", "name": "Na Stak\u0159i", "natural": "peak"}}, {"type": "node", "id": 8147180992, "lat": 49.6739995, "lon": 14.2976322, "tags": {"ele": "340", "name": "Roudnice", "natural": "peak"}}, {"type": "node", "id": 8147180993, "lat": 49.6647932, "lon": 14.30218, "tags": {"ele": "331", "name": "Mo\u010d\u00edtko", "natural": "peak"}}, {"type": "node", "id": 8147180994, "lat": 49.6573927, "lon": 14.2982797, "tags": {"ele": "354", "name": "Jedlovky", "natural": "peak"}}, {"type": "node", "id": 8288801365, "lat": 49.5589065, "lon": 14.2375404, "tags": {"information": "board", "tourism": "information"}}, {"type": "node", "id": 8609217912, "lat": 49.66011, "lon": 14.2521288, "tags": {"amenity": "shelter", "shelter_type": "public_transport"}}, {"type": "node", "id": 8621035387, "lat": 49.587064, "lon": 14.3471937, "tags": {"information": "board", "name": "NS Petrovicko \u010d. 10: K\u0159emenice", "tourism": "information"}}, {"type": "node", "id": 8621074982, "lat": 49.5745536, "lon": 14.3330534, "tags": {"information": "board", "name": "NS Petrovicko \u010d. 9: Kozince", "tourism": "information"}}, {"type": "node", "id": 8621088276, "lat": 49.5855343, "lon": 14.3393914, "tags": {"information": "board", "tourism": "information"}}, {"type": "node", "id": 8621095600, "lat": 49.5727714, "lon": 14.3291008, "tags": {"information": "board", "name": "NS Petrovicko \u010d. 8: Divi\u0161ova jeskyn\u011b", "tourism": "information"}}, {"type": "node", "id": 8621103587, "lat": 49.5794835, "lon": 14.3226167, "tags": {"information": "board", "name": "NS Petrovicko \u010d. 15: Rad\u00e1\u0161\u016fv ml\u00fdn", "tourism": "information"}}, {"type": "node", "id": 8621136459, "lat": 49.5861276, "lon": 14.3169795, "tags": {"information": "board", "name": "NS Petrovicko \u010d. 16: \u010cerven\u00fd ml\u00fdn", "tourism": "information"}}, {"type": "node", "id": 8621137374, "lat": 49.5814914, "lon": 14.3132227, "tags": {"information": "board", "name": "NS Petrovicko \u010d. 17: M\u00edk\u016fv ml\u00fdn", "tourism": "information"}}, {"type": "node", "id": 8742447332, "lat": 49.7134085, "lon": 14.3430909, "tags": {"ele": "409", "name": "Hrab\u011bn\u010dino kolo", "natural": "peak"}}, {"type": "node", "id": 8963149343, "lat": 49.6043475, "lon": 14.2761151, "tags": {"board_type": "history", "information": "board", "name": "Historie Kr\u00e1sn\u00e9 Hory", "tourism": "information"}}, {"type": "node", "id": 8963149344, "lat": 49.6044414, "lon": 14.2766972, "tags": {"information": "map", "name": "Sedl\u010danskem na kole", "tourism": "information"}}, {"type": "node", "id": 8963149346, "lat": 49.6042082, "lon": 14.2768875, "tags": {"information": "map", "name": "P\u0159\u00edbramsko", "tourism": "information"}}, {"type": "node", "id": 8963149347, "lat": 49.6390148, "lon": 14.2655057, "tags": {"information": "board", "name": "NS Kam\u00fdk nad Vltavou: Vyhl\u00eddka", "tourism": "information"}}, {"type": "node", "id": 8963149348, "lat": 49.6400674, "lon": 14.2562655, "tags": {"board_type": "history", "information": "board", "name": "NS Kam\u00fdk nad Vltavou \u010d. 5: \u017didovsk\u00e9 os\u00eddlen\u00ed v Kam\u00fdku nad Vltavou", "tourism": "information"}}, {"type": "node", "id": 8963149349, "lat": 49.6411699, "lon": 14.2557008, "tags": {"information": "map", "name": "Sedl\u010danskem na kole", "tourism": "information"}}, {"type": "node", "id": 8963149350, "lat": 49.6409038, "lon": 14.2557531, "tags": {"addr:city": "Kam\u00fdk nad Vltavou", "addr:postcode": "26263", "addr:street": "Kam\u00fdk nad Vltavou", "information": "map", "name": "Sedl\u010dansko", "tourism": "information"}}, {"type": "node", "id": 8963149351, "lat": 49.6405755, "lon": 14.2558497, "tags": {"board_type": "history", "information": "board", "name": "NS Kam\u00fdk nad Vltavou \u010d. 8: Vory na Vltav\u011b", "tourism": "information"}}, {"type": "node", "id": 8963149352, "lat": 49.6371701, "lon": 14.2571855, "tags": {"information": "board", "name": "NS Kam\u00fdk nad Vltavou \u010d. 4: Poz\u016fstatky vojensk\u00e9 obrann\u00e9 linie 'Vltavsk\u00e1 \u010d\u00e1ra'", "tourism": "information"}}, {"type": "node", "id": 8963149358, "lat": 49.6402124, "lon": 14.2374142, "tags": {"board_type": "history", "description": "NS Kam\u00fdk nad Vltavou - v\u00fdlet do st\u0159edov\u011bku", "information": "board", "name": "Zadn\u00ed hrad", "tourism": "information"}}, {"type": "node", "id": 8963149359, "lat": 49.6402489, "lon": 14.236798, "tags": {"board_type": "history", "description": "NS Kam\u00fdk nad Vltavou - v\u00fdlet do st\u0159edov\u011bku", "information": "board", "name": "P\u0159edn\u00ed hrad", "ref": "4", "tourism": "information"}}, {"type": "node", "id": 8963149360, "lat": 49.6406171, "lon": 14.2392281, "tags": {"board_type": "history", "description": "NS Kam\u00fdk nad Vltavou - v\u00fdlet do st\u0159edov\u011bku", "information": "board", "name": "Hrad v krajin\u011b", "tourism": "information"}}, {"type": "node", "id": 8963149361, "lat": 49.6403028, "lon": 14.2413819, "tags": {"information": "board", "name": "Kam\u00fdk nad Vltavou-v\u00fdlet do st\u0159edov\u011bku: \u010cesk\u00e9 zem\u011b ve 13. stolet\u00ed", "tourism": "information"}}, {"type": "node", "id": 8963149362, "lat": 49.6404851, "lon": 14.2428464, "tags": {"information": "board", "name": "Kam\u00fdk nad Vltavou-v\u00fdlet do st\u0159edov\u011bku: Historie hradu", "tourism": "information"}}, {"type": "node", "id": 8963149363, "lat": 49.6405859, "lon": 14.2432031, "tags": {"information": "board", "name": "Kam\u00fdk nad Vltavou-v\u00fdlet do st\u0159edov\u011bku: Z\u0159\u00edcenina hradu Kam\u00fdk", "tourism": "information"}}, {"type": "node", "id": 8963149365, "lat": 49.7495457, "lon": 14.2760602, "tags": {"information": "board", "name": "NS Koz\u00ed Hory a Lib\u010dice \u010d. 6: \u0160achtice \u010d. 1, 3, 4 - Dra\u017eetice", "tourism": "information"}}, {"type": "node", "id": 8963149366, "lat": 49.7476323, "lon": 14.299323, "tags": {"information": "board", "name": "NS Koz\u00ed Hory a Lib\u010dice \u010d. 7: Oblast Dra\u017eetice - Ho\u0159ice", "tourism": "information"}}, {"type": "node", "id": 8976030207, "lat": 49.6408629, "lon": 14.2531461, "tags": {"board_type": "history", "information": "board", "name": "Informa\u010dn\u00ed tabule NS Kam\u00fdk nad Vltavou \u010d.3", "tourism": "information"}}, {"type": "node", "id": 8976034283, "lat": 49.6053443, "lon": 14.2009475, "tags": {"information": "board", "tourism": "information"}}, {"type": "node", "id": 8976040238, "lat": 49.6418326, "lon": 14.2517436, "tags": {"board_type": "history", "description": "NS Kam\u00fdk nad Vltavou", "information": "board", "name": "D\u011bjiny obce Kam\u00fdk nad Vltavou", "ref": "1", "tourism": "information"}}, {"type": "node", "id": 8976043184, "lat": 49.5950167, "lon": 14.2358089, "tags": {"information": "board", "name": "Informa\u010dn\u00ed tabule Sedl\u010danskem na kole", "tourism": "information"}}, {"type": "node", "id": 8976043897, "lat": 49.6401203, "lon": 14.2525, "tags": {"information": "board", "name": "Informa\u010dn\u00ed tabule NS Kam\u00fdk nad Vltavou \u010d.2", "tourism": "information"}}, {"type": "node", "id": 8995542264, "lat": 49.6393807, "lon": 14.253813, "tags": {"board_type": "history", "information": "board", "name": "Kam\u00fdk nad Vltavou: Most a povodn\u011b", "tourism": "information"}}, {"type": "node", "id": 9356378563, "lat": 49.6607819, "lon": 14.2578929, "tags": {"hiking": "yes", "information": "guidepost", "operator": "cz:K\u010cT", "ref": "PB152", "tourism": "information"}}, {"type": "node", "id": 9371850372, "lat": 49.5760148, "lon": 14.3451329, "tags": {"hiking": "yes", "information": "guidepost", "name": "Skoup\u00fd", "operator": "cz:K\u010cT", "ref": "PB226;1055/35", "tourism": "information"}}, {"type": "node", "id": 9371850373, "lat": 49.5732114, "lon": 14.3289847, "tags": {"ele": "438", "hiking": "yes", "information": "guidepost", "name": "Divi\u0161ova jeskyn\u011b", "operator": "cz:K\u010cT", "ref": "PB227", "tourism": "information"}}, {"type": "node", "id": 9453881438, "lat": 49.6191074, "lon": 14.3727352, "tags": {"name": "Velk\u00fd P\u00fdrn\u00fd", "natural": "peak", "source": "\u010c\u00daZK"}}, {"type": "node", "id": 9453881439, "lat": 49.6119633, "lon": 14.3709828, "tags": {"ele": "539", "name": "Na Chlumech", "natural": "peak", "source": "\u010c\u00daZK"}}, {"type": "node", "id": 9498679713, "lat": 49.6970549, "lon": 14.2741697, "tags": {"ele": "449.2", "name": "Bu\u010dek", "natural": "peak"}}, {"type": "node", "id": 9498679714, "lat": 49.7052276, "lon": 14.2802433, "tags": {"ele": "355.8", "natural": "peak"}}, {"type": "node", "id": 9498679715, "lat": 49.7105234, "lon": 14.3011544, "tags": {"ele": "344.2", "name": "Ostr\u00e1 h\u016frka", "natural": "peak"}}, {"type": "node", "id": 9498679716, "lat": 49.7133071, "lon": 14.3218196, "tags": {"ele": "415.3", "name": "Dubov\u00fd vrch", "natural": "peak"}}, {"type": "node", "id": 9498805317, "lat": 49.7096627, "lon": 14.3346927, "tags": {"ele": "405.1", "natural": "peak"}}, {"type": "node", "id": 9498805318, "lat": 49.7260555, "lon": 14.3215643, "tags": {"ele": "386.6", "natural": "peak"}}, {"type": "node", "id": 9498805320, "lat": 49.7235197, "lon": 14.3282639, "tags": {"ele": "424.2", "name": "H\u00e1jek", "natural": "peak"}}, {"type": "node", "id": 9498805321, "lat": 49.7166141, "lon": 14.3603806, "tags": {"ele": "490.4", "name": "Drb\u00e1kov", "natural": "peak"}}, {"type": "node", "id": 9498805322, "lat": 49.7240632, "lon": 14.3693226, "tags": {"ele": "419.8", "natural": "peak"}}, {"type": "node", "id": 9498805324, "lat": 49.7274675, "lon": 14.3936975, "tags": {"ele": "461.5", "name": "Na vrchu", "natural": "peak"}}, {"type": "node", "id": 9552272475, "lat": 49.6635952, "lon": 14.3133754, "tags": {"ele": "396", "name": "Sp\u00e1lenka", "natural": "peak"}}, {"type": "node", "id": 9552272476, "lat": 49.6680386, "lon": 14.3154583, "tags": {"ele": "383", "natural": "peak"}}, {"type": "node", "id": 9552272477, "lat": 49.6705228, "lon": 14.3310899, "tags": {"alt_name": "Br\u010de", "ele": "425", "name": "Brdce", "natural": "peak", "wikidata": "Q23821192"}}, {"type": "node", "id": 9556327185, "lat": 49.664597, "lon": 14.2966952, "tags": {"bicycle": "yes", "hiking": "yes", "information": "map", "map_size": "region", "map_type": "topo", "tourism": "information"}}, {"type": "node", "id": 9583841565, "lat": 49.7182827, "lon": 14.3440139, "tags": {"ele": "388.6", "name": "Hradi\u0161t\u011b", "natural": "peak"}}, {"type": "node", "id": 9583841567, "lat": 49.7114823, "lon": 14.355615, "tags": {"ele": "476.2", "name": "St\u0159\u00edbrn\u00fd vrch", "natural": "peak"}}, {"type": "node", "id": 9583841568, "lat": 49.7075758, "lon": 14.3376475, "tags": {"ele": "401.6", "name": "Pid\u00edk", "natural": "peak"}}, {"type": "node", "id": 9583841569, "lat": 49.7150131, "lon": 14.3190081, "tags": {"ele": "380.8", "name": "Jedlov\u00fd vrch", "natural": "peak"}}, {"type": "node", "id": 9583841572, "lat": 49.644412, "lon": 14.2784056, "tags": {"ele": "394", "name": "Mal\u00fd Hejk", "natural": "peak"}}, {"type": "node", "id": 9583841574, "lat": 49.644853, "lon": 14.260171, "tags": {"ele": "354", "name": "\u0160ibern\u00fd", "natural": "peak"}}, {"type": "node", "id": 9583841575, "lat": 49.6510366, "lon": 14.2707964, "tags": {"ele": "375", "name": "\u010cerven\u00fd vr\u0161ek", "natural": "peak"}}, {"type": "node", "id": 9583841578, "lat": 49.6526814, "lon": 14.2793546, "tags": {"tourism": "viewpoint"}}, {"type": "node", "id": 9588291767, "lat": 49.6388261, "lon": 14.2689394, "tags": {"ele": "387", "name": "V Hou\u0161t\u00edch", "natural": "peak"}}, {"type": "node", "id": 9588291768, "lat": 49.6814427, "lon": 14.2687999, "tags": {"ele": "307", "name": "Na Hradi\u0161ti", "natural": "peak"}}, {"type": "node", "id": 9588291769, "lat": 49.6703325, "lon": 14.2651856, "tags": {"ele": "314", "name": "Stilov\u00e1", "natural": "peak"}}, {"type": "node", "id": 9596787201, "lat": 49.646922, "lon": 14.2957753, "tags": {"ele": "389", "name": "Jalov\u010d\u00ed", "natural": "peak", "source": "cuzk:km"}}, {"type": "node", "id": 9596789321, "lat": 49.668889, "lon": 14.3074945, "tags": {"ele": "343", "natural": "peak"}}, {"type": "node", "id": 9606181016, "lat": 49.6327452, "lon": 14.3098116, "tags": {"ele": "438", "name": "Velk\u00fd Hejk", "natural": "peak", "source": "cuzk:km"}}, {"type": "node", "id": 9606195520, "lat": 49.6272469, "lon": 14.2881323, "tags": {"ele": "409", "name": "Seln\u00e1", "natural": "peak", "source": "cuzk:km"}}, {"type": "node", "id": 9606195527, "lat": 49.6168501, "lon": 14.2870322, "tags": {"ele": "455", "name": "Brtevn\u00edk", "natural": "peak", "source": "cuzk:km"}}, {"type": "node", "id": 9606195531, "lat": 49.6246625, "lon": 14.3014033, "tags": {"ele": "451", "name": "Kram\u0161\u016fv vrch", "natural": "peak", "source": "cuzk:km"}}, {"type": "node", "id": 9606195536, "lat": 49.6274919, "lon": 14.3048614, "tags": {"ele": "398", "name": "Homolka", "natural": "peak", "source": "cuzk:km"}}, {"type": "node", "id": 9606195540, "lat": 49.6356988, "lon": 14.3207836, "tags": {"ele": "508", "name": "\u010cern\u00e1 sk\u00e1la", "natural": "peak", "source": "cuzk:km"}}, {"type": "node", "id": 9606195541, "lat": 49.6352187, "lon": 14.3264029, "tags": {"ele": "517", "natural": "peak", "source": "cuzk:km"}}, {"type": "node", "id": 9606195548, "lat": 49.6466397, "lon": 14.3251782, "tags": {"ele": "419", "natural": "peak", "source": "cuzk:km"}}, {"type": "node", "id": 9606195551, "lat": 49.6507642, "lon": 14.3232958, "tags": {"ele": "409", "natural": "peak", "source": "cuzk:km"}}, {"type": "node", "id": 9606195552, "lat": 49.6534989, "lon": 14.3238685, "tags": {"ele": "410", "natural": "peak", "source": "cuzk:km"}}, {"type": "node", "id": 9606195556, "lat": 49.6510269, "lon": 14.3133136, "tags": {"ele": "397", "name": "Medn\u00e1", "natural": "peak", "source": "cuzk:km"}}, {"type": "node", "id": 9623324283, "lat": 49.62637, "lon": 14.26337, "tags": {"ele": "442", "name": "B\u00e1ba", "natural": "peak"}}, {"type": "node", "id": 9623361786, "lat": 49.6317987, "lon": 14.2597994, "tags": {"ele": "388", "name": "Radobylka", "natural": "peak"}}, {"type": "node", "id": 9623369563, "lat": 49.6214707, "lon": 14.2496736, "tags": {"ele": "388", "name": "Havranice", "natural": "peak"}}, {"type": "node", "id": 9623399021, "lat": 49.6213974, "lon": 14.2601262, "tags": {"ele": "435", "natural": "peak", "noname": "yes"}}, {"type": "node", "id": 9623399022, "lat": 49.613991, "lon": 14.2612289, "tags": {"ele": "461", "name": "Zho\u0159sk\u00fd vrch", "natural": "peak"}}, {"type": "node", "id": 9623403862, "lat": 49.6117256, "lon": 14.2631295, "tags": {"ele": "453", "name": "Na Kr\u00e1mc\u00edch", "natural": "peak"}}, {"type": "node", "id": 9624641650, "lat": 49.6137687, "lon": 14.2444016, "tags": {"ele": "408", "name": "Mr\u00e1zov", "natural": "peak"}}, {"type": "node", "id": 9624641651, "lat": 49.6088993, "lon": 14.2356333, "tags": {"ele": "434", "name": "Kobyla", "natural": "peak"}}, {"type": "node", "id": 9624641652, "lat": 49.6101457, "lon": 14.2456014, "tags": {"ele": "395", "natural": "peak", "noname": "yes"}}, {"type": "node", "id": 9624641653, "lat": 49.6285468, "lon": 14.2380569, "tags": {"ele": "311", "name": "Sosm\u00ed", "natural": "peak"}}, {"type": "node", "id": 9627964086, "lat": 49.6006544, "lon": 14.2914729, "tags": {"ele": "517", "name": "Homole", "natural": "peak", "source": "cuzk:km"}}, {"type": "node", "id": 9627964087, "lat": 49.615035, "lon": 14.2990565, "tags": {"ele": "478", "name": "Brtva", "natural": "peak", "source": "cuzk:km"}}, {"type": "node", "id": 9627964088, "lat": 49.6109833, "lon": 14.2867215, "tags": {"ele": "473", "name": "Luk\u0161\u016fv vrch", "natural": "peak", "source": "cuzk:km"}}, {"type": "node", "id": 9627964089, "lat": 49.6193802, "lon": 14.3023821, "tags": {"ele": "496", "name": "Valov\u00e1 hora", "natural": "peak", "source": "cuzk:km"}}, {"type": "node", "id": 9627964090, "lat": 49.6020433, "lon": 14.2929149, "tags": {"ele": "516", "natural": "peak", "source": "cuzk:km"}}, {"type": "node", "id": 9627964091, "lat": 49.5968141, "lon": 14.2757795, "tags": {"ele": "513.7", "natural": "peak", "noname": "yes", "source": "cuzk:km"}}, {"type": "node", "id": 9627964092, "lat": 49.6105893, "lon": 14.2944226, "tags": {"ele": "521", "name": "Zaj\u00edc\u016fv vrch", "natural": "peak", "source": "cuzk:km"}}, {"type": "node", "id": 9627964093, "lat": 49.5981948, "lon": 14.2754655, "tags": {"ele": "524", "name": "Str\u00e1\u017en\u00edk", "natural": "peak", "source": "cuzk:km"}}, {"type": "node", "id": 9627964094, "lat": 49.6041887, "lon": 14.3034993, "tags": {"ele": "471", "name": "Borek", "natural": "peak", "source": "cuzk:km"}}, {"type": "node", "id": 9628217562, "lat": 49.6004832, "lon": 14.2650445, "tags": {"ele": "434", "name": "Bor", "natural": "peak", "source": "cuzk:km"}}, {"type": "node", "id": 9631912543, "lat": 49.686943, "lon": 14.306846, "tags": {"ele": "340", "name": "L\u00edsn\u00fd", "natural": "peak", "source": "cuzk:km"}}, {"type": "node", "id": 9631912547, "lat": 49.6787216, "lon": 14.3297564, "tags": {"ele": "384", "natural": "peak", "source": "cuzk:km"}}, {"type": "node", "id": 9631912548, "lat": 49.6799122, "lon": 14.3391539, "tags": {"ele": "392", "natural": "peak", "source": "cuzk:km"}}, {"type": "node", "id": 9631912550, "lat": 49.6857846, "lon": 14.3274762, "tags": {"ele": "405", "name": "V se\u010d\u00edch", "natural": "peak", "source": "cuzk:km"}}, {"type": "node", "id": 9631912558, "lat": 49.7001763, "lon": 14.3014478, "tags": {"ele": "342", "name": "Z\u00e1mi\u0161ec", "natural": "peak", "source": "cuzk:km"}}, {"type": "node", "id": 9631912563, "lat": 49.6981635, "lon": 14.3306706, "tags": {"ele": "377", "natural": "peak", "source": "cuzk:km"}}, {"type": "node", "id": 9631912564, "lat": 49.6999577, "lon": 14.3260729, "tags": {"ele": "362", "natural": "peak", "source": "cuzk:km"}}, {"type": "node", "id": 9631912568, "lat": 49.7035901, "lon": 14.3235747, "tags": {"ele": "378", "natural": "peak", "source": "cuzk:km"}}, {"type": "node", "id": 9631912569, "lat": 49.7056585, "lon": 14.3252457, "tags": {"ele": "382", "natural": "peak", "source": "cuzk:km"}}, {"type": "node", "id": 9631912612, "lat": 49.6886702, "lon": 14.3517008, "tags": {"ele": "416", "name": "Lib\u011b\u0161ov", "natural": "peak", "source": "cuzk:km"}}, {"type": "node", "id": 9631936029, "lat": 49.6738416, "lon": 14.3168358, "tags": {"ele": "370", "natural": "peak", "source": "cuzk:km"}}, {"type": "node", "id": 9631936030, "lat": 49.6608169, "lon": 14.3138524, "tags": {"ele": "382", "natural": "peak", "source": "cuzk:km"}}, {"type": "node", "id": 9635680000, "lat": 49.6217763, "lon": 14.2972001, "tags": {"ele": "471", "natural": "peak", "noname": "yes"}}, {"type": "node", "id": 9815622060, "lat": 49.5625009, "lon": 14.3188883, "tags": {"board_type": "nature", "information": "board", "name": "Kun\u00ed\u010dek", "ref": "20", "tourism": "information"}}, {"type": "node", "id": 9815622061, "lat": 49.5623686, "lon": 14.3187517, "tags": {"amenity": "shelter", "shelter_type": "picnic_shelter"}}, {"type": "node", "id": 9815622063, "lat": 49.5623711, "lon": 14.3187853, "tags": {"board_type": "history", "information": "board", "name": "K\u0159\u00ed\u017eov\u00e1 cesta", "tourism": "information"}}, {"type": "node", "id": 9815622075, "lat": 49.5676239, "lon": 14.3190992, "tags": {"board_type": "nature", "information": "board", "name": "Kun\u00ed - Varta", "ref": "19", "tourism": "information"}}, {"type": "node", "id": 9815622084, "lat": 49.5789259, "lon": 14.3079564, "tags": {"board_type": "nature", "information": "board", "name": "Rybn\u00ed\u010dek", "ref": "18", "tourism": "information"}}, {"type": "node", "id": 9815622092, "lat": 49.5910549, "lon": 14.3501643, "tags": {"board_type": "nature", "information": "board", "name": "Les Sp\u00e1len\u00fd", "ref": "12", "tourism": "information"}}, {"type": "node", "id": 9815622093, "lat": 49.5895421, "lon": 14.3559397, "tags": {"board_type": "nature", "information": "board", "name": "Rozcest\u00ed u Vit\u00edna", "ref": "12", "tourism": "information"}}, {"type": "node", "id": 9817943852, "lat": 49.6176623, "lon": 14.3884938, "tags": {"amenity": "shelter", "shelter_type": "picnic_shelter"}}, {"type": "node", "id": 9947319137, "lat": 49.6765534, "lon": 14.2877342, "tags": {"information": "map", "name": "Sedl\u010dansko", "tourism": "information"}}, {"type": "node", "id": 9972106858, "lat": 49.6610668, "lon": 14.2728769, "tags": {"direction": "40-60", "tourism": "viewpoint"}}, {"type": "node", "id": 10728350379, "lat": 49.5591029, "lon": 14.237901}, {"type": "node", "id": 10728350380, "lat": 49.5590594, "lon": 14.2379671}, {"type": "node", "id": 10728350381, "lat": 49.5590191, "lon": 14.2379043}, {"type": "node", "id": 10728350424, "lat": 49.5604372, "lon": 14.2585248, "tags": {"direction": "180", "tourism": "viewpoint"}}, {"type": "node", "id": 10884456646, "lat": 49.6646586, "lon": 14.2967094, "tags": {"board_type": "information", "information": "board", "tourism": "information"}}, {"type": "node", "id": 11185598656, "lat": 49.553891, "lon": 14.337306, "tags": {"information": "board", "name": "Stezky do Pr\u010dice", "tourism": "information"}}, {"type": "node", "id": 11462167799, "lat": 49.6756278, "lon": 14.3820444, "tags": {"information": "board", "name": "V\u011btrn\u00fd ml\u00fdn v P\u0159\u00ed\u010dovech", "tourism": "information"}}, {"type": "node", "id": 11824759486, "lat": 49.6210717, "lon": 14.3859269, "tags": {"information": "board", "name": "Skanzen Vysok\u00fd Chlumec", "tourism": "information"}}, {"type": "node", "id": 11824760673, "lat": 49.617653, "lon": 14.3885103, "tags": {"information": "board", "name": "Vysok\u00fd Chlumec", "tourism": "information"}}, {"type": "node", "id": 12116673860, "lat": 49.6284264, "lon": 14.2012368, "tags": {"ele": "479", "information": "guidepost", "name": "Alt\u00e1n, vyhl\u00eddka, dbo\u010dka", "operator": "cz:K\u010cT", "ref": "PB289", "tourism": "information"}}, {"type": "node", "id": 12212550142, "lat": 49.737782, "lon": 14.206137, "tags": {"information": "map", "map_size": "region", "map_type": "scheme", "name": "P\u0159\u00edbramsko", "tourism": "information"}}, {"type": "node", "id": 12373491411, "lat": 49.5587705, "lon": 14.3670771, "tags": {"board_type": "nature", "information": "board", "name": "Petrovick\u00e1 stezka", "tourism": "information"}}, {"type": "node", "id": 12413164473, "lat": 49.5671395, "lon": 14.3644209, "tags": {"board_type": "nature", "information": "board", "name": "Petrovick\u00e1 stezka - Husova kazatelna", "tourism": "information"}}, {"type": "node", "id": 12558889369, "lat": 49.7301315, "lon": 14.347621, "tags": {"board_type": "history", "information": "board", "name": "NS Zlat\u00e9 Ps\u00ed hory", "tourism": "information"}}, {"type": "node", "id": 12558927582, "lat": 49.7457361, "lon": 14.3392831, "tags": {"information": "map", "map_type": "topo", "name": "Svazek obc\u00ed Dob\u0159\u00ed\u0161ska a Novokn\u00ednska", "tourism": "information"}}, {"type": "node", "id": 12558945246, "lat": 49.7461643, "lon": 14.3387456, "tags": {"information": "map", "name": "Chotilsko a okol\u00ed", "tourism": "information"}}, {"type": "node", "id": 12779739144, "lat": 49.6534966, "lon": 14.2919926, "tags": {"board_type": "map", "information": "board", "name": "Mapa p\u011b\u0161\u00edch a cyklo tras", "tourism": "information"}}, {"type": "node", "id": 12862624009, "lat": 49.6407887, "lon": 14.2303767, "tags": {"ele": "357", "name": "\u010cerven\u00fd vr\u0161ek", "natural": "peak"}}, {"type": "node", "id": 12862624010, "lat": 49.6473066, "lon": 14.2193921, "tags": {"ele": "417", "name": "Humna", "natural": "peak"}}, {"type": "node", "id": 12955213555, "lat": 49.7343127, "lon": 14.2621764, "tags": {"ele": "426", "information": "guidepost", "name": "Homole", "operator": "cz:K\u010cT", "ref": "PB055", "tourism": "information"}}, {"type": "node", "id": 12959627796, "lat": 49.6403145, "lon": 14.2534676, "tags": {"information": "office", "tourism": "information"}}, {"type": "node", "id": 12962092788, "lat": 49.636724, "lon": 14.2515636, "tags": {"board_type": "notice", "description": "Vylepovac\u00ed plocha", "information": "board", "tourism": "information"}}, {"type": "node", "id": 12974494656, "lat": 49.6368318, "lon": 14.2439333, "tags": {"ele": "350.8", "name": "Trojan\u016fv vr\u0161ek", "natural": "peak"}}, {"type": "node", "id": 12976974580, "lat": 49.6741859, "lon": 14.2396545, "tags": {"ele": "376", "natural": "peak", "noname": "yes"}}, {"type": "node", "id": 12976974581, "lat": 49.6855482, "lon": 14.2127313, "tags": {"ele": "441.5", "name": "Ouchody", "natural": "peak"}}, {"type": "node", "id": 12976974590, "lat": 49.6755259, "lon": 14.2087662, "tags": {"ele": "444.3", "natural": "peak", "noname": "yes"}}, {"type": "node", "id": 12976974591, "lat": 49.6732799, "lon": 14.2061484, "tags": {"ele": "479.5", "name": "Bohat\u00e1 hora", "natural": "peak"}}, {"type": "node", "id": 12976974592, "lat": 49.6722106, "lon": 14.2048985, "tags": {"ele": "458.8", "natural": "peak", "noname": "yes"}}, {"type": "node", "id": 12976974593, "lat": 49.6621635, "lon": 14.2331427, "tags": {"ele": "358", "natural": "peak", "noname": "yes"}}, {"type": "node", "id": 12976974595, "lat": 49.6563203, "lon": 14.2074955, "tags": {"ele": "493.1", "natural": "peak", "noname": "yes"}}, {"type": "node", "id": 12976974596, "lat": 49.6633259, "lon": 14.217537, "tags": {"ele": "463.8", "natural": "peak", "noname": "yes"}}, {"type": "node", "id": 12976975446, "lat": 49.6342543, "lon": 14.2199081, "tags": {"ele": "445.5", "name": "Jezern\u00e1", "natural": "peak"}}, {"type": "node", "id": 12977096614, "lat": 49.6633622, "lon": 14.246258, "tags": {"ele": "346.9", "name": "H\u016frka", "natural": "peak"}}, {"type": "node", "id": 12977096616, "lat": 49.6513779, "lon": 14.2374871, "tags": {"ele": "378.7", "natural": "peak", "noname": "yes"}}, {"type": "node", "id": 12977096625, "lat": 49.6474724, "lon": 14.2088091, "tags": {"ele": "439", "natural": "peak", "noname": "yes"}}, {"type": "node", "id": 12977096629, "lat": 49.6398377, "lon": 14.2030832, "tags": {"ele": "477.1", "natural": "peak"}}, {"type": "node", "id": 12977096645, "lat": 49.6250673, "lon": 14.2173734, "tags": {"ele": "424.1", "name": "Homole", "natural": "peak"}}, {"type": "node", "id": 12977098469, "lat": 49.6847643, "lon": 14.2291376, "tags": {"ele": "439.9", "natural": "peak", "noname": "yes"}}, {"type": "node", "id": 12977098471, "lat": 49.6915831, "lon": 14.2393775, "tags": {"ele": "451", "natural": "peak", "noname": "yes"}}, {"type": "node", "id": 12977098472, "lat": 49.6881445, "lon": 14.2387533, "tags": {"ele": "479.9", "name": "Z\u00e1me\u010dek", "natural": "peak"}}, {"type": "node", "id": 12977098476, "lat": 49.6795286, "lon": 14.2519378, "tags": {"ele": "339", "natural": "peak", "noname": "yes"}}, {"type": "node", "id": 12977098478, "lat": 49.6850713, "lon": 14.2522126, "tags": {"ele": "446.7", "name": "Telec\u00ed vrch", "natural": "peak"}}, {"type": "node", "id": 12977098479, "lat": 49.6866574, "lon": 14.2540097, "tags": {"ele": "450.1", "name": "Lipiny", "natural": "peak"}}, {"type": "node", "id": 12977098482, "lat": 49.6885783, "lon": 14.2658622, "tags": {"ele": "369.5", "natural": "peak", "noname": "yes"}}, {"type": "node", "id": 12977098484, "lat": 49.6953707, "lon": 14.279315, "tags": {"ele": "419.5", "name": "Doubek", "natural": "peak"}}, {"type": "node", "id": 12977098485, "lat": 49.6921511, "lon": 14.2924458, "tags": {"ele": "320.2", "natural": "peak", "noname": "yes", "source": "cuzk:km"}}, {"type": "node", "id": 12977346884, "lat": 49.6605896, "lon": 14.2582641, "tags": {"ele": "340.3", "natural": "peak", "noname": "yes"}}, {"type": "node", "id": 12977346885, "lat": 49.661627, "lon": 14.2631625, "tags": {"ele": "377", "natural": "peak", "noname": "yes"}}, {"type": "node", "id": 12979852707, "lat": 49.6012217, "lon": 14.2175728, "tags": {"ele": "418.6", "natural": "peak", "noname": "yes"}}, {"type": "node", "id": 12979852708, "lat": 49.6045376, "lon": 14.2145083, "tags": {"ele": "421.5", "natural": "peak", "noname": "yes"}}, {"type": "node", "id": 12979852709, "lat": 49.6037703, "lon": 14.2163192, "tags": {"ele": "432.2", "natural": "peak", "noname": "yes"}}, {"type": "node", "id": 12979852710, "lat": 49.6026557, "lon": 14.2167531, "tags": {"ele": "431.4", "name": "Klasovec", "natural": "peak"}}, {"type": "node", "id": 12979852714, "lat": 49.5926689, "lon": 14.2165335, "tags": {"ele": "439.5", "name": "Kalich", "natural": "peak"}}, {"type": "node", "id": 12979852732, "lat": 49.6035272, "lon": 14.2057435, "tags": {"ele": "494.3", "name": "Na bambulce", "natural": "peak"}}, {"type": "node", "id": 12979852740, "lat": 49.6027078, "lon": 14.2009217, "tags": {"ele": "495.2", "natural": "peak", "noname": "yes"}}, {"type": "node", "id": 12979852755, "lat": 49.6146844, "lon": 14.2014029, "tags": {"ele": "392.8", "name": "Varta", "natural": "peak"}}, {"type": "node", "id": 12979852756, "lat": 49.6264529, "lon": 14.2125012, "tags": {"ele": "418.7", "natural": "peak", "noname": "yes"}}, {"type": "node", "id": 12980177674, "lat": 49.618942, "lon": 14.2138196, "tags": {"ele": "400.4", "natural": "peak", "noname": "yes"}}, {"type": "node", "id": 12980583815, "lat": 49.5617666, "lon": 14.2135244, "tags": {"ele": "463.7", "name": "H\u016frka", "natural": "peak", "source": "cuzk:km"}}, {"type": "node", "id": 12980583816, "lat": 49.5611811, "lon": 14.2047565, "tags": {"ele": "459.4", "natural": "peak", "noname": "yes", "source": "cuzk:km"}}, {"type": "node", "id": 12980618185, "lat": 49.5689133, "lon": 14.2143531, "tags": {"ele": "466.8", "natural": "peak", "noname": "yes", "source": "cuzk:km"}}, {"type": "node", "id": 12980715774, "lat": 49.6060802, "lon": 14.2648717, "tags": {"ele": "426.5", "natural": "peak", "noname": "yes", "source": "cuzk:km"}}, {"type": "node", "id": 12980715777, "lat": 49.5923507, "lon": 14.2817922, "tags": {"ele": "511.2", "natural": "peak", "noname": "yes", "source": "cuzk:km"}}, {"type": "node", "id": 12980715778, "lat": 49.5919367, "lon": 14.277991, "tags": {"ele": "530.1", "natural": "peak", "noname": "yes", "source": "cuzk:km"}}, {"type": "node", "id": 12980715782, "lat": 49.5866144, "lon": 14.275144, "tags": {"ele": "536.9", "natural": "peak", "noname": "yes", "source": "cuzk:km"}}, {"type": "node", "id": 12980715783, "lat": 49.5877467, "lon": 14.277691, "tags": {"ele": "540.5", "natural": "peak", "noname": "yes", "source": "cuzk:km"}}, {"type": "node", "id": 12980715785, "lat": 49.5808474, "lon": 14.2771369, "tags": {"ele": "544.5", "name": "Pahorek", "natural": "peak", "source": "cuzk:km"}}, {"type": "node", "id": 12980715787, "lat": 49.5846339, "lon": 14.2678957, "tags": {"ele": "531.4", "name": "Vrch P\u00e1n\u011b", "natural": "peak", "source": "cuzk:km"}}, {"type": "node", "id": 12980715788, "lat": 49.5879014, "lon": 14.2630558, "tags": {"ele": "498.8", "name": "Pest\u00edn", "natural": "peak", "source": "cuzk:km"}}, {"type": "node", "id": 12980715790, "lat": 49.5947697, "lon": 14.265872, "tags": {"ele": "486.6", "name": "Dubina", "natural": "peak", "source": "cuzk:km"}}, {"type": "node", "id": 12980715794, "lat": 49.6059556, "lon": 14.2480051, "tags": {"ele": "418", "natural": "peak", "noname": "yes", "source": "cuzk:km"}}, {"type": "node", "id": 12980715795, "lat": 49.6003256, "lon": 14.251183, "tags": {"ele": "408.2", "natural": "peak", "noname": "yes", "source": "cuzk:km"}}, {"type": "node", "id": 12980715832, "lat": 49.5968345, "lon": 14.2492132, "tags": {"ele": "430.6", "natural": "peak", "noname": "yes", "source": "cuzk:km"}}, {"type": "node", "id": 12980715833, "lat": 49.5957174, "lon": 14.2402797, "tags": {"ele": "456.1", "natural": "peak", "noname": "yes", "source": "cuzk:km"}}, {"type": "node", "id": 12980715834, "lat": 49.5935976, "lon": 14.2431575, "tags": {"ele": "489.9", "natural": "peak", "noname": "yes", "source": "cuzk:km"}}, {"type": "node", "id": 12980715837, "lat": 49.5923707, "lon": 14.2437808, "tags": {"ele": "496", "natural": "peak", "noname": "yes", "source": "cuzk:km"}}, {"type": "node", "id": 12980715838, "lat": 49.590171, "lon": 14.2471202, "tags": {"ele": "512.2", "name": "M\u00edrovka", "natural": "peak", "source": "cuzk:km"}}, {"type": "node", "id": 12980715867, "lat": 49.5896073, "lon": 14.2445272, "tags": {"ele": "505.8", "natural": "peak", "noname": "yes", "source": "cuzk:km"}}, {"type": "node", "id": 12980715868, "lat": 49.5874674, "lon": 14.2354244, "tags": {"ele": "461", "name": "\u0160ibeni\u010dn\u00ed vrch", "natural": "peak", "source": "cuzk:km"}}, {"type": "node", "id": 12980715870, "lat": 49.5909616, "lon": 14.2324903, "tags": {"ele": "469.9", "natural": "peak", "noname": "yes", "source": "cuzk:km"}}, {"type": "node", "id": 12980715875, "lat": 49.5855589, "lon": 14.2159244, "tags": {"ele": "442.5", "natural": "peak", "noname": "yes", "source": "cuzk:km"}}, {"type": "node", "id": 12980715882, "lat": 49.5827732, "lon": 14.2149644, "tags": {"ele": "453.5", "name": "Hradi\u0161t\u011b", "natural": "peak", "source": "cuzk:km"}}, {"type": "node", "id": 12980715884, "lat": 49.579236, "lon": 14.2046998, "tags": {"ele": "444.5", "name": "H\u016frka", "natural": "peak", "source": "cuzk:km"}}, {"type": "node", "id": 12980715889, "lat": 49.5733808, "lon": 14.2271292, "tags": {"ele": "487.6", "natural": "peak", "noname": "yes", "source": "cuzk:km"}}, {"type": "node", "id": 12983441091, "lat": 49.6494455, "lon": 14.2701093, "tags": {"ele": "370.4", "natural": "peak", "noname": "yes"}}, {"type": "node", "id": 12983441092, "lat": 49.6479713, "lon": 14.258008, "tags": {"ele": "317.7", "natural": "peak", "noname": "yes"}}, {"type": "node", "id": 12983441093, "lat": 49.6582348, "lon": 14.263843, "tags": {"ele": "364.5", "natural": "peak", "noname": "yes"}}, {"type": "node", "id": 12983441095, "lat": 49.6566053, "lon": 14.2838583, "tags": {"ele": "392.3", "name": "Na kamenn\u00e9 ho\u0159e", "natural": "peak"}}, {"type": "node", "id": 12986433571, "lat": 49.5681518, "lon": 14.274607, "tags": {"ele": "532.4", "natural": "peak", "noname": "yes", "source": "cuzk:km"}}, {"type": "node", "id": 12986433576, "lat": 49.5719897, "lon": 14.2597535, "tags": {"ele": "568.2", "natural": "peak", "noname": "yes", "source": "cuzk:km"}}, {"type": "node", "id": 12986433577, "lat": 49.5760463, "lon": 14.2637525, "tags": {"ele": "579.5", "name": "Kole\u010dko", "natural": "peak", "source": "cuzk:km"}}, {"type": "node", "id": 12986433591, "lat": 49.56757, "lon": 14.2636575, "tags": {"ele": "602.5", "natural": "peak", "noname": "yes", "source": "cuzk:km"}}, {"type": "node", "id": 12986433592, "lat": 49.566519, "lon": 14.2591324, "tags": {"ele": "621.6", "natural": "peak", "noname": "yes", "source": "cuzk:km"}}, {"type": "node", "id": 12986433593, "lat": 49.5655637, "lon": 14.2531849, "tags": {"ele": "627", "name": "Hrby", "natural": "peak", "source": "cuzk:km", "wikidata": "Q12020689", "wikipedia": "cs:Hrby"}}, {"type": "node", "id": 12986433594, "lat": 49.5628465, "lon": 14.2481611, "tags": {"ele": "617.6", "natural": "peak", "noname": "yes", "source": "cuzk:km"}}, {"type": "node", "id": 12986433595, "lat": 49.5626732, "lon": 14.2460084, "tags": {"ele": "614.7", "natural": "peak", "noname": "yes", "source": "cuzk:km"}}, {"type": "node", "id": 12986438806, "lat": 49.5607238, "lon": 14.2416041, "tags": {"ele": "610", "natural": "peak", "noname": "yes", "source": "cuzk:km"}}, {"type": "node", "id": 12986438814, "lat": 49.5718322, "lon": 14.2451382, "tags": {"ele": "526.1", "name": "Ho\u0159ice", "natural": "peak", "source": "cuzk:km"}}, {"type": "node", "id": 12986438817, "lat": 49.5828133, "lon": 14.2295961, "tags": {"ele": "474", "natural": "peak", "noname": "yes", "source": "cuzk:km"}}, {"type": "node", "id": 12986438818, "lat": 49.5838759, "lon": 14.2306664, "tags": {"ele": "475.5", "name": "St\u00ednadla", "natural": "peak", "source": "cuzk:km"}}, {"type": "node", "id": 12987105030, "lat": 49.6402088, "lon": 14.2533204, "tags": {"information": "board", "tourism": "information"}}, {"type": "node", "id": 12987692411, "lat": 49.5590311, "lon": 14.257995, "tags": {"ele": "585.9", "natural": "peak", "noname": "yes", "source": "cuzk:km"}}, {"type": "node", "id": 12987692412, "lat": 49.5577361, "lon": 14.2574529, "tags": {"ele": "581.1", "natural": "peak", "noname": "yes", "source": "cuzk:km"}}, {"type": "node", "id": 12994771080, "lat": 49.6390672, "lon": 14.3657164, "tags": {"ele": "513.4", "name": "Hu\u0161ov\u00e1", "natural": "peak", "source": "cuzk:km"}}, {"type": "node", "id": 12994771081, "lat": 49.6430915, "lon": 14.3748067, "tags": {"ele": "436.3", "name": "Na hejku", "natural": "peak", "source": "cuzk:km"}}, {"type": "node", "id": 12994771082, "lat": 49.6346257, "lon": 14.3821947, "tags": {"ele": "507.2", "name": "Kozelkov", "natural": "peak", "source": "cuzk:km"}}, {"type": "node", "id": 12994771083, "lat": 49.6291973, "lon": 14.3925164, "tags": {"ele": "515.6", "name": "Kamenn\u00e1", "natural": "peak", "source": "cuzk:km"}}, {"type": "node", "id": 12994771084, "lat": 49.6373014, "lon": 14.3993195, "tags": {"ele": "492.2", "name": "Na v\u011bnci", "natural": "peak", "source": "cuzk:km"}}, {"type": "node", "id": 12995291435, "lat": 49.6421085, "lon": 14.2518239, "tags": {"board_type": "history", "information": "board", "name": "D\u011bjiny obce Kam\u00fdk nad Vltavou", "tourism": "information"}}, {"type": "node", "id": 12995291436, "lat": 49.6418229, "lon": 14.2512477, "tags": {"board_type": "history", "information": "board", "name": "Na po\u010d\u00e1tku byl z\u00e1pis z kroniky", "tourism": "information"}}, {"type": "node", "id": 12995291438, "lat": 49.6417273, "lon": 14.2477977, "tags": {"information": "board", "name": "Eduka\u010dn\u00ed dendrofon", "tourism": "information"}}, {"type": "node", "id": 13086785107, "lat": 49.745679, "lon": 14.3391672, "tags": {"amenity": "shelter", "shelter_type": "picnic_shelter"}}, {"type": "node", "id": 13086785118, "lat": 49.7455395, "lon": 14.3386415, "tags": {"amenity": "shelter", "shelter_type": "picnic_shelter"}}, {"type": "node", "id": 13302679359, "lat": 49.7369856, "lon": 14.3394026, "tags": {"ele": "450", "name": "Ostr\u00fd vrch", "natural": "peak"}}, {"type": "node", "id": 13302679388, "lat": 49.7286719, "lon": 14.3412072, "tags": {"ele": "373", "name": "Homole", "natural": "peak"}}, {"type": "node", "id": 13302687212, "lat": 49.7370405, "lon": 14.3288479, "tags": {"ele": "411", "name": "H\u016frka", "natural": "peak"}}, {"type": "node", "id": 13302687213, "lat": 49.7299788, "lon": 14.2971593, "tags": {"ele": "420", "name": "Makovice", "natural": "peak"}}, {"type": "node", "id": 13302687216, "lat": 49.7169771, "lon": 14.2947341, "tags": {"ele": "404", "name": "D\u011bjkov", "natural": "peak"}}, {"type": "node", "id": 13302687219, "lat": 49.7079061, "lon": 14.3038632, "tags": {"ele": "345", "name": "\u017delnice", "natural": "peak"}}, {"type": "node", "id": 13302687224, "lat": 49.7265663, "lon": 14.2770004, "tags": {"amenity": "shelter", "shelter_type": "picnic_shelter"}}, {"type": "node", "id": 13327186624, "lat": 49.6079973, "lon": 14.2659872, "tags": {"information": "board", "name": "Viklan Vindi\u0161", "tourism": "information"}}, {"type": "node", "id": 13327186625, "lat": 49.6082641, "lon": 14.2661856, "tags": {"amenity": "shelter", "bin": "yes", "shelter_type": "picnic_shelter"}}, {"type": "node", "id": 13327186626, "lat": 49.6083741, "lon": 14.2662705, "tags": {"information": "board", "name": "Historie dolov\u00e1n\u00ed na Kr\u00e1snohorsku", "tourism": "information"}}, {"type": "way", "id": 32843023, "nodes": [274593795, 369977392, 369977393, 369977391, 274593795], "tags": {"building": "yes", "height": "42", "man_made": "tower", "name": "Rozhledna Vesel\u00fd vrch", "tourism": "viewpoint", "tower:construction": "metal", "tower:type": "observation;communication"}}, {"type": "way", "id": 1153587524, "nodes": [4086257559, 10728350379, 10728350380, 10728350381, 4086257559], "tags": {"building": "yes", "height": "15", "man_made": "tower", "name": "Langova rozhledna", "source": "survey", "tourism": "viewpoint", "tower:construction": "wood", "tower:type": "observation", "wikidata": "Q12032713", "wikipedia": "cs:Langova rozhledna"}}]}