{"version": 0.6, "generator": "Overpass API 0.7.62.8 e802775f", "osm3s": {"timestamp_osm_base": "2026-01-05T16:11:45Z", "copyright": "The data included in this document is from www.openstreetmap.org. The data is made available under ODbL."}, "elements": [{"type": "node", "id": 305665226, "lat": 48.8025588, "lon": 13.6764787, "tags": {"access": "yes", "amenity": "shelter", "denomination": "catholic", "description": "Aufgrund der offenen W\u00e4nde nicht zum \u00dcbernachten geeignet.", "lockable": "no", "locked": "no", "name": "Bergandacht", "shelter_type": "gazebo", "surface": "wood"}}, {"type": "node", "id": 305665589, "lat": 48.8184628, "lon": 13.6786339}, {"type": "node", "id": 305665592, "lat": 48.8184217, "lon": 13.6786124}, {"type": "node", "id": 305665594, "lat": 48.8183905, "lon": 13.6785166}, {"type": "node", "id": 305665597, "lat": 48.8181721, "lon": 13.6784347}, {"type": "node", "id": 305665603, "lat": 48.8180745, "lon": 13.6787061}, {"type": "node", "id": 305665610, "lat": 48.8181675, "lon": 13.6789568}, {"type": "node", "id": 305665611, "lat": 48.818349, "lon": 13.6789075}, {"type": "node", "id": 305665612, "lat": 48.818447, "lon": 13.6788138}, {"type": "node", "id": 305665620, "lat": 48.8185711, "lon": 13.6782443, "tags": {"ele": "1166", "name": "Haidel", "natural": "peak", "wikidata": "Q884249", "wikipedia": "de:Haidel"}}, {"type": "node", "id": 417095376, "lat": 48.8944286, "lon": 13.6612444, "tags": {"board_type": "warning", "information": "board", "inscription": "POZOR St\u00e1tn\u00ed hranice", "tourism": "information"}}, {"type": "node", "id": 417100704, "lat": 48.889185, "lon": 13.6431786, "tags": {"ele": "1139", "name": "Almberg", "natural": "peak", "wikidata": "Q929456", "wikimedia_commons": "Category:Almberg (Bayerischer Wald)", "wikipedia": "de:Almberg (Bayerischer Wald)"}}, {"type": "node", "id": 482655901, "lat": 48.8622655, "lon": 13.756169, "tags": {"board_type": "nature", "information": "board", "name": "Zm\u011bna kulturn\u00ed krajiny", "ref": "14", "tourism": "information"}}, {"type": "node", "id": 576699876, "lat": 48.9349683, "lon": 13.6757619, "tags": {"ele": "1040", "name": "Jelen\u00ed hora", "name:de": "Ha\u00dfberg", "natural": "peak", "source": "\u010c\u00daZK"}}, {"type": "node", "id": 576699901, "lat": 48.9500348, "lon": 13.6550574, "tags": {"ele": "1046", "name": "Jelen\u00ed sla\u0165", "name:cs": "Jelen\u00ed sla\u0165", "natural": "peak", "source:ele": "\u010c\u00daZK", "source:name": "tisicovky.cz"}}, {"type": "node", "id": 576699910, "lat": 48.925016, "lon": 13.7569093, "tags": {"ele": "1094", "name": "Chlustov", "name:cs": "Chlustov", "natural": "peak", "source": "\u010c\u00daZK"}}, {"type": "node", "id": 576733426, "lat": 48.9303779, "lon": 13.6328293, "tags": {"ele": "1068", "name": "Strickberg", "name:cs": "Pomezn\u00ed vrch", "name:de": "Strickberg", "natural": "peak", "source": "tisicovky.cz", "source:position": "\u010c\u00daZK"}}, {"type": "node", "id": 576733430, "lat": 48.8880556, "lon": 13.6866667, "tags": {"ele": "1002", "name": "Pomezn\u00fd", "name:cs": "Pomezn\u00fd", "name:de": "Scheiblingsberg", "natural": "peak", "source": "tisicovky.cz"}}, {"type": "node", "id": 576733433, "lat": 48.8896018, "lon": 13.7808833, "tags": {"ele": "1025", "name": "Radvanovick\u00fd h\u0159bet", "natural": "peak", "source": "tisicovky.cz"}}, {"type": "node", "id": 577323245, "lat": 48.9065865, "lon": 13.6815072, "tags": {"ele": "1079", "name": "Skalnat\u00fd h\u0159bet", "name:cs": "Skalnat\u00fd h\u0159bet", "name:de": "Gaisberg", "natural": "peak", "source:ele": "\u010c\u00daZK", "source:name": "tisicovky.cz"}}, {"type": "node", "id": 577323246, "lat": 48.9203369, "lon": 13.6984541, "tags": {"ele": "1115", "name": "Str\u00e1\u017en\u00fd", "name:cs": "Str\u00e1\u017en\u00fd", "name:de": "Schl\u00f6sselberg", "natural": "peak", "source": "\u010c\u00daZK"}}, {"type": "node", "id": 577336418, "lat": 48.9238612, "lon": 13.6513017, "tags": {"ele": "1065", "name": "\u017d\u010f\u00e1reck\u00e1 hora", "name:cs": "\u017d\u010f\u00e1reck\u00e1 hora", "name:de": "Parmberg", "natural": "peak", "source": "\u010c\u00daZK"}}, {"type": "node", "id": 577336428, "lat": 48.8753077, "lon": 13.7665696, "tags": {"ele": "1080", "name": "\u017dlebsk\u00fd vrch", "name:de": "Sulzberg", "natural": "peak", "source": "tisicovky.cz"}}, {"type": "node", "id": 577336429, "lat": 48.9351704, "lon": 13.7287751, "tags": {"ele": "1133", "name": "\u017dl\u00edbsk\u00fd vrch", "name:cs": "\u017dl\u00edbsk\u00fd vrch", "name:de": "R\u00f6hrenberg", "natural": "peak", "source": "\u010c\u00daZK"}}, {"type": "node", "id": 814886698, "lat": 48.785, "lon": 13.78859, "tags": {"ele": "1235", "name": "Habergrasberg", "natural": "peak"}}, {"type": "node", "id": 920431943, "lat": 48.7552025, "lon": 13.7959309, "tags": {"name": "Stein", "natural": "stone", "tourism": "attraction"}}, {"type": "node", "id": 925407204, "lat": 48.8945469, "lon": 13.6511393, "tags": {"information": "guidepost", "tourism": "information"}}, {"type": "node", "id": 1224984222, "lat": 48.7907671, "lon": 13.6832281, "tags": {"hiking": "yes", "information": "guidepost", "tourism": "information"}}, {"type": "node", "id": 1255483607, "lat": 48.8470756, "lon": 13.6742374, "tags": {"name": "Herzogreuter Klause, am Windischbach", "tourism": "information"}}, {"type": "node", "id": 1332547502, "lat": 48.8289037, "lon": 13.7939767, "tags": {"bicycle": "yes", "ele": "800", "hiking": "yes", "information": "guidepost", "name": "Nov\u00e9 \u00dadol\u00ed (CZ/D)", "operator": "cz:K\u010cT", "ref": "VO749", "ski": "yes", "source": "survey", "tourism": "information"}}, {"type": "node", "id": 1332547507, "lat": 48.8302038, "lon": 13.7949143, "tags": {"ele": "805", "hiking": "yes", "information": "guidepost", "name": "Nov\u00e9 \u00dadol\u00ed (vlak)", "official_name": "Nov\u00e9 \u00dadol\u00ed (\u017dST)", "operator": "cz:K\u010cT", "ref": "VO747", "ski": "yes", "source": "survey", "tourism": "information"}}, {"type": "node", "id": 1332547527, "lat": 48.8287589, "lon": 13.7987535, "tags": {"ele": "830", "hiking": "yes", "information": "guidepost", "name": "Nov\u00e9 \u00fadol\u00ed", "operator": "cz:K\u010cT", "ref": "PT753;VO753", "ski": "yes", "tourism": "information"}}, {"type": "node", "id": 1332547532, "lat": 48.8389426, "lon": 13.7717316, "tags": {"ele": "856", "hiking": "yes", "information": "guidepost", "name": "Sp\u00e1lenec (rozc.)", "operator": "cz:K\u010cT", "ref": "VO126", "tourism": "information"}}, {"type": "node", "id": 1383480797, "lat": 48.9417272, "lon": 13.6179828, "tags": {"information": "board", "name": "Coulissenstreifen", "tourism": "information"}}, {"type": "node", "id": 1384059718, "lat": 48.9355367, "lon": 13.6102627, "tags": {"hiking": "yes", "information": "map", "name": "Hammerklause", "tourism": "information"}}, {"type": "node", "id": 1389346863, "lat": 48.9516248, "lon": 13.6162934, "tags": {"ele": "1020", "hiking": "yes", "information": "guidepost", "name": "Kn\u00ed\u017eec\u00ed pl\u00e1n\u011b (kostel)", "operator": "cz:K\u010cT", "ref": "VO442", "source": "survey", "tourism": "information"}}, {"type": "node", "id": 1398324880, "lat": 48.9444234, "lon": 13.7990107, "tags": {"ele": "820", "hiking": "yes", "information": "guidepost", "name": "Z\u00e1to\u0148", "operator": "cz:K\u010cT", "ref": "VO620", "tourism": "information"}}, {"type": "node", "id": 1598033323, "lat": 48.9218254, "lon": 13.7964753, "tags": {"name": "Informace o peci", "source": "Knowledge", "tourism": "information"}}, {"type": "node", "id": 1774670817, "lat": 48.791382, "lon": 13.791463, "tags": {"information": "guidepost", "tourism": "information"}}, {"type": "node", "id": 1774670820, "lat": 48.7968434, "lon": 13.7846546, "tags": {"information": "guidepost", "tourism": "information"}}, {"type": "node", "id": 1776778994, "lat": 48.9051194, "lon": 13.6320489, "tags": {"information": "guidepost", "name": "Hinterfirmiansreut", "tourism": "information"}}, {"type": "node", "id": 1776778995, "lat": 48.9044424, "lon": 13.6385881, "tags": {"information": "guidepost", "name": "Wegweiser (Kranitzweg)", "tourism": "information"}}, {"type": "node", "id": 1776799633, "lat": 48.9145845, "lon": 13.6530274, "tags": {"ele": "932", "hiking": "yes", "information": "guidepost", "name": "Josefov", "operator": "cz:K\u010cT", "ref": "VO459", "ski": "yes", "source": "survey", "tourism": "information"}}, {"type": "node", "id": 1777783073, "lat": 48.8905042, "lon": 13.6691268, "tags": {"ele": "921", "name": "Mitterscheibling", "name:de": "Mitterscheibling", "natural": "peak"}}, {"type": "node", "id": 1779829738, "lat": 48.9168168, "lon": 13.6572938, "tags": {"information": "guidepost", "name": "Loipen-Wegweiser", "ski": "yes", "tourism": "information"}}, {"type": "node", "id": 1819171342, "lat": 48.9040776, "lon": 13.6696737, "tags": {"ele": "917", "hiking": "yes", "information": "guidepost", "name": "Horn\u00ed Sv\u011btl\u00e9 Hory", "operator": "cz:K\u010cT", "ref": "VO649", "ski": "yes", "tourism": "information"}}, {"type": "node", "id": 1834650978, "lat": 48.9176791, "lon": 13.7977436, "tags": {"amenity": "shelter", "material": "wood", "panoramax": "e3abbfe9-d921-4e26-bd43-9d5ae76fa369", "shelter_type": "picnic_shelter"}}, {"type": "node", "id": 1834960362, "lat": 48.9137992, "lon": 13.7992824, "tags": {"ele": "780", "hiking": "yes", "information": "guidepost", "name": "Zelen\u00e1 cesta", "operator": "cz:K\u010cT", "ref": "VO681", "source": "survey", "tourism": "information"}}, {"type": "node", "id": 1842592893, "lat": 48.8981717, "lon": 13.7187465, "tags": {"ele": "937", "name": "Obecn\u00ed vrch", "name:cs": "Obecn\u00ed vrch", "natural": "peak"}}, {"type": "node", "id": 1845204467, "lat": 48.9117307, "lon": 13.7177288, "tags": {"tourism": "viewpoint"}}, {"type": "node", "id": 1845701589, "lat": 48.8458696, "lon": 13.6427333, "tags": {"ele": "890", "name": "M\u00fchlberg", "natural": "peak"}}, {"type": "node", "id": 1846787256, "lat": 48.7591014, "lon": 13.7212919, "tags": {"ele": "812", "name": "Stubenberg", "natural": "peak"}}, {"type": "node", "id": 1846801307, "lat": 48.7520777, "lon": 13.7477599, "tags": {"ele": "706", "name": "Braunberg", "natural": "peak"}}, {"type": "node", "id": 1867841580, "lat": 48.8310212, "lon": 13.6804465, "tags": {"access": "yes", "amenity": "shelter", "bench": "yes", "description": "Schutzh\u00fctte mit umlaufender Bank. Ist f\u00fcr eine \u00dcbernachtung einer Person mit Isomatte geeignet. Bei Regen und Wind kann es durch die eine Seite reinregnen.", "lockable": "no", "locked": "no", "picnic_table": "no", "shelter_type": "weather_shelter", "surface": "ground", "table": "yes"}}, {"type": "node", "id": 1906058349, "lat": 48.9333786, "lon": 13.7084501, "tags": {"name": "Vyhl\u00eddka V\u00e1clava Hrub\u00e9ho", "source": "survey", "tourism": "viewpoint"}}, {"type": "node", "id": 1945697648, "lat": 48.8863298, "lon": 13.6414113, "tags": {"name": "Aussichtsfelsen am Almberg", "survey:date": "2023-07-17", "tourism": "viewpoint"}}, {"type": "node", "id": 1945907369, "lat": 48.9457584, "lon": 13.6511064, "tags": {"name": "Zona 1", "tourism": "information"}}, {"type": "node", "id": 1945951743, "lat": 48.9208315, "lon": 13.6468463, "tags": {"board_type": "history", "information": "board", "name": "Ritu\u00e1lni kruh", "name:de": "Ritueller Steinkreis", "ref": "5", "tourism": "information"}}, {"type": "node", "id": 1945955435, "lat": 48.9262372, "lon": 13.6442546, "tags": {"alt_name:de": "Scharchen", "ele": "1039", "hiking": "yes", "information": "guidepost", "name": "\u017d\u010f\u00e1rek", "name:de": "Scheureck", "operator": "cz:K\u010cT", "ref": "VO457", "tourism": "information"}}, {"type": "node", "id": 1946000666, "lat": 48.9227731, "lon": 13.6457318, "tags": {"ele": "1022", "hiking": "yes", "information": "guidepost", "name": "Pod \u017dd\u00e1reckou horou", "operator": "cz:K\u010cT", "ref": "VO115", "tourism": "information"}}, {"type": "node", "id": 1950345109, "lat": 48.7609194, "lon": 13.624711, "tags": {"information": "guidepost", "tourism": "information"}}, {"type": "node", "id": 1950345110, "lat": 48.7598127, "lon": 13.6187966, "tags": {"information": "guidepost", "tourism": "information"}}, {"type": "node", "id": 1950348119, "lat": 48.7650953, "lon": 13.6226246, "tags": {"information": "guidepost", "tourism": "information"}}, {"type": "node", "id": 1950348128, "lat": 48.7702047, "lon": 13.6134635, "tags": {"information": "guidepost", "tourism": "information"}}, {"type": "node", "id": 1950348129, "lat": 48.7774067, "lon": 13.6073612, "tags": {"information": "guidepost", "tourism": "information"}}, {"type": "node", "id": 1952743763, "lat": 48.7696871, "lon": 13.614664, "tags": {"information": "guidepost", "tourism": "information"}}, {"type": "node", "id": 1952743766, "lat": 48.7690434, "lon": 13.6163715, "tags": {"information": "guidepost", "tourism": "information"}}, {"type": "node", "id": 1952930252, "lat": 48.7786859, "lon": 13.6332634, "tags": {"information": "guidepost", "tourism": "information"}}, {"type": "node", "id": 1952930258, "lat": 48.7810967, "lon": 13.6329416, "tags": {"information": "guidepost", "tourism": "information"}}, {"type": "node", "id": 1952930264, "lat": 48.7867875, "lon": 13.61864, "tags": {"information": "guidepost", "tourism": "information"}}, {"type": "node", "id": 1952930269, "lat": 48.7859816, "lon": 13.6254957, "tags": {"information": "guidepost", "tourism": "information"}}, {"type": "node", "id": 1952930274, "lat": 48.7857846, "lon": 13.6248493, "tags": {"information": "guidepost", "tourism": "information"}}, {"type": "node", "id": 1952930283, "lat": 48.7794825, "lon": 13.6117607, "tags": {"information": "guidepost", "tourism": "information"}}, {"type": "node", "id": 1952951463, "lat": 48.7617505, "lon": 13.6317507, "tags": {"information": "guidepost", "tourism": "information"}}, {"type": "node", "id": 1952951466, "lat": 48.7738498, "lon": 13.6367825, "tags": {"information": "guidepost", "tourism": "information"}}, {"type": "node", "id": 1952951472, "lat": 48.7683097, "lon": 13.6327109, "tags": {"information": "guidepost", "tourism": "information"}}, {"type": "node", "id": 1952951482, "lat": 48.7694459, "lon": 13.6403328, "tags": {"information": "guidepost", "tourism": "information"}}, {"type": "node", "id": 1952951491, "lat": 48.766927, "lon": 13.6475652, "tags": {"information": "hikingmap", "tourism": "information"}}, {"type": "node", "id": 1952951513, "lat": 48.7720761, "lon": 13.6299862, "tags": {"information": "guidepost", "tourism": "information"}}, {"type": "node", "id": 1952951515, "lat": 48.7642753, "lon": 13.6542383, "tags": {"information": "guidepost", "tourism": "information"}}, {"type": "node", "id": 1964940259, "lat": 48.9071029, "lon": 13.6357567, "tags": {"hiking": "yes", "information": "map", "map_size": "region", "map_type": "topo", "name": "Wanderkarte", "tourism": "information"}}, {"type": "node", "id": 1964983097, "lat": 48.9221048, "lon": 13.6441466, "tags": {"board_type": "history", "information": "board", "name": "Kamenn\u00e9 svatyn\u011b", "name:de": "Steintempel", "ref": "4", "tourism": "information"}}, {"type": "node", "id": 1964983139, "lat": 48.9176091, "lon": 13.629652, "tags": {"hiking": "yes", "information": "guidepost", "tourism": "information"}}, {"type": "node", "id": 1965044252, "lat": 48.9054387, "lon": 13.6346892, "tags": {"hiking": "yes", "information": "guidepost", "tourism": "information"}}, {"type": "node", "id": 2003262465, "lat": 48.9094628, "lon": 13.6377438, "tags": {"name": "Geisberg", "tourism": "information"}}, {"type": "node", "id": 2072255379, "lat": 48.8235098, "lon": 13.6508823, "tags": {"amenity": "shelter", "shelter_type": "weather_shelter"}}, {"type": "node", "id": 2125475589, "lat": 48.9202133, "lon": 13.7076822, "tags": {"ele": "1030", "hiking": "yes", "information": "guidepost", "name": "Kun\u017evart (z\u0159\u00edc., rozc.)", "operator": "cz:K\u010cT", "ref": "VO602", "tourism": "information"}}, {"type": "node", "id": 2125475591, "lat": 48.941879, "lon": 13.7085688, "tags": {"bicycle": "yes", "ele": "880", "hiking": "yes", "information": "guidepost", "name": "Nad Polkou", "operator": "cz:K\u010cT", "ref": "VO599", "ski": "yes", "tourism": "information"}}, {"type": "node", "id": 2125475592, "lat": 48.9463116, "lon": 13.7093595, "tags": {"bicycle": "yes", "ele": "836", "hiking": "yes", "information": "guidepost", "name": "Polka", "operator": "cz:K\u010cT", "ref": "VO598", "tourism": "information"}}, {"type": "node", "id": 2125475595, "lat": 48.9009322, "lon": 13.7116133, "tags": {"ele": "885", "hiking": "yes", "information": "guidepost", "name": "Str\u00e1\u017en\u00fd (Na kapli\u010dce)", "operator": "cz:K\u010cT", "ref": "VO651", "source": "survey", "tourism": "information"}}, {"type": "node", "id": 2125475601, "lat": 48.9100619, "lon": 13.7208154, "tags": {"bicycle": "yes", "ele": "835", "hiking": "yes", "information": "guidepost", "name": "Str\u00e1\u017en\u00fd (park.)", "operator": "cz:K\u010cT", "ref": "VO653", "tourism": "information"}}, {"type": "node", "id": 2125475602, "lat": 48.9058954, "lon": 13.719093, "tags": {"bicycle": "yes", "ele": "810", "hiking": "yes", "information": "guidepost", "name": "Str\u00e1\u017en\u00fd - U \u010cast\u00e9", "operator": "cz:K\u010cT", "ref": "VO647", "source": "survey", "tourism": "information"}}, {"type": "node", "id": 2125475604, "lat": 48.9027093, "lon": 13.7170992, "tags": {"information": "guidepost", "note": "Position may be incorrect", "operator": "cz:K\u010cT", "ref": "none", "ski": "yes", "tourism": "information"}}, {"type": "node", "id": 2125475608, "lat": 48.9174052, "lon": 13.6768952, "tags": {"bicycle": "yes", "ele": "902", "hiking": "yes", "information": "guidepost", "name": "Pod Homol\u00ed", "operator": "cz:K\u010cT", "ref": "VO606", "tourism": "information"}}, {"type": "node", "id": 2125475612, "lat": 48.9268102, "lon": 13.712007, "tags": {"ele": "835", "hiking": "no", "information": "guidepost", "ski": "yes", "tourism": "information"}}, {"type": "node", "id": 2182361258, "lat": 48.8537757, "lon": 13.7661957, "tags": {"ele": "914", "hiking": "yes", "information": "guidepost", "name": "Kr\u00e1sn\u00e1 Hora", "name:de": "Sch\u00f6nberg", "operator": "cz:K\u010cT", "ref": "VO716", "ski": "yes", "tourism": "information"}}, {"type": "node", "id": 2182380196, "lat": 48.8622071, "lon": 13.7562664, "tags": {"bicycle": "yes", "ele": "906", "hiking": "yes", "information": "guidepost", "name": "Mlaka - Zlat\u00e1 stezka", "operator": "cz:K\u010cT", "ref": "VO714", "ski": "yes", "tourism": "information"}}, {"type": "node", "id": 2182380197, "lat": 48.8622929, "lon": 13.757666, "tags": {"bicycle": "yes", "ele": "908", "hiking": "yes", "information": "guidepost", "name": "Mlaka", "ref": "VO077", "ski": "yes", "tourism": "information"}}, {"type": "node", "id": 2182458740, "lat": 48.8861604, "lon": 13.742442, "tags": {"ele": "825", "hiking": "yes", "information": "guidepost", "name": "Doln\u00ed Cazov", "operator": "cz:K\u010cT", "ref": "VO672", "ski": "yes", "source": "survey", "tourism": "information"}}, {"type": "node", "id": 2182458763, "lat": 48.8622062, "lon": 13.7561735, "tags": {"information": "map", "map_size": "region", "map_type": "topo", "name": "Trojmez\u00ed - Dreil\u00e4ndereck", "tourism": "information"}}, {"type": "node", "id": 2271027667, "lat": 48.907883, "lon": 13.6775225, "tags": {"ele": "1058", "name": "Ob\u011btn\u00ed kameny", "name:cs": "Homole", "natural": "peak", "old_name": "Homole", "source": "\u010c\u00daZK"}}, {"type": "node", "id": 2271027668, "lat": 48.9093525, "lon": 13.6716747, "tags": {"board_type": "history", "information": "board", "name": "Mohyla", "name:de": "Grabh\u00fcgel", "ref": "2", "tourism": "information"}}, {"type": "node", "id": 2271027669, "lat": 48.9080873, "lon": 13.6757208, "tags": {"board_type": "history", "information": "board", "name": "Slunovratov\u00e9 kameny", "name:de": "Sonnwendsteine, Heidensteine", "ref": "1", "tourism": "information"}}, {"type": "node", "id": 2383572040, "lat": 48.892995, "lon": 13.7135087, "tags": {"ele": "825", "hiking": "yes", "information": "guidepost", "name": "U Krmelce", "operator": "cz:K\u010cT", "ref": "VO658", "source": "survey", "tourism": "information"}}, {"type": "node", "id": 2383572049, "lat": 48.9469266, "lon": 13.6310586, "tags": {"ele": "964", "hiking": "yes", "information": "guidepost", "name": "\u010cerven\u00fd potok (st\u00e1tn\u00ed hranice)", "official_name": "\u010cerven\u00fd potok (st. hr.)", "operator": "cz:K\u010cT", "ref": "VO125", "source": "survey", "tourism": "information"}}, {"type": "node", "id": 2384211545, "lat": 48.8785073, "lon": 13.7750499, "tags": {"ele": "920", "hiking": "yes", "information": "guidepost", "name": "\u010cesk\u00e9 \u017dleby", "ref": "VO712", "tourism": "information"}}, {"type": "node", "id": 2388923853, "lat": 48.9095348, "lon": 13.7116906, "tags": {"description": "Popis stezek s mapkou.", "information": "board", "name": "Nau\u010dn\u00e9 stezky v okol\u00ed Str\u00e1\u017en\u00e9ho", "name:de": "Lehr - & Wanderpfade um Str\u00e1\u017en\u00fd", "tourism": "information"}}, {"type": "node", "id": 2388923856, "lat": 48.9092326, "lon": 13.7096836, "tags": {"information": "guidepost", "ski": "yes", "tourism": "information"}}, {"type": "node", "id": 2390856926, "lat": 48.9223231, "lon": 13.6666866, "tags": {"bicycle": "yes", "ele": "904", "hiking": "yes", "information": "guidepost", "name": "U P\u00edskovny", "tourism": "information"}}, {"type": "node", "id": 2390856937, "lat": 48.9352139, "lon": 13.6538346, "tags": {"ele": "953", "hiking": "yes", "information": "guidepost", "name": "\u017d\u010f\u00e1reck\u00e9 jez\u00edrko", "operator": "cz:K\u010cT", "ref": "VO453", "tourism": "information"}}, {"type": "node", "id": 2390856943, "lat": 48.9268059, "lon": 13.6498846, "tags": {"board_type": "history", "description": "B\u00fdval\u00e9 ob\u0159adn\u00ed m\u00edsto.", "information": "board", "name": "Menhir", "ref": "6", "tourism": "information"}}, {"type": "node", "id": 2425826070, "lat": 48.9180049, "lon": 13.6603835, "tags": {"name": "Zona 1", "tourism": "information"}}, {"type": "node", "id": 2425826076, "lat": 48.9209518, "lon": 13.6665871, "tags": {"name": "Zona 1", "tourism": "information"}}, {"type": "node", "id": 2426009082, "lat": 48.9224717, "lon": 13.6668617, "tags": {"name": "Kolo ban (Radverbot)", "tourism": "information"}}, {"type": "node", "id": 2426020656, "lat": 48.9091352, "lon": 13.666901, "tags": {"information": "history", "name": "Tumulus", "name:de": "Grabh\u00fcgel (3)", "tourism": "information"}}, {"type": "node", "id": 2430227614, "lat": 48.9084674, "lon": 13.7463282, "tags": {"bicycle": "yes", "ele": "800", "hiking": "yes", "information": "guidepost", "name": "Hlini\u0161t\u011b", "operator": "cz:K\u010cT", "ref": "VO668;1036/5;1025/8,5", "source": "survey", "tourism": "information"}}, {"type": "node", "id": 2430227621, "lat": 48.9070167, "lon": 13.7210959, "tags": {"ele": "815", "hiking": "yes", "information": "guidepost", "name": "Str\u00e1\u017en\u00fd (bus)", "operator": "cz:K\u010cT", "ref": "VO644", "source": "survey", "tourism": "information"}}, {"type": "node", "id": 2430227694, "lat": 48.9068049, "lon": 13.7643579, "tags": {"ele": "785", "hiking": "yes", "information": "guidepost", "name": "\u0158asnice (h\u00e1jovna)", "operator": "cz:K\u010cT", "ref": "VO667", "source": "survey", "tourism": "information"}}, {"type": "node", "id": 2452948206, "lat": 48.9263664, "lon": 13.6682671, "tags": {"name": "Zona 1", "tourism": "information"}}, {"type": "node", "id": 2452948221, "lat": 48.926021, "lon": 13.6682618, "tags": {"information": "guidepost", "name": "6", "tourism": "information"}}, {"type": "node", "id": 2454807761, "lat": 48.9004155, "lon": 13.6513859, "tags": {"information": "guidepost", "name": "Via Nova", "tourism": "information"}}, {"type": "node", "id": 2454810645, "lat": 48.9040436, "lon": 13.6491473, "tags": {"information": "board", "name": "Landesgrenze", "tourism": "information"}}, {"type": "node", "id": 2454823652, "lat": 48.8885491, "lon": 13.6602021, "tags": {"information": "guidepost", "name": "Skilift Talstation", "tourism": "information"}}, {"type": "node", "id": 2454823655, "lat": 48.8909811, "lon": 13.6561908, "tags": {"information": "board", "name": "Auerhahn (Schutzhinweis)", "tourism": "information"}}, {"type": "node", "id": 2454823672, "lat": 48.8884847, "lon": 13.6602825, "tags": {"information": "guidepost", "name": "Vorder-/ Hinterfirmiansreut", "tourism": "information"}}, {"type": "node", "id": 2454824885, "lat": 48.888035, "lon": 13.6645258, "tags": {"information": "guidepost", "tourism": "information"}}, {"type": "node", "id": 2454825112, "lat": 48.8874997, "lon": 13.6604394, "tags": {"check_date": "2021-11-02", "information": "board", "name": "Privatweg! Betreten auf eigene Gefahr", "tourism": "information"}}, {"type": "node", "id": 2454825113, "lat": 48.8876091, "lon": 13.6604716, "tags": {"information": "guidepost", "tourism": "information"}}, {"type": "node", "id": 2454832342, "lat": 48.8790596, "lon": 13.6749639, "tags": {"information": "guidepost", "name": "1km Vorderfirmiansreut", "tourism": "information"}}, {"type": "node", "id": 2454832352, "lat": 48.8847113, "lon": 13.6785658, "tags": {"information": "board", "name": "Zona 1", "tourism": "information"}}, {"type": "node", "id": 2454832367, "lat": 48.8834996, "lon": 13.6756046, "tags": {"information": "guidepost", "tourism": "information"}}, {"type": "node", "id": 2454832371, "lat": 48.8841346, "lon": 13.6695268, "tags": {"board_type": "warning", "information": "board", "inscription": "POZOR St\u00e1tn\u00ed hranice", "tourism": "information"}}, {"type": "node", "id": 2454832373, "lat": 48.8874608, "lon": 13.6685693, "tags": {"board_type": "warning", "information": "board", "inscription": "POZOR St\u00e1tn\u00ed hranice", "tourism": "information"}}, {"type": "node", "id": 2454832395, "lat": 48.8883727, "lon": 13.6681749, "tags": {"information": "board", "name": "Landesgrenze", "tourism": "information"}}, {"type": "node", "id": 2454832423, "lat": 48.8789902, "lon": 13.6749265, "tags": {"ele": "927", "hiking": "yes", "information": "guidepost", "name": "Pod P\u0159edn\u00edm kopcem CZ/D", "operator": "cz:K\u010cT", "ref": "VO123", "tourism": "information"}}, {"type": "node", "id": 2454838807, "lat": 48.9000907, "lon": 13.6613809, "tags": {"information": "board", "name": "Zona 1", "operator": "NP-Sumava", "tourism": "information"}}, {"type": "node", "id": 2454838808, "lat": 48.9015929, "lon": 13.6600639, "tags": {"information": "board", "name": "Zona 1", "operator": "NP-Sumava", "tourism": "information"}}, {"type": "node", "id": 2462490011, "lat": 48.9323196, "lon": 13.7374962, "tags": {"direction": "180", "tourism": "viewpoint"}}, {"type": "node", "id": 2484936149, "lat": 48.8121939, "lon": 13.7811402, "tags": {"name": "Wasserrad", "note": "Wasserm\u00fchl", "source": "survey", "tourism": "attraction"}}, {"type": "node", "id": 2484936151, "lat": 48.8227312, "lon": 13.7822444, "tags": {"bell_tower": "campanile", "man_made": "tower", "note": "Glockenspiel", "source": "survey", "tourism": "attraction", "tower:type": "bell_tower", "wheelchair": "no"}}, {"type": "node", "id": 2496397070, "lat": 48.7911444, "lon": 13.7582238, "tags": {"tourism": "information"}}, {"type": "node", "id": 2515954825, "lat": 48.9250121, "lon": 13.6144472, "tags": {"information": "history", "name": "TONI-ALT`N", "tourism": "information"}}, {"type": "node", "id": 2570215148, "lat": 48.9509557, "lon": 13.7986308, "tags": {"ele": "970", "name": "Medv\u011bd\u00ed brloh", "natural": "peak"}}, {"type": "node", "id": 2671159574, "lat": 48.8268313, "lon": 13.7777139}, {"type": "node", "id": 2671159583, "lat": 48.8268786, "lon": 13.7774128}, {"type": "node", "id": 2671159654, "lat": 48.8271113, "lon": 13.7777884}, {"type": "node", "id": 2671159659, "lat": 48.8271464, "lon": 13.777484}, {"type": "node", "id": 2677070119, "lat": 48.7748178, "lon": 13.7711946, "tags": {"name": "Klausgupf-Alpenblick", "noexit": "yes", "tourism": "viewpoint"}}, {"type": "node", "id": 2767098487, "lat": 48.9446486, "lon": 13.6020802, "tags": {"name": "Pozor", "tourism": "information"}}, {"type": "node", "id": 2840879071, "lat": 48.8182446, "lon": 13.6786811, "tags": {"tourism": "viewpoint"}}, {"type": "node", "id": 2841091706, "lat": 48.8357901, "lon": 13.6879691, "tags": {"description": "Dreisesselblick", "tourism": "viewpoint"}}, {"type": "node", "id": 2841091707, "lat": 48.8356567, "lon": 13.6876691, "tags": {"board:title": "Leopoldsreut", "board_type": "history", "information": "board", "tourism": "information"}}, {"type": "node", "id": 2841091708, "lat": 48.8318791, "lon": 13.6793301, "tags": {"description": "Lusenblick", "tourism": "viewpoint"}}, {"type": "node", "id": 2841091709, "lat": 48.8311149, "lon": 13.6802258, "tags": {"board_type": "board", "information": "board", "tourism": "information"}}, {"type": "node", "id": 2841091711, "lat": 48.8322605, "lon": 13.6818474, "tags": {"board_type": "board", "information": "board", "tourism": "information"}}, {"type": "node", "id": 2841091712, "lat": 48.8326352, "lon": 13.6824534, "tags": {"board_type": "board", "information": "board", "tourism": "information"}}, {"type": "node", "id": 2841091713, "lat": 48.8329964, "lon": 13.6835436, "tags": {"board_type": "board", "information": "board", "tourism": "information"}}, {"type": "node", "id": 2841091715, "lat": 48.8331231, "lon": 13.6830154, "tags": {"board_type": "board", "information": "board", "tourism": "information"}}, {"type": "node", "id": 2841091718, "lat": 48.8335072, "lon": 13.6835016, "tags": {"board:title": "Wirtsmautnerhof", "board_type": "history", "information": "board", "tourism": "information"}}, {"type": "node", "id": 2842432685, "lat": 48.8323473, "lon": 13.6826291, "tags": {"name": "Erinnerungsb\u00e4ume", "tourism": "attraction"}}, {"type": "node", "id": 2842432686, "lat": 48.8021267, "lon": 13.7219738, "tags": {"name": "Europ\u00e4ische Hauptwasserscheide", "tourism": "information"}}, {"type": "node", "id": 2842432687, "lat": 48.8045653, "lon": 13.721956, "tags": {"board_type": "board", "information": "board", "name": "Osterbachkanal", "tourism": "information"}}, {"type": "node", "id": 2842433707, "lat": 48.8330133, "lon": 13.6835035, "tags": {"man_made": "water_well", "tourism": "attraction"}}, {"type": "node", "id": 2842433781, "lat": 48.8495693, "lon": 13.7252789, "tags": {"amenity": "shelter", "bench": "yes", "bin": "yes", "shelter_type": "weather_shelter"}}, {"type": "node", "id": 2844564920, "lat": 48.791235, "lon": 13.6855312, "tags": {"information": "guidepost", "tourism": "information"}}, {"type": "node", "id": 2844564922, "lat": 48.7924229, "lon": 13.7083504, "tags": {"information": "guidepost", "tourism": "information"}}, {"type": "node", "id": 2844564924, "lat": 48.7932588, "lon": 13.6854843, "tags": {"information": "guidepost", "tourism": "information"}}, {"type": "node", "id": 2844564925, "lat": 48.793483, "lon": 13.6838929, "tags": {"information": "guidepost", "tourism": "information"}}, {"type": "node", "id": 2844564926, "lat": 48.7936116, "lon": 13.6858662, "tags": {"information": "guidepost", "tourism": "information"}}, {"type": "node", "id": 2844564927, "lat": 48.793844, "lon": 13.6861013, "tags": {"information": "guidepost", "tourism": "information"}}, {"type": "node", "id": 2844564944, "lat": 48.7944437, "lon": 13.6969123, "tags": {"information": "guidepost", "tourism": "information"}}, {"type": "node", "id": 2844564945, "lat": 48.7986664, "lon": 13.7210171, "tags": {"information": "guidepost", "tourism": "information"}}, {"type": "node", "id": 2844564947, "lat": 48.8024415, "lon": 13.6801577, "tags": {"information": "guidepost", "tourism": "information"}}, {"type": "node", "id": 2844604075, "lat": 48.8131951, "lon": 13.71837, "tags": {"board_type": "board", "information": "board", "name": "Glash\u00fctte in Bramandlraumreuth", "tourism": "information"}}, {"type": "node", "id": 2844604084, "lat": 48.8028325, "lon": 13.6745918, "tags": {"information": "guidepost", "tourism": "information"}}, {"type": "node", "id": 2844604085, "lat": 48.8091585, "lon": 13.6793952, "tags": {"information": "guidepost", "tourism": "information"}}, {"type": "node", "id": 2844604086, "lat": 48.8123179, "lon": 13.6768633, "tags": {"information": "guidepost", "tourism": "information"}}, {"type": "node", "id": 2844604088, "lat": 48.8123864, "lon": 13.7136629, "tags": {"information": "guidepost", "tourism": "information"}}, {"type": "node", "id": 2844604093, "lat": 48.8125676, "lon": 13.7148142, "tags": {"information": "guidepost", "tourism": "information"}}, {"type": "node", "id": 2844604098, "lat": 48.8126182, "lon": 13.6771475, "tags": {"information": "guidepost", "tourism": "information"}}, {"type": "node", "id": 2844608634, "lat": 48.8159782, "lon": 13.6767988, "tags": {"information": "guidepost", "tourism": "information"}}, {"type": "node", "id": 2844608636, "lat": 48.8237389, "lon": 13.721118, "tags": {"information": "guidepost", "tourism": "information"}}, {"type": "node", "id": 2844608640, "lat": 48.8258053, "lon": 13.6758776, "tags": {"information": "guidepost", "tourism": "information"}}, {"type": "node", "id": 2844608641, "lat": 48.8260584, "lon": 13.6752496, "tags": {"information": "guidepost", "tourism": "information"}}, {"type": "node", "id": 2844608647, "lat": 48.8265103, "lon": 13.6747754, "tags": {"information": "guidepost", "tourism": "information"}}, {"type": "node", "id": 2844608651, "lat": 48.8341746, "lon": 13.6846365, "tags": {"information": "guidepost", "tourism": "information"}}, {"type": "node", "id": 2844608652, "lat": 48.8346664, "lon": 13.6853935, "tags": {"information": "guidepost", "tourism": "information"}}, {"type": "node", "id": 2844608653, "lat": 48.8437627, "lon": 13.7002811, "tags": {"information": "guidepost", "tourism": "information"}}, {"type": "node", "id": 2851499529, "lat": 48.7997594, "lon": 13.7236069, "tags": {"information": "guidepost", "tourism": "information"}}, {"type": "node", "id": 2851499531, "lat": 48.8181053, "lon": 13.6787094, "tags": {"board_type": "board", "information": "board", "tourism": "information"}}, {"type": "node", "id": 2851499534, "lat": 48.8181811, "lon": 13.6789229, "tags": {"board_type": "board", "information": "board", "tourism": "information"}}, {"type": "node", "id": 2851499535, "lat": 48.8181852, "lon": 13.6784866, "tags": {"board_type": "board", "information": "board", "tourism": "information"}}, {"type": "node", "id": 2851499538, "lat": 48.8183268, "lon": 13.6788768, "tags": {"board_type": "board", "information": "board", "tourism": "information"}}, {"type": "node", "id": 2851499539, "lat": 48.8183551, "lon": 13.6788246}, {"type": "node", "id": 2851499540, "lat": 48.8183632, "lon": 13.6785404, "tags": {"board_type": "board", "information": "board", "tourism": "information"}}, {"type": "node", "id": 2851499541, "lat": 48.8184188, "lon": 13.6787785, "tags": {"information": "map", "map_size": "region", "map_type": "topo", "tourism": "information"}}, {"type": "node", "id": 2851499542, "lat": 48.818434, "lon": 13.6787355, "tags": {"access": "yes", "amenity": "shelter", "bench": "yes", "description": "Verschlie\u00dfbare Schutzh\u00fctte B\u00e4nken und Tischn. Auf dem Holzboden kann mit einer Isomatte gut \u00fcbernachtet werden.", "lockable": "yes", "locked": "no", "picnic_table": "no", "shelter_type": "basic_hut", "surface": "wood", "table": "yes"}}, {"type": "node", "id": 2851499543, "lat": 48.8184381, "lon": 13.6786971, "tags": {"board_type": "board", "information": "board", "tourism": "information"}}, {"type": "node", "id": 2858226792, "lat": 48.9462135, "lon": 13.6948622, "tags": {"bicycle": "yes", "ele": "920", "hiking": "yes", "information": "guidepost", "name": "Nov\u00e1 Polka", "operator": "cz:K\u010cT", "ref": "VO611", "ski": "yes", "tourism": "information"}}, {"type": "node", "id": 2974009232, "lat": 48.9425203, "lon": 13.6578859, "tags": {"ele": "1031", "name:de": "Sch\u00f6nberg", "natural": "peak", "source": "\u010c\u00daZK"}}, {"type": "node", "id": 2984125588, "lat": 48.7932424, "lon": 13.7731712, "tags": {"information": "map", "name": "Wanderkarte Dreisessel", "tourism": "information"}}, {"type": "node", "id": 2984125590, "lat": 48.7919023, "lon": 13.7784671, "tags": {"information": "guidepost", "name": "Wegweiser Sommerwanderweg Nr.10", "tourism": "information"}}, {"type": "node", "id": 2996255522, "lat": 48.895165, "lon": 13.6269428, "tags": {"ele": "1100", "name": "Alzenberg", "natural": "peak", "wikidata": "Q450685"}}, {"type": "node", "id": 2996255523, "lat": 48.8696839, "lon": 13.6565936, "tags": {"ele": "1010", "fixme": "Der Gipfename Grandelberg scheint mit seiner Position hir nicht zu stimmen.\nBitte pr\u00fcfen!", "natural": "peak", "wikidata": "Q1542982"}}, {"type": "node", "id": 2996255524, "lat": 48.8563241, "lon": 13.6549035, "tags": {"ele": "1060", "name": "Schwarzkopf", "natural": "peak", "wikidata": "Q1568605"}}, {"type": "node", "id": 2996257320, "lat": 48.8394565, "lon": 13.7390168, "tags": {"ele": "1028", "name": "Lichtenberg", "natural": "peak", "wikidata": "Q1823346"}}, {"type": "node", "id": 2996257321, "lat": 48.8435733, "lon": 13.6992756, "tags": {"ele": "1146", "name": "Sulzberg", "natural": "peak", "wikidata": "Q2365081"}}, {"type": "node", "id": 3011173084, "lat": 48.8593005, "lon": 13.7492811, "tags": {"name": "Euro Velo route iron certain trail", "tourism": "information"}}, {"type": "node", "id": 3011173125, "lat": 48.8594864, "lon": 13.749462, "tags": {"name": "KuLaMu Kulturlandschaftsmuseum", "tourism": "information"}}, {"type": "node", "id": 3013771412, "lat": 48.8281997, "lon": 13.7740595, "tags": {"information": "board", "name": "Kulturlandschaftsmuseum KuLaMu", "tourism": "information"}}, {"type": "node", "id": 3014465963, "lat": 48.8252351, "lon": 13.7812691, "tags": {"hiking": "yes", "information": "guidepost", "tourism": "information"}}, {"type": "node", "id": 3014465970, "lat": 48.8240643, "lon": 13.7821087, "tags": {"hiking": "yes", "information": "guidepost", "tourism": "information"}}, {"type": "node", "id": 3014465982, "lat": 48.8253904, "lon": 13.7810601, "tags": {"information": "board", "tourism": "information"}}, {"type": "node", "id": 3016582199, "lat": 48.828915, "lon": 13.7725724, "tags": {"name": "Haidm\u00fchler Industriesteig", "tourism": "information"}}, {"type": "node", "id": 3016582857, "lat": 48.8290139, "lon": 13.7726045, "tags": {"information": "board", "name": "Haidm\u00fchler Industriesteig", "tourism": "information"}}, {"type": "node", "id": 3016582867, "lat": 48.8291163, "lon": 13.7726155, "tags": {"information": "board", "tourism": "information"}}, {"type": "node", "id": 3016582870, "lat": 48.8288056, "lon": 13.7725243, "tags": {"name": "Haidm\u00fchler Industriesteig", "tourism": "information"}}, {"type": "node", "id": 3016602220, "lat": 48.8275872, "lon": 13.770998, "tags": {"information": "board", "name": "Haidm\u00fchler Industriesteig", "tourism": "information"}}, {"type": "node", "id": 3016602221, "lat": 48.8279368, "lon": 13.7708692, "tags": {"name": "Haidm\u00fchler Industriesteig", "tourism": "information"}}, {"type": "node", "id": 3016602222, "lat": 48.8264324, "lon": 13.7712984, "tags": {"name": "Haidm\u00fchler Industriesteig", "tourism": "information"}}, {"type": "node", "id": 3016602225, "lat": 48.8249649, "lon": 13.7744634, "tags": {"name": "Haidm\u00fchler Industriesteig", "tourism": "information"}}, {"type": "node", "id": 3016602226, "lat": 48.8229677, "lon": 13.7734656, "tags": {"name": "Haidm\u00fchler Industriesteig", "tourism": "information"}}, {"type": "node", "id": 3016602227, "lat": 48.8222207, "lon": 13.771926, "tags": {"name": "Haidm\u00fchler Industriesteig", "tourism": "information"}}, {"type": "node", "id": 3016602229, "lat": 48.8211947, "lon": 13.7694155, "tags": {"name": "Haidm\u00fchler Industriesteig", "tourism": "information"}}, {"type": "node", "id": 3016602230, "lat": 48.8225699, "lon": 13.770174, "tags": {"name": "Wasserbr\u00fccke", "tourism": "information"}}, {"type": "node", "id": 3039010687, "lat": 48.8038638, "lon": 13.7889547, "tags": {"information": "board", "tourism": "information"}}, {"type": "node", "id": 3039010688, "lat": 48.803019, "lon": 13.7895147, "tags": {"information": "board", "name": "\"Wolls\u00e4cke\" Verweilplatz", "tourism": "information"}}, {"type": "node", "id": 3039010689, "lat": 48.8030582, "lon": 13.7894911, "tags": {"information": "board", "name": "Klausner H\u00e4usl", "tourism": "information"}}, {"type": "node", "id": 3039010690, "lat": 48.803301, "lon": 13.7897943, "tags": {"tourism": "information"}}, {"type": "node", "id": 3039010691, "lat": 48.8040918, "lon": 13.7887614, "tags": {"information": "board", "name": "Kulturlanschaftsmuseum KuLaMu - Triftsteig Kreuzbachklause", "tourism": "information"}}, {"type": "node", "id": 3039010692, "lat": 48.8040104, "lon": 13.7888688, "tags": {"information": "board", "tourism": "information"}}, {"type": "node", "id": 3039010693, "lat": 48.8017421, "lon": 13.7918702, "tags": {"tourism": "information"}}, {"type": "node", "id": 3039010694, "lat": 48.8021608, "lon": 13.7910173, "tags": {"tourism": "information"}}, {"type": "node", "id": 3039010696, "lat": 48.8029575, "lon": 13.7908698, "tags": {"tourism": "information"}}, {"type": "node", "id": 3089001544, "lat": 48.9053899, "lon": 13.6482258, "tags": {"description": "Ortsplan von Mitterfirmiansreut", "information": "map", "map_size": "city", "tourism": "information"}}, {"type": "node", "id": 3089007746, "lat": 48.9071159, "lon": 13.6538853, "tags": {"information": "board", "name": "Zone 1 - Betretungsverbot", "note": "betrifft nur das Feuchtgebiet (Kotlina Valn\u00e9) -nicht den Weg nach Oberlichtbuchet oder Josefsthal", "tourism": "information"}}, {"type": "node", "id": 3139366208, "lat": 48.9040978, "lon": 13.6693881, "tags": {"board_type": "history", "information": "board", "name": "Horn\u00ed Sv\u011btl\u00e9 Hory", "name:de": "Ober-Lichtbuchet", "tourism": "information"}}, {"type": "node", "id": 3139384577, "lat": 48.9239658, "lon": 13.6510792, "tags": {"board_type": "history", "description": "Kultst\u00e4tte (Nr.7)", "information": "board", "name": "Kultovn\u00ed m\u00edsto a menhiry", "name:de": "Kultst\u00e4tte und Menhire", "ref": "7", "tourism": "information"}}, {"type": "node", "id": 3160861141, "lat": 48.907301, "lon": 13.6639315, "tags": {"ele": "945", "information": "guidepost", "name": "Nad Horn\u00edmi Sv\u011btl\u00fdmi Horami", "tourism": "information"}}, {"type": "node", "id": 3160917772, "lat": 48.8888301, "lon": 13.6686559, "tags": {"board_type": "warning", "information": "board", "inscription": "POZOR St\u00e1tn\u00ed hranice", "tourism": "information"}}, {"type": "node", "id": 3195358925, "lat": 48.9210737, "lon": 13.7095182, "tags": {"board_type": "history", "information": "board", "name": "Ritu\u00e1ln\u00ed m\u00edsto s m\u00edsami", "name:de": "Ritualplatz mi Wasserschalen", "ref": "14", "tourism": "information"}}, {"type": "node", "id": 3195515878, "lat": 48.9210246, "lon": 13.7096513, "tags": {"ele": "1032", "hiking": "yes", "information": "guidepost", "name": "Kun\u017evart", "operator": "cz:K\u010cT", "ref": "VO603", "tourism": "information"}}, {"type": "node", "id": 3195532761, "lat": 48.9204376, "lon": 13.7079836, "tags": {"information": "board", "tourism": "information"}}, {"type": "node", "id": 3239784064, "lat": 48.7872868, "lon": 13.7606387, "tags": {"information": "guidepost", "name": "Winterwanderweg", "tourism": "information"}}, {"type": "node", "id": 3239795048, "lat": 48.7796208, "lon": 13.7413783, "tags": {"information": "guidepost", "tourism": "information"}}, {"type": "node", "id": 3239839912, "lat": 48.7699484, "lon": 13.7394357, "tags": {"ele": "759", "name": "Fuchsenstein", "natural": "peak"}}, {"type": "node", "id": 3239896394, "lat": 48.7719928, "lon": 13.7535012, "tags": {"name": "Kneipp-Gesundheitsanlage", "note": "Verhaltensregeln zum Kneipen", "tourism": "information"}}, {"type": "node", "id": 3239931472, "lat": 48.771154, "lon": 13.7693477, "tags": {"information": "guidepost", "name": "Neurreichenau \u00fcber Michelklamm / Neureichenau 4 / Klasukupf & Dreisessel", "tourism": "information"}}, {"type": "node", "id": 3239952732, "lat": 48.7721899, "lon": 13.762905, "tags": {"name": "Nordik Walking - \u00dcbungen", "tourism": "information"}}, {"type": "node", "id": 3240086134, "lat": 48.7750952, "lon": 13.7713734, "tags": {"information": "guidepost", "tourism": "information"}}, {"type": "node", "id": 3240858827, "lat": 48.8034205, "lon": 13.7908342, "tags": {"information": "guidepost", "tourism": "information"}}, {"type": "node", "id": 3240858828, "lat": 48.8042187, "lon": 13.7883186, "tags": {"information": "board", "name": "Kreuzbachklause", "tourism": "information"}}, {"type": "node", "id": 3240866271, "lat": 48.8044927, "lon": 13.788183, "tags": {"information": "guidepost", "tourism": "information"}}, {"type": "node", "id": 3242225577, "lat": 48.8470083, "lon": 13.6747845, "tags": {"information": "guidepost", "tourism": "information"}}, {"type": "node", "id": 3242262384, "lat": 48.8602212, "lon": 13.6547836, "tags": {"information": "guidepost", "name": "F8", "tourism": "information"}}, {"type": "node", "id": 3242262385, "lat": 48.8599807, "lon": 13.657801, "tags": {"information": "guidepost", "name": "F8", "tourism": "information"}}, {"type": "node", "id": 3242267793, "lat": 48.8584464, "lon": 13.6728348, "tags": {"amenity": "shelter"}}, {"type": "node", "id": 3242286034, "lat": 48.8582537, "lon": 13.6722524, "tags": {"information": "guidepost", "tourism": "information"}}, {"type": "node", "id": 3242291988, "lat": 48.8580953, "lon": 13.6779419, "tags": {"information": "guidepost", "name": "Philippsreut 1km", "tourism": "information"}}, {"type": "node", "id": 3242293861, "lat": 48.8584464, "lon": 13.6728348, "tags": {"description": "Historische Wanderkarte-Goldsteig", "information": "map", "tourism": "information"}}, {"type": "node", "id": 3242303663, "lat": 48.858309, "lon": 13.675411, "tags": {"information": "guidepost", "name": "RW-Philippsreut - 4,5km (Nr.1)", "tourism": "information"}}, {"type": "node", "id": 3242355835, "lat": 48.8470967, "lon": 13.67406, "tags": {"information": "guidepost", "name": "\"Veraltete\" Wegweiser", "tourism": "information"}}, {"type": "node", "id": 3242417750, "lat": 48.8538306, "lon": 13.7661454, "tags": {"amenity": "shelter", "name": "Kr\u00e1sn\u00e1 Hora"}}, {"type": "node", "id": 3328544302, "lat": 48.8614795, "lon": 13.7368037, "tags": {"addr:city": "Haidm\u00fchle", "addr:postcode": "94145", "addr:street": "Langreuter Stra\u00dfe", "contact:website": "https://haidmuehle.eu/erlebnisse/erlebnisse_familie/", "name": "M\u00e4rchenwald-Spielplatz", "tourism": "attraction"}}, {"type": "node", "id": 3381190974, "lat": 48.8516005, "lon": 13.7564009, "tags": {"board_type": "warning", "information": "board", "inscription": "POZOR St\u00e1tn\u00ed hranice", "tourism": "information"}}, {"type": "node", "id": 3420287343, "lat": 48.8810229, "lon": 13.6709816, "tags": {"ele": "997", "name:cs": "P\u0159edn\u00ed kopec", "name:de": "Vorderscheibling", "natural": "peak"}}, {"type": "node", "id": 3420287344, "lat": 48.8892309, "lon": 13.6944712, "tags": {"ele": "998", "name": "Silnick\u00e1 hora", "name:cs": "Silnick\u00e1 hora", "natural": "peak"}}, {"type": "node", "id": 3420287345, "lat": 48.9061185, "lon": 13.6941972, "tags": {"ele": "1029", "name": "L\u00edskov\u00fd vrch", "natural": "peak", "source": "\u010c\u00daZK"}}, {"type": "node", "id": 3420287346, "lat": 48.9081607, "lon": 13.6495549, "tags": {"ele": "963", "name": "Pomezn\u00ed str\u00e1\u0148", "natural": "peak", "source": "\u010c\u00daZK"}}, {"type": "node", "id": 3420287347, "lat": 48.9290161, "lon": 13.6470304, "tags": {"ele": "1062", "name": "Stod\u016fleck\u00e1 hora", "name:de": "Scheurecker Berg", "natural": "peak", "source": "\u010c\u00daZK"}}, {"type": "node", "id": 3420287348, "lat": 48.9345124, "lon": 13.6885499, "tags": {"ele": "1022", "name": "Kohout\u00ed vrch", "name:cs": "Kohout\u00ed vrch", "natural": "peak", "source": "\u010c\u00daZK"}}, {"type": "node", "id": 3473080808, "lat": 48.8796278, "lon": 13.7328174, "tags": {"colour": "yellow", "information": "route_marker", "ref": "2", "tourism": "information"}}, {"type": "node", "id": 3501092805, "lat": 48.92647, "lon": 13.6135336, "tags": {"information": "board", "name": "Meldepunkt 4", "tourism": "information"}}, {"type": "node", "id": 3517379714, "lat": 48.8073005, "lon": 13.7859658, "tags": {"information": "guidepost", "name": "Zu den Wasserf\u00e4llen", "tourism": "information"}}, {"type": "node", "id": 3517379715, "lat": 48.807778, "lon": 13.7858586, "tags": {"information": "guidepost", "tourism": "information"}}, {"type": "node", "id": 3606732120, "lat": 48.7824872, "lon": 13.7968544, "tags": {"name": "Parkgeb\u00fchren (Pkw- 1Tag, 1,70 Euro)", "note": "Stand 6.2015", "tourism": "information"}}, {"type": "node", "id": 3713216646, "lat": 48.857699, "lon": 13.6874332, "tags": {"information": "guidepost", "tourism": "information"}}, {"type": "node", "id": 3713216694, "lat": 48.8621019, "lon": 13.687977, "tags": {"information": "guidepost", "name": "Philippsreut (Nr.5)", "tourism": "information"}}, {"type": "node", "id": 3713216709, "lat": 48.863358, "lon": 13.6858074, "tags": {"information": "guidepost", "tourism": "information"}}, {"type": "node", "id": 3713216717, "lat": 48.8635903, "lon": 13.6787431, "tags": {"information": "board", "tourism": "information"}}, {"type": "node", "id": 3713216861, "lat": 48.8661948, "lon": 13.6831771, "tags": {"information": "guidepost", "tourism": "information"}}, {"type": "node", "id": 3713216871, "lat": 48.8684794, "lon": 13.6739849, "tags": {"information": "guidepost", "survey:date": "2023-07-17", "tourism": "information"}}, {"type": "node", "id": 3713327312, "lat": 48.8261235, "lon": 13.6751998, "tags": {"information": "guidepost", "tourism": "information"}}, {"type": "node", "id": 3713327314, "lat": 48.8262931, "lon": 13.6748184, "tags": {"information": "guidepost", "tourism": "information"}}, {"type": "node", "id": 3713332237, "lat": 48.8341165, "lon": 13.6846578, "tags": {"information": "guidepost", "tourism": "information"}}, {"type": "node", "id": 3713332248, "lat": 48.8384466, "lon": 13.6848418, "tags": {"information": "guidepost", "tourism": "information"}}, {"type": "node", "id": 3713332254, "lat": 48.8425111, "lon": 13.6831228, "tags": {"information": "guidepost", "tourism": "information"}}, {"type": "node", "id": 3713332304, "lat": 48.8513622, "lon": 13.6878157, "tags": {"information": "guidepost", "tourism": "information"}}, {"type": "node", "id": 3713332310, "lat": 48.8515959, "lon": 13.6880183, "tags": {"information": "guidepost", "tourism": "information"}}, {"type": "node", "id": 3713521727, "lat": 48.8474205, "lon": 13.7250268, "tags": {"information": "guidepost", "tourism": "information"}}, {"type": "node", "id": 3713521848, "lat": 48.8638687, "lon": 13.7005003, "tags": {"information": "guidepost", "tourism": "information"}}, {"type": "node", "id": 3715049385, "lat": 48.8028504, "lon": 13.6745734, "tags": {"information": "map", "tourism": "information"}}, {"type": "node", "id": 3715049393, "lat": 48.8047319, "lon": 13.6756661, "tags": {"information": "guidepost", "tourism": "information"}}, {"type": "node", "id": 3715050171, "lat": 48.8123853, "lon": 13.6768686, "tags": {"information": "guidepost", "tourism": "information"}}, {"type": "node", "id": 3715050178, "lat": 48.8128631, "lon": 13.6761773, "tags": {"information": "guidepost", "tourism": "information"}}, {"type": "node", "id": 3715050211, "lat": 48.815937, "lon": 13.6767808, "tags": {"information": "guidepost", "tourism": "information"}}, {"type": "node", "id": 3715219396, "lat": 48.7916427, "lon": 13.6792304, "tags": {"hiking": "yes", "information": "guidepost", "tourism": "information"}}, {"type": "node", "id": 3715219483, "lat": 48.7938099, "lon": 13.703785, "tags": {"hiking": "yes", "information": "guidepost", "tourism": "information"}}, {"type": "node", "id": 3715219511, "lat": 48.7944706, "lon": 13.6968453, "tags": {"hiking": "yes", "information": "guidepost", "tourism": "information"}}, {"type": "node", "id": 3715219546, "lat": 48.8009315, "lon": 13.6818867, "tags": {"information": "guidepost", "tourism": "information"}}, {"type": "node", "id": 3716647546, "lat": 48.7911005, "lon": 13.7198348, "tags": {"information": "guidepost", "tourism": "information"}}, {"type": "node", "id": 3716647580, "lat": 48.7961449, "lon": 13.7191797, "tags": {"information": "guidepost", "tourism": "information"}}, {"type": "node", "id": 3716647614, "lat": 48.7997972, "lon": 13.7236023, "tags": {"information": "guidepost", "tourism": "information"}}, {"type": "node", "id": 3716775408, "lat": 48.8044803, "lon": 13.7219197, "tags": {"information": "guidepost", "tourism": "information"}}, {"type": "node", "id": 3716886505, "lat": 48.8234819, "lon": 13.7214352, "tags": {"information": "guidepost", "tourism": "information"}}, {"type": "node", "id": 3716886714, "lat": 48.8264101, "lon": 13.7256548, "tags": {"information": "guidepost", "tourism": "information"}}, {"type": "node", "id": 3716886803, "lat": 48.8371266, "lon": 13.7249024, "tags": {"information": "guidepost", "tourism": "information"}}, {"type": "node", "id": 3716886826, "lat": 48.8410382, "lon": 13.7225312, "tags": {"information": "guidepost", "tourism": "information"}}, {"type": "node", "id": 3716886833, "lat": 48.8474319, "lon": 13.7251077, "tags": {"information": "guidepost", "tourism": "information"}}, {"type": "node", "id": 3717026942, "lat": 48.8148171, "lon": 13.7652063, "tags": {"information": "guidepost", "tourism": "information"}}, {"type": "node", "id": 3717026946, "lat": 48.8148757, "lon": 13.765273, "tags": {"information": "guidepost", "tourism": "information"}}, {"type": "node", "id": 3717110211, "lat": 48.8101716, "lon": 13.7474448, "tags": {"information": "guidepost", "tourism": "information"}}, {"type": "node", "id": 3717113531, "lat": 48.8113147, "lon": 13.7336779, "tags": {"information": "guidepost", "tourism": "information"}}, {"type": "node", "id": 3717113537, "lat": 48.8117149, "lon": 13.7630443, "tags": {"information": "guidepost", "tourism": "information"}}, {"type": "node", "id": 3717113560, "lat": 48.8129302, "lon": 13.7516903, "tags": {"information": "guidepost", "tourism": "information"}}, {"type": "node", "id": 3914269646, "lat": 48.9350052, "lon": 13.6122141, "tags": {"name": "Coulissenstreifen", "tourism": "information"}}, {"type": "node", "id": 3959947584, "lat": 48.9438634, "lon": 13.7992067, "tags": {"name": "Z\u00e1me\u010dek Z\u00e1to\u0148", "tourism": "information"}}, {"type": "node", "id": 4075607186, "lat": 48.8171498, "lon": 13.6773064, "tags": {"information": "board", "name": "Warnung vor Eisabfall (Sendemast)", "tourism": "information"}}, {"type": "node", "id": 4075607187, "lat": 48.8257653, "lon": 13.6757992, "tags": {"information": "map", "tourism": "information"}}, {"type": "node", "id": 4075607188, "lat": 48.8280386, "lon": 13.676063, "tags": {"information": "guidepost", "name": "Leopoldsreut", "tourism": "information"}}, {"type": "node", "id": 4075619069, "lat": 48.8022452, "lon": 13.6720599, "tags": {"information": "guidepost", "name": "Pater-Rupert-Mayer-Kapelle", "tourism": "information"}}, {"type": "node", "id": 4172124880, "lat": 48.8853693, "lon": 13.7046553, "tags": {"ele": "878", "hiking": "yes", "information": "guidepost", "name": "Kun\u017evartsk\u00e9 sedlo - 878m NN", "operator": "cz:K\u010cT", "ref": "VO113", "tourism": "information"}}, {"type": "node", "id": 4172149859, "lat": 48.8888971, "lon": 13.7912485, "tags": {"hiking": "yes", "information": "guidepost", "name": "Pod Radvanovick\u00fdm vrchem", "operator": "cz:K\u010cT", "ref": "VO664", "tourism": "information"}}, {"type": "node", "id": 4172149874, "lat": 48.8843116, "lon": 13.783802, "tags": {"hiking": "yes", "information": "guidepost", "name": "\u010cesk\u00e9 \u017dleby (vlek doln\u00ed stanice)", "operator": "cz:K\u010cT", "ref": "VO168", "ski": "yes", "tourism": "information"}}, {"type": "node", "id": 4256207143, "lat": 48.9209676, "lon": 13.7778179, "tags": {"board_type": "history", "information": "board", "tourism": "information"}}, {"type": "node", "id": 4332771626, "lat": 48.8868225, "lon": 13.696303, "tags": {"information": "board", "name": "Landstrassen Nr. 26", "tourism": "information"}}, {"type": "node", "id": 4332775465, "lat": 48.8854751, "lon": 13.7046211, "tags": {"information": "guidepost", "name": "Philippsreut 7km /Vorderfrimiansreut 3,5 /Strazny", "tourism": "information"}}, {"type": "node", "id": 4843178512, "lat": 48.8518184, "lon": 13.7562883, "tags": {"ele": "914", "hiking": "yes", "information": "guidepost", "name": "Kr\u00e1sn\u00e1 hora CZ/D", "operator": "cz:K\u010cT", "ref": "VO144", "tourism": "information"}}, {"type": "node", "id": 4843178513, "lat": 48.8518961, "lon": 13.7639379, "tags": {"ele": "911", "hiking": "yes", "information": "guidepost", "name": "Kr\u00e1sn\u00e1 hora (rozc.)", "operator": "cz:K\u010cT", "ref": "VO143", "tourism": "information"}}, {"type": "node", "id": 4843178514, "lat": 48.8415138, "lon": 13.7752515, "tags": {"ele": "887", "hiking": "yes", "information": "guidepost", "name": "V\u00a0Podkov\u011b", "operator": "cz:K\u010cT", "ref": "VO744", "ski": "yes", "tourism": "information"}}, {"type": "node", "id": 4843189036, "lat": 48.8595234, "lon": 13.7496203, "tags": {"ele": "845", "hiking": "yes", "information": "guidepost", "name": "Mechov\u00fd potok CZ/D", "operator": "cz:K\u010cT", "ref": "VO722", "tourism": "information"}}, {"type": "node", "id": 4843217707, "lat": 48.890628, "lon": 13.7227124, "tags": {"ele": "835", "hiking": "yes", "information": "guidepost", "name": "U Doln\u00ed silnice", "operator": "cz:K\u010cT", "ref": "VO655", "tourism": "information"}}, {"type": "node", "id": 4843269754, "lat": 48.9053832, "lon": 13.6483347, "tags": {"ele": "896", "hiking": "yes", "information": "guidepost", "name": "Doln\u00ed Sv\u011btl\u00e9 hory", "operator": "cz:K\u010cT", "ref": "VO120", "tourism": "information"}}, {"type": "node", "id": 4843269766, "lat": 48.9192387, "lon": 13.638137, "tags": {"ele": "994", "hiking": "yes", "information": "guidepost", "name": "Landruck CZ/D", "operator": "cz:K\u010cT", "tourism": "information"}}, {"type": "node", "id": 4843867725, "lat": 48.9341463, "lon": 13.6321386, "tags": {"ele": "1024", "hiking": "yes", "information": "guidepost", "name": "Stod\u016flky", "operator": "cz:K\u010cT", "ref": "VO456", "tourism": "information"}}, {"type": "node", "id": 4843867726, "lat": 48.951043, "lon": 13.6434674, "tags": {"bicycle": "yes", "ele": "995", "hiking": "yes", "information": "guidepost", "name": "\u017d\u010f\u00e1reck\u00e9 sed\u00fdlko", "operator": "cz:K\u010cT", "ref": "VO432", "ski": "yes", "tourism": "information"}}, {"type": "node", "id": 4845263229, "lat": 48.9289705, "lon": 13.7305927, "tags": {"ele": "995", "hiking": "yes", "information": "guidepost", "name": "\u017dl\u00edbky", "operator": "cz:K\u010cT", "ref": "VO614", "tourism": "information"}}, {"type": "node", "id": 4845263230, "lat": 48.9483967, "lon": 13.7497115, "tags": {"ele": "900", "hiking": "yes", "information": "guidepost", "name": "Havr\u00e1nka", "operator": "cz:K\u010cT", "ref": "VO615", "tourism": "information"}}, {"type": "node", "id": 4845263231, "lat": 48.9501687, "lon": 13.7281787, "tags": {"ele": "825", "hiking": "yes", "information": "guidepost", "name": "U Elektr\u00e1rny", "operator": "cz:K\u010cT", "ref": "VO608", "tourism": "information"}}, {"type": "node", "id": 4845964652, "lat": 48.9077985, "lon": 13.730185, "tags": {"ele": "812", "hiking": "yes", "information": "guidepost", "name": "Str\u00e1\u017en\u00fd u k\u0159\u00ed\u017eku", "operator": "cz:K\u010cT", "ref": "VO646", "tourism": "information"}}, {"type": "node", "id": 4845999710, "lat": 48.9242899, "lon": 13.7972563, "tags": {"ele": "796", "hiking": "yes", "information": "guidepost", "name": "Pomn\u00edk mal\u00ed\u0159e a skladatele Andrease Hartauera", "operator": "cz:K\u010cT", "ref": "VO623", "tourism": "information"}}, {"type": "node", "id": 4845999711, "lat": 48.9220587, "lon": 13.7971276, "tags": {"ele": "773", "hiking": "yes", "information": "guidepost", "name": "Lenora", "operator": "cz:K\u010cT", "ref": "VO612", "tourism": "information"}}, {"type": "node", "id": 4846017787, "lat": 48.9283502, "lon": 13.7965321, "tags": {"ele": "780", "hiking": "yes", "information": "guidepost", "name": "Lenora \u017est", "operator": "cz:K\u010cT", "ref": "VO619", "tourism": "information"}}, {"type": "node", "id": 4846017788, "lat": 48.9283114, "lon": 13.7965429, "tags": {"information": "map", "tourism": "information"}}, {"type": "node", "id": 4861135212, "lat": 48.8284727, "lon": 13.7904693}, {"type": "node", "id": 4861135213, "lat": 48.8284724, "lon": 13.7905176}, {"type": "node", "id": 4861135214, "lat": 48.8284355, "lon": 13.790517}, {"type": "node", "id": 4861135215, "lat": 48.8284358, "lon": 13.7904686}, {"type": "node", "id": 4938166039, "lat": 48.9072495, "lon": 13.7205266}, {"type": "node", "id": 4938166040, "lat": 48.907238, "lon": 13.7205908}, {"type": "node", "id": 4938166041, "lat": 48.9071765, "lon": 13.7205652}, {"type": "node", "id": 4938166042, "lat": 48.907188, "lon": 13.7205011}, {"type": "node", "id": 4973997354, "lat": 48.7748578, "lon": 13.771184, "tags": {"ele": "929", "name": "Klausgupf", "natural": "peak"}}, {"type": "node", "id": 5011370521, "lat": 48.7794969, "lon": 13.6113661}, {"type": "node", "id": 5011370522, "lat": 48.7794916, "lon": 13.6114621}, {"type": "node", "id": 5011370523, "lat": 48.7794396, "lon": 13.6114553}, {"type": "node", "id": 5011370524, "lat": 48.7794451, "lon": 13.6113592}, {"type": "node", "id": 5011370525, "lat": 48.7794765, "lon": 13.6114601, "tags": {"historic": "wayside_cross", "inscription": "INRI"}}, {"type": "node", "id": 5114561790, "lat": 48.912214, "lon": 13.6420522, "tags": {"ele": "1018", "name": "Gei\u00dfberg", "name:cs": "Koz\u00ed hora", "natural": "peak", "wikidata": "Q31545810"}}, {"type": "node", "id": 5147960063, "lat": 48.9064001, "lon": 13.6456587, "tags": {"information": "guidepost", "tourism": "information"}}, {"type": "node", "id": 5169456344, "lat": 48.8309009, "lon": 13.7711957, "tags": {"ele": "808", "information": "guidepost", "name": "Spalenec", "tourism": "information"}}, {"type": "node", "id": 5169596075, "lat": 48.8360319, "lon": 13.7624389, "tags": {"information": "guidepost", "name": "Theresienreut", "tourism": "information"}}, {"type": "node", "id": 5380202776, "lat": 48.933209, "lon": 13.6839019, "tags": {"information": "guidepost", "name": "Gelber Pfeil (Richtungsweiser)", "tourism": "information"}}, {"type": "node", "id": 5840509367, "lat": 48.8860651, "lon": 13.7422751, "tags": {"board_type": "history", "information": "board", "name": "Doln\u00ed Cazov", "name:de": "Unter-Zassau", "tourism": "information"}}, {"type": "node", "id": 5840509368, "lat": 48.8844041, "lon": 13.7351391, "tags": {"hiking": "yes", "information": "guidepost", "source": "survey", "tourism": "information"}}, {"type": "node", "id": 5840509369, "lat": 48.8860777, "lon": 13.7379661, "tags": {"destination": "Doln\u00ed Cazov;Mlaka;Mechov\u00fd potok", "hiking": "yes", "information": "guidepost", "operator": "cz:K\u010cT", "ref": "NB026", "source": "survey", "tourism": "information"}}, {"type": "node", "id": 5853533052, "lat": 48.8913088, "lon": 13.6459757, "tags": {"tourism": "viewpoint"}}, {"type": "node", "id": 5904680601, "lat": 48.8758018, "lon": 13.7738975, "tags": {"ele": "926", "information": "guidepost", "name": "Kosteln\u00ed cesta", "operator": "cz:K\u010cT", "tourism": "information"}}, {"type": "node", "id": 5904680602, "lat": 48.8788132, "lon": 13.7753049, "tags": {"board_type": "history", "information": "board", "name": "\u010cesk\u00e9 \u017dleby", "ref": "2", "tourism": "information"}}, {"type": "node", "id": 5904680607, "lat": 48.8790116, "lon": 13.7754676, "tags": {"board_type": "history", "information": "board", "name": "Zlat\u00e1 stezka", "ref": "1", "tourism": "information"}}, {"type": "node", "id": 5904680608, "lat": 48.8789549, "lon": 13.7754654, "tags": {"board_type": "history", "information": "board", "name": "Kameny, koryta, napajedla", "ref": "4", "tourism": "information"}}, {"type": "node", "id": 5904680610, "lat": 48.885924, "lon": 13.769211, "tags": {"board_type": "history", "check_date": "2022-09-20", "information": "board", "name": "Radvanovice", "tourism": "information"}}, {"type": "node", "id": 5904680620, "lat": 48.9498401, "lon": 13.6297707, "tags": {"board_type": "nature", "information": "board", "name": "Tet\u0159\u00edvek obecn\u00fd", "tourism": "information"}}, {"type": "node", "id": 5904680621, "lat": 48.9263188, "lon": 13.6441347, "tags": {"amenity": "shelter", "shelter_type": "picnic_shelter"}}, {"type": "node", "id": 5904680622, "lat": 48.9262, "lon": 13.6442924, "tags": {"board_type": "history", "information": "board", "name": "\u017d\u010f\u00e1rek", "name:de": "Scheuereck", "tourism": "information"}}, {"type": "node", "id": 5904680623, "lat": 48.8805507, "lon": 13.7472932, "tags": {"board_type": "history", "information": "board", "name": "Kr\u00e1lov\u00e9 \u0160umavy", "tourism": "information"}}, {"type": "node", "id": 5904680625, "lat": 48.8538173, "lon": 13.7662034, "tags": {"board_type": "history", "information": "board", "name": "Kr\u00e1sn\u00e1 Hora", "name:de": "Sch\u00f6nberg", "tourism": "information"}}, {"type": "node", "id": 6453121642, "lat": 48.8667941, "lon": 13.7651278, "tags": {"direction": "180-320", "name:de": "Aussichtsplattform", "tourism": "viewpoint"}}, {"type": "node", "id": 6590686625, "lat": 48.8678643, "lon": 13.6177389, "tags": {"information": "guidepost", "name": "Reidlweg", "tourism": "information"}}, {"type": "node", "id": 6591947362, "lat": 48.9007018, "lon": 13.7114329, "tags": {"direction": "0", "information": "board", "tourism": "information"}}, {"type": "node", "id": 6591947363, "lat": 48.9007001, "lon": 13.711394, "tags": {"direction": "0", "information": "map", "tourism": "information"}}, {"type": "node", "id": 6591985407, "lat": 48.896479, "lon": 13.7142423, "tags": {"information": "guidepost", "tourism": "information"}}, {"type": "node", "id": 6591985424, "lat": 48.898762, "lon": 13.7161733, "tags": {"board_type": "history", "information": "board", "name": "Zlat\u00e1 Stezka - Vimpersk\u00e1 Vetev -Infoboard", "tourism": "information"}}, {"type": "node", "id": 6591985425, "lat": 48.8985361, "lon": 13.7162891, "tags": {"ele": "898", "information": "guidepost", "name": "Obecn\u00ed Vrch (Sedlo) 898m", "tourism": "information"}}, {"type": "node", "id": 6592030219, "lat": 48.9072108, "lon": 13.7205795}, {"type": "node", "id": 6592030221, "lat": 48.9072248, "lon": 13.7205163}, {"type": "node", "id": 6592095872, "lat": 48.8857412, "lon": 13.6790621, "tags": {"board_type": "notice", "information": "board", "name": "Zona 1", "tourism": "information"}}, {"type": "node", "id": 6592156375, "lat": 48.8966919, "lon": 13.7143215, "tags": {"colour": "yellow;white", "information": "route_marker", "material": "metal", "tourism": "information"}}, {"type": "node", "id": 6592156380, "lat": 48.8932949, "lon": 13.7137074, "tags": {"colour": "yellow;white", "information": "route_marker", "tourism": "information"}}, {"type": "node", "id": 6592170897, "lat": 48.8812223, "lon": 13.7045434, "tags": {"boundary_name:cs": "\u010cesko-n\u011bmeck\u00e1 st\u00e1tn\u00ed hranice", "ele": "851", "hiking": "yes", "historic": "boundary_stone", "information": "guidepost", "inscription": "Nr. 2 - 1991", "name": "Str\u00e1\u017en\u00fd CZ/D", "operator": "cz:K\u010cT", "ref": "VO709", "tourism": "information"}}, {"type": "node", "id": 6592170911, "lat": 48.8835975, "lon": 13.704424, "tags": {"board_type": "history", "information": "board", "name": "Winterberger Steig", "tourism": "information"}}, {"type": "node", "id": 6793887997, "lat": 48.8745533, "lon": 13.7733194, "tags": {"board_type": "history", "information": "board", "name": "K\u0159\u00ed\u017ee v krajin\u011b", "ref": "5", "tourism": "information"}}, {"type": "node", "id": 6793887998, "lat": 48.871079, "lon": 13.7712133, "tags": {"board_type": "history", "information": "board", "name": "\u017delezn\u00e1 opona", "ref": "6", "tourism": "information"}}, {"type": "node", "id": 6793887999, "lat": 48.8699789, "lon": 13.7700826, "tags": {"board_type": "history", "information": "board", "name": "Hora Sto\u017eec", "ref": "7", "tourism": "information"}}, {"type": "node", "id": 6793888000, "lat": 48.8681647, "lon": 13.7691833, "tags": {"board_type": "nature", "information": "board", "name": "Kamenn\u00e1 hlava (Steink\u00f6pflh\u00e4user)", "ref": "8", "tourism": "information"}}, {"type": "node", "id": 6793888001, "lat": 48.8668942, "lon": 13.765228, "tags": {"board_type": "history", "information": "board", "name": "Zlat\u00e1 stezka v Bavorsku", "ref": "11", "tourism": "information"}}, {"type": "node", "id": 6793888002, "lat": 48.8653088, "lon": 13.7643512, "tags": {"board_type": "history", "information": "board", "name": "Pohled na bavorsk\u00e9 vesnice", "ref": "9", "tourism": "information"}}, {"type": "node", "id": 6793888003, "lat": 48.8650113, "lon": 13.7636705, "tags": {"board_type": "history", "information": "board", "name": "\u0160umavsk\u00e9 vrcholky", "ref": "10", "tourism": "information"}}, {"type": "node", "id": 6793888004, "lat": 48.8649331, "lon": 13.7634625, "tags": {"board_type": "history", "information": "board", "name": "N\u00e1vrat lesa", "ref": "15", "tourism": "information"}}, {"type": "node", "id": 6793888005, "lat": 48.8633519, "lon": 13.7609318, "tags": {"board_type": "history", "information": "board", "name": "K\u0159i\u017eovatka cest a kamenn\u00e9 snosy", "ref": "12", "tourism": "information"}}, {"type": "node", "id": 6793888006, "lat": 48.8623753, "lon": 13.757959, "tags": {"board_type": "nature", "information": "board", "name": "Voda a \u017eivot", "ref": "13", "tourism": "information"}}, {"type": "node", "id": 6898471628, "lat": 48.8335547, "lon": 13.6069277, "tags": {"bicycle": "no", "hiking": "yes", "information": "guidepost", "tourism": "information"}}, {"type": "node", "id": 7029564412, "lat": 48.8648525, "lon": 13.6765938, "tags": {"information": "guidepost", "name": "Goldsteig-Hauptwanderweg (Gr\u00fcnes Dreieck)", "tourism": "information"}}, {"type": "node", "id": 7029657778, "lat": 48.8475094, "lon": 13.7253243, "tags": {"information": "guidepost", "tourism": "information"}}, {"type": "node", "id": 7029670546, "lat": 48.8627245, "lon": 13.7161667, "tags": {"information": "guidepost", "tourism": "information"}}, {"type": "node", "id": 7029670547, "lat": 48.8662141, "lon": 13.6826853, "tags": {"information": "route_marker", "tourism": "information"}}, {"type": "node", "id": 7029670548, "lat": 48.8662237, "lon": 13.6889194, "tags": {"information": "guidepost", "name": "Goldsteig (kein E6-Wegweiser oder Zeichen)", "tourism": "information"}}, {"type": "node", "id": 7029688793, "lat": 48.864805, "lon": 13.6765571, "tags": {"information": "guidepost", "tourism": "information"}}, {"type": "node", "id": 7029706721, "lat": 48.8409356, "lon": 13.7160696, "tags": {"information": "guidepost", "tourism": "information"}}, {"type": "node", "id": 7030789044, "lat": 48.8635845, "lon": 13.6886151, "tags": {"information": "guidepost", "name": "Goldsteigwegweiser", "tourism": "information"}}, {"type": "node", "id": 7030793212, "lat": 48.8636962, "lon": 13.691297, "tags": {"information": "guidepost", "name": "Goldsteigwegweiser (Leopoldsreut 4km)", "tourism": "information"}}, {"type": "node", "id": 7214908528, "lat": 48.8204284, "lon": 13.6097941, "tags": {"hiking": "yes", "information": "guidepost", "tourism": "information"}}, {"type": "node", "id": 7215111365, "lat": 48.8190597, "lon": 13.6045504, "tags": {"information": "guidepost", "tourism": "information"}}, {"type": "node", "id": 7215111366, "lat": 48.8184186, "lon": 13.6050573, "tags": {"information": "board", "tourism": "information"}}, {"type": "node", "id": 7215114499, "lat": 48.8158714, "lon": 13.6064132, "tags": {"information": "guidepost", "tourism": "information"}}, {"type": "node", "id": 7215114500, "lat": 48.8158999, "lon": 13.6064027, "tags": {"information": "board", "tourism": "information"}}, {"type": "node", "id": 7215114555, "lat": 48.8222985, "lon": 13.6169609, "tags": {"information": "guidepost", "tourism": "information"}}, {"type": "node", "id": 7215114556, "lat": 48.8229767, "lon": 13.6136994, "tags": {"information": "guidepost", "tourism": "information"}}, {"type": "node", "id": 7215117823, "lat": 48.8280923, "lon": 13.6290953, "tags": {"information": "guidepost", "tourism": "information"}}, {"type": "node", "id": 7215175954, "lat": 48.8256873, "lon": 13.6014444, "tags": {"information": "guidepost", "tourism": "information"}}, {"type": "node", "id": 7215175955, "lat": 48.8259204, "lon": 13.6038879, "tags": {"information": "guidepost", "tourism": "information"}}, {"type": "node", "id": 7215239973, "lat": 48.8334105, "lon": 13.6261475, "tags": {"information": "guidepost", "tourism": "information"}}, {"type": "node", "id": 7222284494, "lat": 48.831084, "lon": 13.7701759, "tags": {"board_type": "warning", "information": "board", "inscription": "POZOR St\u00e1tn\u00ed hranice", "tourism": "information"}}, {"type": "node", "id": 7222398760, "lat": 48.9112243, "lon": 13.6453574, "tags": {"board_type": "warning", "information": "board", "inscription": "POZOR St\u00e1tn\u00ed hranice", "tourism": "information"}}, {"type": "node", "id": 7248279975, "lat": 48.8522949, "lon": 13.787469, "tags": {"ele": "872", "information": "guidepost", "name": "Kosteln\u00ed a Kr\u00e1snohor. c.", "ref": "VO721", "ski": "yes", "tourism": "information"}}, {"type": "node", "id": 7248289500, "lat": 48.8674814, "lon": 13.7669561, "tags": {"ele": "973", "information": "guidepost", "name": "Kamenn\u00e1 Hlava", "ref": "VO715", "ski": "yes", "tourism": "information"}}, {"type": "node", "id": 7248289503, "lat": 48.8710894, "lon": 13.7711169, "tags": {"ele": "926", "information": "guidepost", "name": "\u010cesk\u00e9 \u017dleby (u vod\u00e1rny)", "ref": "VO719", "ski": "yes", "tourism": "information"}}, {"type": "node", "id": 7248289504, "lat": 48.8737824, "lon": 13.7728254, "tags": {"ele": "926", "information": "guidepost", "name": "\u010cesk\u00e9 \u017dleby", "ref": "VO127", "ski": "yes", "tourism": "information"}}, {"type": "node", "id": 7248289505, "lat": 48.8766405, "lon": 13.7743407, "tags": {"information": "board", "name": "\u010cesk\u00e9 \u017dleby", "tourism": "information"}}, {"type": "node", "id": 7248289506, "lat": 48.8782977, "lon": 13.7751025, "tags": {"bicycle": "yes", "information": "guidepost", "operator": "cz:K\u010cT", "ref": "1025/4;1030/0", "tourism": "information"}}, {"type": "node", "id": 7248289507, "lat": 48.8782064, "lon": 13.774996, "tags": {"bicycle": "yes", "information": "guidepost", "operator": "cz:K\u010cT", "ref": "none", "tourism": "information"}}, {"type": "node", "id": 7248289508, "lat": 48.878249, "lon": 13.7756681, "tags": {"bicycle": "yes", "information": "guidepost", "operator": "cz:K\u010cT", "ref": "none", "tourism": "information"}}, {"type": "node", "id": 7653341888, "lat": 48.8842745, "lon": 13.7318163, "tags": {"information": "guidepost", "tourism": "information"}}, {"type": "node", "id": 7659032072, "lat": 48.871137, "lon": 13.7292411, "tags": {"information": "guidepost", "tourism": "information"}}, {"type": "node", "id": 7659035956, "lat": 48.8807455, "lon": 13.7328197, "tags": {"information": "guidepost", "tourism": "information"}}, {"type": "node", "id": 7659035958, "lat": 48.8800636, "lon": 13.7330515, "tags": {"information": "guidepost", "tourism": "information"}}, {"type": "node", "id": 7659069723, "lat": 48.8829759, "lon": 13.7342801, "tags": {"information": "guidepost", "tourism": "information"}}, {"type": "node", "id": 7689170176, "lat": 48.9150064, "lon": 13.7987412, "tags": {"ele": "775", "name": "Hajn\u00fdho vyhl\u00eddka u M\u00e1jky", "tourism": "viewpoint"}}, {"type": "node", "id": 7691618332, "lat": 48.8607133, "lon": 13.7397667, "tags": {"name": "Magerweide", "tourism": "information"}}, {"type": "node", "id": 7691862826, "lat": 48.86032, "lon": 13.7383483, "tags": {"name": "Kuschwarda", "tourism": "information"}}, {"type": "node", "id": 7692873761, "lat": 48.8296493, "lon": 13.6311434, "tags": {"information": "guidepost", "tourism": "information"}}, {"type": "node", "id": 7692913565, "lat": 48.8261683, "lon": 13.6229396, "tags": {"information": "guidepost", "tourism": "information"}}, {"type": "node", "id": 7692922844, "lat": 48.8333885, "lon": 13.6261041, "tags": {"name": "Wanderkarte", "tourism": "information"}}, {"type": "node", "id": 7692930835, "lat": 48.8331757, "lon": 13.6038974, "tags": {"information": "guidepost", "tourism": "information"}}, {"type": "node", "id": 7692950862, "lat": 48.8334044, "lon": 13.6072419, "tags": {"information": "guidepost", "tourism": "information"}}, {"type": "node", "id": 7700351779, "lat": 48.8791285, "lon": 13.7509692, "tags": {"natural": "peak"}}, {"type": "node", "id": 7700416858, "lat": 48.8796865, "lon": 13.768154, "tags": {"information": "board", "name": "Horn\u00ed Cazov (Oberzassau)", "name:de": "Oberzassau", "tourism": "information"}}, {"type": "node", "id": 7700416866, "lat": 48.8809393, "lon": 13.7500384, "tags": {"natural": "peak"}}, {"type": "node", "id": 7700416878, "lat": 48.8810395, "lon": 13.7470048, "tags": {"information": "guidepost", "name": "Bohumil Hasil", "tourism": "information"}}, {"type": "node", "id": 7816091317, "lat": 48.8195797, "lon": 13.6042928, "tags": {"tourism": "information"}}, {"type": "node", "id": 7856807825, "lat": 48.8250092, "lon": 13.6126453, "tags": {"amenity": "shelter", "shelter_type": "lean_to"}}, {"type": "node", "id": 7942216475, "lat": 48.8791883, "lon": 13.7038346, "tags": {"board:title": "Auf den Spuren des wei\u00dfen Goldes", "information": "board", "tourism": "information"}}, {"type": "node", "id": 7954388046, "lat": 48.764743, "lon": 13.6948783, "tags": {"name": "Hochstein", "natural": "peak"}}, {"type": "node", "id": 8018404803, "lat": 48.798526, "lon": 13.7886752, "tags": {"information": "guidepost", "tourism": "information"}}, {"type": "node", "id": 8018404804, "lat": 48.7966402, "lon": 13.7788375, "tags": {"information": "guidepost", "tourism": "information"}}, {"type": "node", "id": 8050677175, "lat": 48.8784228, "lon": 13.7488927, "tags": {"ele": "860", "hiking": "yes", "information": "guidepost", "name": "Pod \u017dlebsk\u00fdm vrchem", "operator": "cz:K\u010cT", "ref": "VO713", "ski": "yes", "tourism": "information"}}, {"type": "node", "id": 8221748289, "lat": 48.8597535, "lon": 13.6230466, "tags": {"information": "guidepost", "tourism": "information"}}, {"type": "node", "id": 8414283558, "lat": 48.8287159, "lon": 13.7987621, "tags": {"information": "board", "name": "St\u00f3\u017eecko - Volarsko", "tourism": "information"}}, {"type": "node", "id": 8414283559, "lat": 48.8287768, "lon": 13.7987492, "tags": {"board_type": "history", "information": "board", "name": "Nov\u00e9 \u00fadol\u00ed", "name:de": "Neuthal", "tourism": "information"}}, {"type": "node", "id": 8414283560, "lat": 48.8292312, "lon": 13.7942272, "tags": {"board_type": "history", "description": "NS Zlat\u00e1 stezka", "information": "board", "name": "Nov\u00e9 \u00dadol\u00ed", "tourism": "information"}}, {"type": "node", "id": 8940495073, "lat": 48.8905707, "lon": 13.636368, "tags": {"hiking": "yes", "information": "guidepost", "noname": "yes", "tourism": "information"}}, {"type": "node", "id": 9084319950, "lat": 48.9448564, "lon": 13.7976304, "tags": {"information": "map", "tourism": "information"}}, {"type": "node", "id": 9202134609, "lat": 48.90836, "lon": 13.6466424, "tags": {"board_type": "warning", "information": "board", "inscription": "POZOR St\u00e1tn\u00ed hranice", "tourism": "information"}}, {"type": "node", "id": 9202134617, "lat": 48.9168379, "lon": 13.6414297, "tags": {"board_type": "warning", "information": "board", "inscription": "POZOR St\u00e1tn\u00ed hranice", "tourism": "information"}}, {"type": "node", "id": 9202134618, "lat": 48.9164139, "lon": 13.639908, "tags": {"board_type": "warning", "information": "board", "inscription": "POZOR St\u00e1tn\u00ed hranice", "tourism": "information"}}, {"type": "node", "id": 9202135828, "lat": 48.9435519, "lon": 13.6080267, "tags": {"board_type": "warning", "information": "board", "inscription": "POZOR St\u00e1tn\u00ed hranice", "tourism": "information"}}, {"type": "node", "id": 9733595783, "lat": 48.7953075, "lon": 13.7730154, "tags": {"amenity": "shelter", "bench": "yes", "narrow": "yes", "shelter_type": "public_transport", "wheelchair": "no"}}, {"type": "node", "id": 9733641103, "lat": 48.7770466, "lon": 13.6783201, "tags": {"amenity": "shelter", "bench": "yes", "kerb": "raised", "shelter_type": "public_transport", "wheelchair": "no"}}, {"type": "node", "id": 9763977752, "lat": 48.7720808, "lon": 13.656475, "tags": {"amenity": "shelter", "bench": "yes", "kerb": "raised", "kerb:height": "0.18", "shelter_type": "public_transport", "wheelchair": "no"}}, {"type": "node", "id": 9764801903, "lat": 48.8271953, "lon": 13.7746733, "tags": {"amenity": "shelter", "bench": "yes", "shelter_type": "public_transport"}}, {"type": "node", "id": 9812499005, "lat": 48.9226773, "lon": 13.7986655, "tags": {"information": "map", "map_size": "city", "map_type": "information", "tourism": "information"}}, {"type": "node", "id": 9814367654, "lat": 48.7936545, "lon": 13.6676347, "tags": {"amenity": "shelter", "bench": "yes", "kerb": "raised", "shelter_type": "public_transport", "wheelchair": "no"}}, {"type": "node", "id": 9825429747, "lat": 48.7938155, "lon": 13.6213888}, {"type": "node", "id": 9825429748, "lat": 48.7938396, "lon": 13.6214103}, {"type": "node", "id": 9825429749, "lat": 48.7938203, "lon": 13.62146}, {"type": "node", "id": 9825429750, "lat": 48.7937963, "lon": 13.6214385}, {"type": "node", "id": 9850602175, "lat": 48.8472079, "lon": 13.73595}, {"type": "node", "id": 9850602176, "lat": 48.8471951, "lon": 13.7359361}, {"type": "node", "id": 9850602177, "lat": 48.8472057, "lon": 13.7359132}, {"type": "node", "id": 9850602178, "lat": 48.8472186, "lon": 13.7359271}, {"type": "node", "id": 9850692994, "lat": 48.828826, "lon": 13.7670368}, {"type": "node", "id": 9850692995, "lat": 48.8288458, "lon": 13.7670368}, {"type": "node", "id": 9850692996, "lat": 48.8288458, "lon": 13.7670127}, {"type": "node", "id": 9850692997, "lat": 48.828826, "lon": 13.7670127}, {"type": "node", "id": 9855163546, "lat": 48.8314698, "lon": 13.6355952, "tags": {"amenity": "shelter", "bench": "yes", "kerb": "raised", "shelter_type": "public_transport", "wheelchair": "no"}}, {"type": "node", "id": 9906045394, "lat": 48.7938072, "lon": 13.7263592, "tags": {"information": "guidepost", "tourism": "information"}}, {"type": "node", "id": 9910149626, "lat": 48.7944383, "lon": 13.7270473, "tags": {"information": "map", "map_size": "region", "map_type": "hiking", "tourism": "information"}}, {"type": "node", "id": 9979428557, "lat": 48.8935836, "lon": 13.6485702, "tags": {"amenity": "shelter", "bench": "yes", "kerb": "raised", "shelter_type": "public_transport", "wheelchair": "no"}}, {"type": "node", "id": 10135412071, "lat": 48.8422698, "lon": 13.6548862, "tags": {"information": "guidepost", "tourism": "information"}}, {"type": "node", "id": 10136006041, "lat": 48.8791918, "lon": 13.7039391, "tags": {"information": "map", "map_size": "region", "map_type": "yes", "tourism": "information"}}, {"type": "node", "id": 10136113311, "lat": 48.8391871, "lon": 13.6011732}, {"type": "node", "id": 10136113312, "lat": 48.8391639, "lon": 13.6011765}, {"type": "node", "id": 10136113313, "lat": 48.8391667, "lon": 13.6012236}, {"type": "node", "id": 10136113314, "lat": 48.8391899, "lon": 13.6012204}, {"type": "node", "id": 10157350224, "lat": 48.867933, "lon": 13.6800072, "tags": {"addr:housenumber": "36", "addr:street": "Hauptstra\u00dfe", "contact:email": "tourismus@philippsreut.de", "contact:facebook": "https://www.facebook.com/philippsreut", "contact:phone": "+498550 921 95 25", "contact:website": "https://philippsreut.de/", "information": "office", "name": "Tourismusb\u00fcro Philippsreut", "opening_hours": "Mo-Th 10:00-14:00; Fr 10:00-13:00", "tourism": "information"}}, {"type": "node", "id": 10246279105, "lat": 48.7742566, "lon": 13.7510557, "tags": {"information": "guidepost", "tourism": "information"}}, {"type": "node", "id": 10540144144, "lat": 48.755216, "lon": 13.7027891, "tags": {"ele": "829", "name": "Zillberg", "natural": "peak"}}, {"type": "node", "id": 10611950507, "lat": 48.9220181, "lon": 13.7971089, "tags": {"amenity": "shelter", "shelter_type": "picnic_shelter"}}, {"type": "node", "id": 10715600652, "lat": 48.8910508, "lon": 13.799355, "tags": {"information": "board", "name": "Hr\u00e1dek na Sto\u017ee\u010dk\u00e9 sk\u00e1le", "ref": "9", "tourism": "information"}}, {"type": "node", "id": 10865950050, "lat": 48.7736003, "lon": 13.7475242, "tags": {"information": "guidepost", "tourism": "information"}}, {"type": "node", "id": 10866088914, "lat": 48.8723975, "lon": 13.613987, "tags": {"information": "board", "tourism": "information"}}, {"type": "node", "id": 10933696627, "lat": 48.8865037, "lon": 13.6416097, "tags": {"information": "map", "tourism": "information"}}, {"type": "node", "id": 10933696628, "lat": 48.8865822, "lon": 13.6415016, "tags": {"hiking": "yes", "information": "guidepost", "survey:date": "2023-07-17", "tourism": "information"}}, {"type": "node", "id": 11051185305, "lat": 48.8698556, "lon": 13.6683497, "tags": {"board_type": "history", "information": "board", "survey:date": "2023-07-17", "tourism": "information"}}, {"type": "node", "id": 11051185306, "lat": 48.8790551, "lon": 13.6502479, "tags": {"information": "guidepost", "survey:date": "2023-07-17", "tourism": "information"}}, {"type": "node", "id": 11051185806, "lat": 48.8854203, "lon": 13.6429865, "tags": {"information": "guidepost", "survey:date": "2023-07-17", "tourism": "information"}}, {"type": "node", "id": 11051185807, "lat": 48.885474, "lon": 13.6425465, "tags": {"information": "guidepost", "survey:date": "2023-07-17", "tourism": "information"}}, {"type": "node", "id": 11051185905, "lat": 48.8698777, "lon": 13.6683175, "tags": {"information": "map", "survey:date": "2023-07-17", "tourism": "information"}}, {"type": "node", "id": 11051185906, "lat": 48.8698995, "lon": 13.6682877, "tags": {"information": "guidepost", "survey:date": "2023-07-17", "tourism": "information"}}, {"type": "node", "id": 11051185907, "lat": 48.8821646, "lon": 13.6466031, "tags": {"information": "map", "survey:date": "2023-07-17", "tourism": "information"}}, {"type": "node", "id": 11051186005, "lat": 48.8698138, "lon": 13.6684458, "tags": {"information": "guidepost", "survey:date": "2023-07-17", "tourism": "information"}}, {"type": "node", "id": 11051186006, "lat": 48.8721156, "lon": 13.6603604, "tags": {"information": "guidepost", "survey:date": "2023-07-17", "tourism": "information"}}, {"type": "node", "id": 11051186008, "lat": 48.8820981, "lon": 13.6465217, "tags": {"information": "guidepost", "survey:date": "2023-07-17", "tourism": "information"}}, {"type": "node", "id": 11051186906, "lat": 48.8726321, "lon": 13.6566651, "tags": {"information": "guidepost", "survey:date": "2023-07-17", "tourism": "information"}}, {"type": "node", "id": 11051186907, "lat": 48.8818714, "lon": 13.6463846, "tags": {"information": "guidepost", "survey:date": "2023-07-17", "tourism": "information"}}, {"type": "node", "id": 11096706723, "lat": 48.9234418, "lon": 13.6378373, "tags": {"board_type": "warning", "information": "board", "inscription": "POZOR St\u00e1tn\u00ed hranice", "tourism": "information"}}, {"type": "node", "id": 11096706724, "lat": 48.9203767, "lon": 13.6379746, "tags": {"board_type": "warning", "information": "board", "inscription": "POZOR St\u00e1tn\u00ed hranice", "tourism": "information"}}, {"type": "node", "id": 11096858088, "lat": 48.9054377, "lon": 13.6482297, "tags": {"board_type": "warning", "information": "board", "inscription": "POZOR St\u00e1tn\u00ed hranice", "tourism": "information"}}, {"type": "node", "id": 11096858089, "lat": 48.9028187, "lon": 13.649853, "tags": {"board_type": "warning", "information": "board", "inscription": "POZOR St\u00e1tn\u00ed hranice", "tourism": "information"}}, {"type": "node", "id": 11096858091, "lat": 48.8973991, "lon": 13.6532384, "tags": {"board_type": "warning", "information": "board", "inscription": "POZOR St\u00e1tn\u00ed hranice", "tourism": "information"}}, {"type": "node", "id": 11096858093, "lat": 48.8936006, "lon": 13.6554741, "tags": {"board_type": "warning", "information": "board", "inscription": "POZOR St\u00e1tn\u00ed hranice", "tourism": "information"}}, {"type": "node", "id": 11096875541, "lat": 48.8939833, "lon": 13.6586055, "tags": {"board_type": "warning", "information": "board", "inscription": "POZOR St\u00e1tn\u00ed hranice", "tourism": "information"}}, {"type": "node", "id": 11097432399, "lat": 48.8905165, "lon": 13.6696392, "tags": {"board_type": "warning", "information": "board", "inscription": "POZOR St\u00e1tn\u00ed hranice", "tourism": "information"}}, {"type": "node", "id": 11097492212, "lat": 48.8835528, "lon": 13.6695731, "tags": {"board_type": "warning", "information": "board", "inscription": "POZOR St\u00e1tn\u00ed hranice", "tourism": "information"}}, {"type": "node", "id": 11097509643, "lat": 48.8801458, "lon": 13.6714336, "tags": {"board_type": "warning", "information": "board", "inscription": "POZOR St\u00e1tn\u00ed hranice", "tourism": "information"}}, {"type": "node", "id": 11097534615, "lat": 48.8787443, "lon": 13.6762129, "tags": {"board_type": "warning", "information": "board", "inscription": "POZOR St\u00e1tn\u00ed hranice", "tourism": "information"}}, {"type": "node", "id": 11097619152, "lat": 48.878759, "lon": 13.6798196, "tags": {"board_type": "warning", "information": "board", "inscription": "POZOR St\u00e1tn\u00ed hranice", "tourism": "information"}}, {"type": "node", "id": 11098186089, "lat": 48.8595958, "lon": 13.7495623, "tags": {"board_type": "warning", "information": "board", "inscription": "POZOR St\u00e1tn\u00ed hranice", "tourism": "information"}}, {"type": "node", "id": 11098186090, "lat": 48.8594536, "lon": 13.749719, "tags": {"information": "board", "name": "\u010cESK\u00c1 REPUBLIKA", "tourism": "information"}}, {"type": "node", "id": 11098852495, "lat": 48.8287, "lon": 13.7926037, "tags": {"direction": "275", "information": "board", "name": "\u010cESK\u00c1 REPUBLIKA", "tourism": "information"}}, {"type": "node", "id": 11172653686, "lat": 48.8930524, "lon": 13.7139267, "tags": {"board_type": "history", "information": "board", "name": "Zlat\u00e1 stezka - Goldener Steig", "tourism": "information"}}, {"type": "node", "id": 11172653693, "lat": 48.8287428, "lon": 13.7987554, "tags": {"bicycle": "yes", "information": "guidepost", "operator": "cz:K\u010cT", "ref": "none", "tourism": "information"}}, {"type": "node", "id": 11207195192, "lat": 48.815208, "lon": 13.7653042, "tags": {"amenity": "kneipp_water_cure", "name": "Kneippanlage Jogl", "tourism": "attraction"}}, {"type": "node", "id": 11207195194, "lat": 48.8151015, "lon": 13.765566, "tags": {"information": "board", "name": "Kneippanlage Jogl", "tourism": "information"}}, {"type": "node", "id": 11215502240, "lat": 48.7640623, "lon": 13.6305249, "tags": {"amenity": "shelter", "bench": "yes", "shelter_type": "public_transport", "wheelchair": "no"}}, {"type": "node", "id": 11250564319, "lat": 48.9120092, "lon": 13.7166903, "tags": {"description": "Nau\u010dn\u00e9 stezky v okol\u00ed Str\u00e1\u017en\u00e9ho", "information": "board", "name": "Kaple na p\u0159edk\u0159es\u0165ansk\u00e9m sakr\u00e1ln\u00edm m\u00edst\u011b", "ref": "15", "tourism": "information"}}, {"type": "node", "id": 11250597766, "lat": 48.9076314, "lon": 13.7209239, "tags": {"information": "map", "name": "Str\u00e1\u017en\u00fd", "tourism": "information"}}, {"type": "node", "id": 11251074317, "lat": 48.9080292, "lon": 13.7210148, "tags": {"information": "map", "name": "Str\u00e1\u017en\u00fd", "tourism": "information"}}, {"type": "node", "id": 11251074318, "lat": 48.9083289, "lon": 13.7209947, "tags": {"information": "board", "name": "Str\u00e1\u017en\u00fd na Zlat\u00e9 stezce", "tourism": "information"}}, {"type": "node", "id": 11251074319, "lat": 48.9080598, "lon": 13.7210157, "tags": {"information": "map", "name": "N\u00e1rodn\u00ed park \u0160umava", "tourism": "information"}}, {"type": "node", "id": 11261319752, "lat": 48.8778184, "lon": 13.6652769, "tags": {"hiking": "yes", "information": "map", "map_size": "region", "map_type": "street", "name": "Goldsteigwandern", "tourism": "information"}}, {"type": "node", "id": 11261319754, "lat": 48.8774967, "lon": 13.666386, "tags": {"hiking": "yes", "information": "map", "map_size": "region", "map_type": "topo", "tourism": "information"}}, {"type": "node", "id": 11261319757, "lat": 48.8780557, "lon": 13.6728028}, {"type": "node", "id": 11261319758, "lat": 48.8780283, "lon": 13.6728281}, {"type": "node", "id": 11261319759, "lat": 48.8780547, "lon": 13.6728943}, {"type": "node", "id": 11261319760, "lat": 48.8780821, "lon": 13.672869}, {"type": "node", "id": 11261319765, "lat": 48.9403682, "lon": 13.7438544, "tags": {"board_type": "history", "information": "board", "tourism": "information"}}, {"type": "node", "id": 11261319768, "lat": 48.9484812, "lon": 13.749865, "tags": {"board_type": "history", "information": "board", "name": "Zlat\u00e1 stezka-Havr\u00e1nka", "ref": "8", "tourism": "information"}}, {"type": "node", "id": 11264401523, "lat": 48.8235085, "lon": 13.6508938, "tags": {"board_type": "history", "information": "board", "tourism": "information"}}, {"type": "node", "id": 11264481765, "lat": 48.8339527, "lon": 13.6412046, "tags": {"hiking": "yes", "information": "guidepost", "tourism": "information"}}, {"type": "node", "id": 11374067300, "lat": 48.8111083, "lon": 13.7999445, "tags": {"board_type": "warning", "direction": "50", "information": "board", "inscription": "POZOR St\u00e1tn\u00ed hranice", "tourism": "information"}}, {"type": "node", "id": 11374067301, "lat": 48.8148506, "lon": 13.7957197, "tags": {"board_type": "warning", "direction": "90", "information": "board", "inscription": "POZOR St\u00e1tn\u00ed hranice", "tourism": "information"}}, {"type": "node", "id": 11374557625, "lat": 48.827439, "lon": 13.7904209, "tags": {"board_type": "warning", "direction": "135", "information": "board", "inscription": "POZOR St\u00e1tn\u00ed hranice", "tourism": "information"}}, {"type": "node", "id": 11460203085, "lat": 48.8290326, "lon": 13.7935431, "tags": {"hiking": "yes", "information": "guidepost", "name": "Nov\u00e9 \u00dadol\u00ed", "operator": "Via Czechia", "tourism": "information"}}, {"type": "node", "id": 11494808764, "lat": 48.76177, "lon": 13.6310083, "tags": {"hiking": "yes", "information": "guidepost", "tourism": "information"}}, {"type": "node", "id": 11494816266, "lat": 48.7618461, "lon": 13.6339843, "tags": {"hiking": "yes", "information": "guidepost", "tourism": "information"}}, {"type": "node", "id": 11494828235, "lat": 48.7653578, "lon": 13.6400983, "tags": {"hiking": "yes", "information": "guidepost", "tourism": "information"}}, {"type": "node", "id": 11565023019, "lat": 48.764957, "lon": 13.6477165, "tags": {"hiking": "yes", "information": "guidepost", "tourism": "information"}}, {"type": "node", "id": 11565023022, "lat": 48.7629454, "lon": 13.6461913, "tags": {"hiking": "yes", "information": "guidepost", "tourism": "information"}}, {"type": "node", "id": 11601949389, "lat": 48.7583706, "lon": 13.6086446}, {"type": "node", "id": 11601949390, "lat": 48.758382, "lon": 13.6086821}, {"type": "node", "id": 11601949391, "lat": 48.7584008, "lon": 13.6086689}, {"type": "node", "id": 11601949392, "lat": 48.7583893, "lon": 13.6086313}, {"type": "node", "id": 11601949407, "lat": 48.8531948, "lon": 13.7326819}, {"type": "node", "id": 11601949408, "lat": 48.8531652, "lon": 13.7326705}, {"type": "node", "id": 11601949409, "lat": 48.8531708, "lon": 13.7326372}, {"type": "node", "id": 11601949410, "lat": 48.8532003, "lon": 13.7326486}, {"type": "node", "id": 11701345490, "lat": 48.8271262, "lon": 13.7776591}, {"type": "node", "id": 11701345493, "lat": 48.8268605, "lon": 13.7775693}, {"type": "node", "id": 11701345494, "lat": 48.8268483, "lon": 13.7775661}, {"type": "node", "id": 11711329645, "lat": 48.8561715, "lon": 13.7350235}, {"type": "node", "id": 11711329646, "lat": 48.8561521, "lon": 13.7350608}, {"type": "node", "id": 11711329647, "lat": 48.8561701, "lon": 13.7350824}, {"type": "node", "id": 11711329648, "lat": 48.8561895, "lon": 13.7350452}, {"type": "node", "id": 11716348111, "lat": 48.8608872, "lon": 13.7298087}, {"type": "node", "id": 11716348112, "lat": 48.8609, "lon": 13.7298341}, {"type": "node", "id": 11716348113, "lat": 48.8609184, "lon": 13.7298126}, {"type": "node", "id": 11716348114, "lat": 48.8609056, "lon": 13.7297872}, {"type": "node", "id": 11716729454, "lat": 48.8685193, "lon": 13.6800447}, {"type": "node", "id": 11716729455, "lat": 48.8684956, "lon": 13.6800143}, {"type": "node", "id": 11716729456, "lat": 48.8685116, "lon": 13.6799856}, {"type": "node", "id": 11716729457, "lat": 48.8685352, "lon": 13.680016}, {"type": "node", "id": 11736797570, "lat": 48.9047179, "lon": 13.6348944}, {"type": "node", "id": 11736797571, "lat": 48.9047079, "lon": 13.6349283}, {"type": "node", "id": 11736797572, "lat": 48.9047279, "lon": 13.6349421}, {"type": "node", "id": 11736797573, "lat": 48.904738, "lon": 13.6349081}, {"type": "node", "id": 11737193216, "lat": 48.8723965, "lon": 13.6141323}, {"type": "node", "id": 11737193217, "lat": 48.8723682, "lon": 13.6141337}, {"type": "node", "id": 11737193218, "lat": 48.8723675, "lon": 13.614099}, {"type": "node", "id": 11737193219, "lat": 48.8723958, "lon": 13.6140977}, {"type": "node", "id": 11737246838, "lat": 48.8250107, "lon": 13.612529}, {"type": "node", "id": 11737246839, "lat": 48.8250001, "lon": 13.6125666}, {"type": "node", "id": 11737246840, "lat": 48.825018, "lon": 13.6125782}, {"type": "node", "id": 11737246841, "lat": 48.8250286, "lon": 13.6125407}, {"type": "node", "id": 11811495327, "lat": 48.825673, "lon": 13.7990808, "tags": {"information": "board", "name": "Neuthal", "tourism": "information"}}, {"type": "node", "id": 11811495338, "lat": 48.8378673, "lon": 13.7945369, "tags": {"information": "board", "name": "Zone 1- Betreten verboten", "tourism": "information"}}, {"type": "node", "id": 11811498791, "lat": 48.820262, "lon": 13.7682928, "tags": {"information": "map", "map_size": "local", "map_type": "hiking", "tourism": "information"}}, {"type": "node", "id": 11811509274, "lat": 48.8121361, "lon": 13.7812148, "tags": {"information": "board", "name": "Stifterm\u00fchle", "tourism": "information"}}, {"type": "node", "id": 11925026805, "lat": 48.8495971, "lon": 13.7518338, "tags": {"information": "guidepost", "tourism": "information"}}, {"type": "node", "id": 11967542923, "lat": 48.8264362, "lon": 13.7712606, "tags": {"tourism": "viewpoint"}}, {"type": "node", "id": 12012698988, "lat": 48.8040726, "lon": 13.78847, "tags": {"direction": "25", "hiking": "yes", "information": "map", "map_size": "region", "map_type": "topo", "name": "Wanderkarte Haidm\u00fchle-Bischofsreut-Frauenberg", "operator": "Tourist-Info Haidm\u00fchle", "tourism": "information"}},