{"version": 0.6, "generator": "Overpass API 0.7.62.8 e802775f", "osm3s": {"timestamp_osm_base": "2026-01-05T16:43:34Z", "copyright": "The data included in this document is from www.openstreetmap.org. The data is made available under ODbL."}, "elements": [{"type": "node", "id": 285329440, "lat": 49.444744, "lon": 14.341014, "tags": {"board_type": "nature", "information": "board", "name": "Zv\u00edkovec", "tourism": "information"}}, {"type": "node", "id": 1322643464, "lat": 49.5500691, "lon": 14.345159, "tags": {"board_type": "nature", "information": "board", "name": "Vr\u0161k\u00e1men", "ref": "2", "tourism": "information"}}, {"type": "node", "id": 1519320785, "lat": 49.432801, "lon": 14.372545, "tags": {"ele": "490", "hiking": "yes", "information": "guidepost", "name": "Dehetn\u00edk", "operator": "cz:K\u010cT", "ref": "MI299", "tourism": "information"}}, {"type": "node", "id": 1519320795, "lat": 49.4349842, "lon": 14.392069, "tags": {"ele": "437", "hiking": "yes", "information": "guidepost", "name": "L\u00ed\u0161nick\u00fd rybn\u00edk (Pytl\u00e1k)", "operator": "cz:K\u010cT", "ref": "MI103", "tourism": "information"}}, {"type": "node", "id": 1519320798, "lat": 49.4367444, "lon": 14.3848121, "tags": {"ele": "437", "hiking": "yes", "information": "guidepost", "name": "Milevsko (ZVVZ)", "operator": "cz:K\u010cT", "ref": "MI102", "tourism": "information", "wheelchair": "limited"}}, {"type": "node", "id": 1701789516, "lat": 49.3995409, "lon": 14.2116378, "tags": {"ele": "360", "hiking": "yes", "information": "guidepost", "name": "Oslov", "operator": "cz:K\u010cT", "ref": "PI245", "tourism": "information"}}, {"type": "node", "id": 1701789517, "lat": 49.3934055, "lon": 14.2141634, "tags": {"ele": "360", "hiking": "yes", "information": "guidepost", "name": "Oslov (pam\u00e1tn\u00edk zavra\u017ed\u011bn\u00fdch partyz\u00e1n\u016f z druh\u00e9 sv\u011btov\u00e9 v\u00e1lky)", "operator": "cz:K\u010cT", "ref": "PI246", "tourism": "information"}}, {"type": "node", "id": 1710456569, "lat": 49.3663578, "lon": 14.2810889, "tags": {"ele": "370", "hiking": "yes", "information": "guidepost", "name": "Jet\u011btick\u00fd potok", "operator": "cz:K\u010cT", "ref": "MI200", "tourism": "information"}}, {"type": "node", "id": 1710456581, "lat": 49.3567248, "lon": 14.2702407, "tags": {"ele": "397", "hiking": "yes", "information": "guidepost", "name": "Podolsk\u00fd most (lev\u00fd b\u0159eh)", "operator": "cz:K\u010cT", "ref": "PI042", "tourism": "information"}}, {"type": "node", "id": 1710456591, "lat": 49.358368, "lon": 14.2817604, "tags": {"ele": "395", "hiking": "yes", "information": "guidepost", "name": "Podolsk\u00fd most (prav\u00fd b\u0159eh)", "operator": "cz:K\u010cT", "ref": "MI199", "tourism": "information"}}, {"type": "node", "id": 1710457487, "lat": 49.3602227, "lon": 14.2708921, "tags": {"tourism": "viewpoint"}}, {"type": "node", "id": 1710458324, "lat": 49.3818287, "lon": 14.2542014, "tags": {"ele": "380", "hiking": "yes", "information": "guidepost", "layer": "-1", "name": "\u010cerven\u00e1 nad Vltavou (\u017eelezni\u010dn\u00ed most)", "official_name": "\u010cerven\u00e1 n. Vlt. (\u017eel. most)", "operator": "cz:K\u010cT", "ref": "MI202", "tourism": "information"}}, {"type": "node", "id": 1710458325, "lat": 49.3719249, "lon": 14.2738348, "tags": {"ele": "410", "hiking": "yes", "information": "guidepost", "name": "\u010cerven\u00e1 nad Vltavou (vlak)", "official_name": "\u010cerven\u00e1 n. Vlt. (\u017dST)", "operator": "cz:K\u010cT", "ref": "MI201", "tourism": "information"}}, {"type": "node", "id": 1746400264, "lat": 49.4285744, "lon": 14.2266026, "tags": {"ele": "365", "hiking": "yes", "information": "guidepost", "name": "Zv\u00edkovsk\u00fd most (prav\u00fd b\u0159eh)", "operator": "cz:K\u010cT", "ref": "MI034", "tourism": "information"}}, {"type": "node", "id": 1746400267, "lat": 49.4224888, "lon": 14.2303615, "tags": {"tourism": "viewpoint"}}, {"type": "node", "id": 1746400282, "lat": 49.4239816, "lon": 14.2297631, "tags": {"tourism": "viewpoint"}}, {"type": "node", "id": 1746433490, "lat": 49.4171334, "lon": 14.2556458, "tags": {"ele": "441", "hiking": "yes", "information": "guidepost", "name": "U mohyl", "operator": "cz:K\u010cT", "ref": "MI393", "tourism": "information"}}, {"type": "node", "id": 1746433495, "lat": 49.4103599, "lon": 14.2554845, "tags": {"ele": "420", "hiking": "yes", "information": "guidepost", "name": "V\u016fs\u00ed", "operator": "cz:K\u010cT", "ref": "MI296", "tourism": "information"}}, {"type": "node", "id": 1746433581, "lat": 49.4021717, "lon": 14.2397088, "tags": {"tourism": "viewpoint"}}, {"type": "node", "id": 1746433931, "lat": 49.401461, "lon": 14.2409627, "tags": {"description": "Muze\u00e1ln\u00ed kostel svat\u00e9ho Bartolom\u011bje, rom\u00e1nsk\u00fd z\u00a012. stolet\u00ed, p\u0159em\u00edst\u011bn nad z\u00e1topovou \u010d\u00e1ru Orlick\u00e9 n\u00e1dr\u017ee", "ele": "380", "hiking": "yes", "information": "guidepost", "name": "\u010cerven\u00e1 nad Vltavou (kostel)", "official_name": "\u010cerven\u00e1 n. Vlt. (kostel)", "operator": "cz:K\u010cT", "ref": "MI204", "tourism": "information"}}, {"type": "node", "id": 1752276967, "lat": 49.4023497, "lon": 14.3456597, "tags": {"ele": "485", "hiking": "yes", "information": "guidepost", "name": "Branice (\u017est)", "operator": "cz:K\u010cT", "ref": "MI090", "tourism": "information"}}, {"type": "node", "id": 1752276968, "lat": 49.3992023, "lon": 14.3036546, "tags": {"ele": "512", "hiking": "yes", "information": "guidepost", "name": "Skalka (h\u00e1jovna)", "operator": "cz:K\u010cT", "ref": "MI091", "tourism": "information"}}, {"type": "node", "id": 1752276969, "lat": 49.3878272, "lon": 14.3554372, "tags": {"ele": "477", "hiking": "yes", "information": "guidepost", "name": "Vesel\u00ed\u010dko (kostel svat\u00e9 anny z roku 1851)", "operator": "cz:K\u010cT", "ref": "MI362", "tourism": "information"}}, {"type": "node", "id": 1844069097, "lat": 49.3850649, "lon": 14.3166885, "tags": {"information": "board", "name": "Vejrovske zemanstvi - Kozacko", "tourism": "information"}}, {"type": "node", "id": 1844069099, "lat": 49.3909283, "lon": 14.3523159, "tags": {"information": "board", "name": "Vejrovske zemanstvi - Sovy", "tourism": "information"}}, {"type": "node", "id": 1844069105, "lat": 49.4049748, "lon": 14.3083352, "tags": {"information": "board", "name": "Vejrovske zemanstvi - Svejkova anabaze", "tourism": "information"}}, {"type": "node", "id": 1844069109, "lat": 49.4019999, "lon": 14.3055938, "tags": {"information": "board", "name": "Vejrovske zemanstvi - Tyrolsky dum", "tourism": "information"}}, {"type": "node", "id": 1844069112, "lat": 49.4124193, "lon": 14.3334475, "tags": {"information": "board", "name": "Vejrovske zemanstvi - bitevni policko", "tourism": "information"}}, {"type": "node", "id": 1844069116, "lat": 49.3853011, "lon": 14.3116894, "tags": {"information": "board", "name": "Vejrovske zemanstvi - braniborsky markrabe", "tourism": "information"}}, {"type": "node", "id": 1844069119, "lat": 49.4048475, "lon": 14.3393277, "tags": {"information": "board", "name": "Vejrovske zemanstvi - brouci", "tourism": "information"}}, {"type": "node", "id": 1844069124, "lat": 49.4133793, "lon": 14.3270737, "tags": {"information": "board", "name": "Vejrovsk\u00e9 zemanstv\u00ed - b\u00fdval\u00e1 tvrz", "tourism": "information"}}, {"type": "node", "id": 1844069128, "lat": 49.4048542, "lon": 14.3116652, "tags": {"information": "board", "name": "Vejrovske zemanstvi - cerna zver", "tourism": "information"}}, {"type": "node", "id": 1844069134, "lat": 49.3851016, "lon": 14.3097866, "tags": {"information": "board", "name": "Vejrovske zemanstvi - houby", "tourism": "information"}}, {"type": "node", "id": 1844069141, "lat": 49.4012631, "lon": 14.3313647, "tags": {"information": "board", "name": "Vejrovske zemanstvi - hrad", "tourism": "information"}}, {"type": "node", "id": 1844069147, "lat": 49.395766, "lon": 14.3075692, "tags": {"information": "board", "name": "Vejrovske zemanstvi - hriste na kyblovanou", "tourism": "information"}}, {"type": "node", "id": 1844069153, "lat": 49.3885552, "lon": 14.3088593, "tags": {"information": "board", "name": "Vejrovske zemanstvi - kamen krale Jana", "tourism": "information"}}, {"type": "node", "id": 1844069160, "lat": 49.3999482, "lon": 14.3036586, "tags": {"information": "board", "name": "Vejrovske zemanstvi - potoky", "tourism": "information"}}, {"type": "node", "id": 1844069167, "lat": 49.405127, "lon": 14.3185108, "tags": {"information": "board", "name": "Vejrovske zemanstvi - rozhledna obora", "tourism": "information"}}, {"type": "node", "id": 1844069175, "lat": 49.3919351, "lon": 14.3056341, "tags": {"information": "board", "name": "Vejrovske zemanstvi - ryby", "tourism": "information"}}, {"type": "node", "id": 1844069179, "lat": 49.4087969, "lon": 14.3289645, "tags": {"information": "board", "name": "Vejrovske zemanstvi - stromy", "tourism": "information"}}, {"type": "node", "id": 1844069185, "lat": 49.3871381, "lon": 14.3202766, "tags": {"information": "board", "name": "Vejrovske zemanstvi - sudokopytnici", "tourism": "information"}}, {"type": "node", "id": 1844069191, "lat": 49.391337, "lon": 14.333296, "tags": {"information": "board", "name": "Vejrovske zemanstvi - transverzalni draha", "tourism": "information"}}, {"type": "node", "id": 1844069197, "lat": 49.4110729, "lon": 14.3404167, "tags": {"information": "board", "name": "Vejrovske zemanstv\u00ed - tvrz na ostrov\u011b", "tourism": "information"}}, {"type": "node", "id": 1844069204, "lat": 49.3921676, "lon": 14.3368829, "tags": {"information": "board", "name": "Vejrovske zemanstvi - u kulateho stolu", "tourism": "information"}}, {"type": "node", "id": 1844069219, "lat": 49.4053264, "lon": 14.3241146, "tags": {"information": "board", "name": "Vejrovske zemanstvi - zadni opevneni tvrze", "tourism": "information"}}, {"type": "node", "id": 1844069220, "lat": 49.3977968, "lon": 14.3043037, "tags": {"information": "board", "name": "Vejrovske zemanstvi - zavodni trat", "tourism": "information"}}, {"type": "node", "id": 1894402817, "lat": 49.4699934, "lon": 14.348652, "tags": {"board_type": "plants", "information": "board", "name": "L\u00e9\u010div\u00e9 rostliny", "ref": "15", "tourism": "information"}}, {"type": "node", "id": 2004709539, "lat": 49.3730575, "lon": 14.2227827, "tags": {"ele": "427", "hiking": "yes", "information": "guidepost", "name": "\u010cerven\u00fd \u00dajezdec", "operator": "cz:K\u010cT", "ref": "PI038", "tourism": "information"}}, {"type": "node", "id": 2173616672, "lat": 49.368734, "lon": 14.3808737, "tags": {"ele": "450", "hiking": "yes", "information": "guidepost", "name": "Bernartice", "operator": "cz:K\u010cT", "ref": "MI374", "tourism": "information"}}, {"type": "node", "id": 2187668178, "lat": 49.4549698, "lon": 14.3936097, "tags": {"ele": "480", "hiking": "yes", "information": "guidepost", "name": "B\u011blohrad", "operator": "cz:K\u010cT", "ref": "MI051", "tourism": "information"}}, {"type": "node", "id": 2187668181, "lat": 49.4567167, "lon": 14.3670347, "tags": {"ele": "450", "hiking": "yes", "information": "guidepost", "name": "Milevsko (kl\u00e1\u0161ter)", "operator": "cz:K\u010cT", "ref": "MI093", "tourism": "information"}}, {"type": "node", "id": 2187668184, "lat": 49.4626222, "lon": 14.3665864, "tags": {"ele": "450", "hiking": "yes", "information": "guidepost", "name": "Na Vinici", "operator": "cz:K\u010cT", "ref": "MI297", "tourism": "information"}}, {"type": "node", "id": 2187668190, "lat": 49.4472041, "lon": 14.3919551, "tags": {"ele": "460", "hiking": "yes", "information": "guidepost", "name": "Sta\u0148kov", "operator": "cz:K\u010cT", "ref": "MI298", "tourism": "information"}}, {"type": "node", "id": 2187668257, "lat": 49.4442529, "lon": 14.3897274, "tags": {"board_type": "history", "information": "board", "name": "\u017deleznice a viadukt", "ref": "9", "tourism": "information"}}, {"type": "node", "id": 2399879839, "lat": 49.4236804, "lon": 14.2034703, "tags": {"ele": "400", "hiking": "yes", "information": "guidepost", "name": "Zv\u00edkovsk\u00e9 Podhrad\u00ed (rozcest\u00ed)", "official_name": "Zv\u00edkovsk\u00e9 Podhrad\u00ed (rozc.)", "operator": "cz:K\u010cT", "ref": "PI253", "tourism": "information"}}, {"type": "node", "id": 2887261899, "lat": 49.4503777, "lon": 14.3384248, "tags": {"ele": "529", "hiking": "yes", "information": "guidepost", "name": "\u0160iben\u00fd vrch", "operator": "cz:K\u010cT", "ref": "MI127", "tourism": "information"}}, {"type": "node", "id": 2887262110, "lat": 49.4646667, "lon": 14.3351097, "tags": {"board_type": "nature", "information": "board", "name": "Boukal", "tourism": "information"}}, {"type": "node", "id": 2887262112, "lat": 49.4648731, "lon": 14.3345971, "tags": {"ele": "511", "hiking": "yes", "information": "guidepost", "name": "Boukal (ryb. 4,5 Ha)", "operator": "cz:K\u010cT", "ref": "MI217", "tourism": "information"}}, {"type": "node", "id": 2887262115, "lat": 49.4661476, "lon": 14.3359519, "tags": {"board_type": "wildlife", "information": "board", "name": "Oboj\u017eiveln\u00edci", "ref": "18", "tourism": "information"}}, {"type": "node", "id": 2934265944, "lat": 49.4444132, "lon": 14.3400362, "tags": {"board_type": "nature", "information": "board", "name": "Zv\u00edkovec", "ref": "21", "tourism": "information"}}, {"type": "node", "id": 2962642207, "lat": 49.4384018, "lon": 14.347294, "tags": {"board_type": "plants", "information": "board", "name": "Z historie les\u016f", "ref": "22", "tourism": "information"}}, {"type": "node", "id": 2962642209, "lat": 49.4425966, "lon": 14.3415108, "tags": {"information": "board", "name": "Lesy m\u011bsta Milevska", "tourism": "information"}}, {"type": "node", "id": 2962642210, "lat": 49.4503164, "lon": 14.3384703, "tags": {"board_type": "history", "information": "board", "name": "\u0160iben\u00edk", "ref": "20", "tourism": "information"}}, {"type": "node", "id": 2962642211, "lat": 49.4524999, "lon": 14.3367342, "tags": {"board_type": "plants", "information": "board", "name": "Pleveln\u00e9 rostliny", "ref": "19", "tourism": "information"}}, {"type": "node", "id": 2962642212, "lat": 49.4544092, "lon": 14.3831194, "tags": {"board_type": "notice", "information": "board", "name": "\u017didovna", "tourism": "information"}}, {"type": "node", "id": 2962642213, "lat": 49.4566944, "lon": 14.3670232, "tags": {"board_type": "nature", "information": "board", "name": "Milevsk\u00fd potok", "ref": "11", "tourism": "information"}}, {"type": "node", "id": 2962642214, "lat": 49.4567679, "lon": 14.3671686, "tags": {"board_type": "history", "information": "board", "name": "Milevsk\u00fd kl\u00e1\u0161ter", "tourism": "information"}}, {"type": "node", "id": 2962642215, "lat": 49.4606728, "lon": 14.3674226, "tags": {"board_type": "history", "information": "board", "name": "Lom Na Vinici", "ref": "13", "tourism": "information"}}, {"type": "node", "id": 2962642217, "lat": 49.4687921, "lon": 14.3374141, "tags": {"board_type": "plants", "information": "board", "name": "D\u0159\u00edpatka horsk\u00e1", "ref": "17", "tourism": "information"}}, {"type": "node", "id": 2962642218, "lat": 49.4702397, "lon": 14.3427421, "tags": {"board_type": "plants", "information": "board", "name": "Hajn\u00ed byliny", "ref": "16", "tourism": "information"}}, {"type": "node", "id": 2962743888, "lat": 49.4406687, "lon": 14.3927336, "tags": {"board_type": "nature", "information": "board", "name": "Ovzdu\u0161\u00ed", "ref": "8", "tourism": "information"}}, {"type": "node", "id": 2962743889, "lat": 49.4392272, "lon": 14.3922898, "tags": {"board_type": "nature", "information": "board", "ref": "7", "tourism": "information"}}, {"type": "node", "id": 2962743892, "lat": 49.4545165, "lon": 14.3868701, "tags": {"board_type": "history", "description": "Vlastiv\u011bdn\u00e1 nau\u010dn\u00e1 stezka", "information": "board", "name": "Zem\u011bd\u011blsk\u00e1 krajina", "ref": "10", "tourism": "information"}}, {"type": "node", "id": 3012429799, "lat": 49.4521044, "lon": 14.3614907, "tags": {"addr:city": "Milevsko", "addr:housenumber": "391", "addr:postcode": "39901", "addr:street": "Husovo n\u00e1m.", "information": "office", "name": "Turistick\u00e9 informa\u010dn\u00ed centrum Milevsko", "tourism": "information", "website": "https://www.milevsko-mesto.cz/infocentrum/d-92955/p1=51219", "wheelchair": "yes"}}, {"type": "node", "id": 3413005826, "lat": 49.4084812, "lon": 14.3059702, "tags": {"ele": "552.2", "name": "Jirou\u0161\u016fv vrch", "natural": "peak"}}, {"type": "node", "id": 3413005827, "lat": 49.4132048, "lon": 14.2988758, "tags": {"ele": "537.7", "name": "Oranice", "natural": "peak"}}, {"type": "node", "id": 3413005828, "lat": 49.4232921, "lon": 14.2911785, "tags": {"ele": "511.8", "name": "Mlyn\u00e1\u0159\u016fv vrch", "natural": "peak"}}, {"type": "node", "id": 3413005829, "lat": 49.4266177, "lon": 14.2958343, "tags": {"ele": "534.5", "name": "Karl\u016fv vrch", "natural": "peak"}}, {"type": "node", "id": 3413005830, "lat": 49.4358177, "lon": 14.2640348, "tags": {"ele": "488.6", "name": "Chumel\u00e1k", "natural": "peak"}}, {"type": "node", "id": 3413005831, "lat": 49.4527887, "lon": 14.2620091, "tags": {"ele": "536.8", "name": "Chlum", "natural": "peak"}}, {"type": "node", "id": 3413005832, "lat": 49.4705639, "lon": 14.3660662, "tags": {"ele": "491.8", "name": "Ku\u0159inec", "natural": "peak"}}, {"type": "node", "id": 3413005833, "lat": 49.4865489, "lon": 14.3057918, "tags": {"ele": "546", "name": "Na Brdech", "natural": "peak"}}, {"type": "node", "id": 3413005834, "lat": 49.4833115, "lon": 14.2736526, "tags": {"ele": "513.6", "name": "Ko\u0161ka", "natural": "peak"}}, {"type": "node", "id": 3413005835, "lat": 49.502948, "lon": 14.3412847, "tags": {"ele": "608.4", "name": "Zb\u011b\u017enice", "natural": "peak"}}, {"type": "node", "id": 3413005836, "lat": 49.5202616, "lon": 14.3323587, "tags": {"ele": "566", "name": "Hrb", "natural": "peak"}}, {"type": "node", "id": 3413005837, "lat": 49.5294297, "lon": 14.332519, "tags": {"ele": "576.3", "name": "B\u0159ezinka", "natural": "peak"}}, {"type": "node", "id": 3413005838, "lat": 49.5312432, "lon": 14.3234821, "tags": {"ele": "582.5", "name": "Na Bab\u00edch", "natural": "peak"}}, {"type": "node", "id": 3413005839, "lat": 49.5368481, "lon": 14.326933, "tags": {"ele": "548.5", "name": "Jilmov\u00e1", "natural": "peak"}}, {"type": "node", "id": 3413005840, "lat": 49.5384589, "lon": 14.3146157, "tags": {"ele": "575.7", "name": "Vlady\u010d\u00ednsk\u00e1 h\u016frka", "natural": "peak"}}, {"type": "node", "id": 3413005841, "lat": 49.5237074, "lon": 14.273657, "tags": {"ele": "535.9", "name": "Kov\u00e1\u0159ovsk\u00e1 h\u016frka", "natural": "peak"}}, {"type": "node", "id": 3413005842, "lat": 49.5404469, "lon": 14.240781, "tags": {"name": "Ko\u0148sk\u00fd vrch", "natural": "peak"}}, {"type": "node", "id": 3413005843, "lat": 49.5445777, "lon": 14.2474384, "tags": {"ele": "542.6", "name": "H\u016frka", "natural": "peak"}}, {"type": "node", "id": 3413005844, "lat": 49.5122458, "lon": 14.2059437, "tags": {"ele": "490", "name": "Hanslovka", "natural": "peak"}}, {"type": "node", "id": 3418221038, "lat": 49.3605456, "lon": 14.331652, "tags": {"ele": "519", "name": "Velk\u00e9 Mok\u0159\u00ed", "natural": "peak"}}, {"type": "node", "id": 3468271461, "lat": 49.4356997, "lon": 14.3346689, "tags": {"ele": "509", "hiking": "yes", "information": "guidepost", "name": "Drahu\u017eel", "operator": "cz:K\u010cT", "ref": "MI110", "tourism": "information"}}, {"type": "node", "id": 3468271465, "lat": 49.4384046, "lon": 14.2771425, "tags": {"ele": "480", "hiking": "yes", "information": "guidepost", "name": "Svat\u00fd Jan", "operator": "cz:K\u010cT", "ref": "MI251", "tourism": "information"}}, {"type": "node", "id": 3468275605, "lat": 49.4429766, "lon": 14.3002919, "tags": {"ele": "460", "hiking": "yes", "information": "guidepost", "name": "Osek", "operator": "cz:K\u010cT", "ref": "MI073", "tourism": "information"}}, {"type": "node", "id": 3525534061, "lat": 49.5507587, "lon": 14.3761563, "tags": {"hiking": "yes", "information": "guidepost", "name": "Obd\u011bnice", "operator": "cz:K\u010cT", "ref": "PB212", "tourism": "information"}}, {"type": "node", "id": 3931905907, "lat": 49.4888248, "lon": 14.3356281}, {"type": "node", "id": 3931905908, "lat": 49.4888016, "lon": 14.3357396}, {"type": "node", "id": 3931905909, "lat": 49.488742, "lon": 14.3357102}, {"type": "node", "id": 3931905910, "lat": 49.4886779, "lon": 14.3355557}, {"type": "node", "id": 4021860911, "lat": 49.4886682, "lon": 14.3356026}, {"type": "node", "id": 4021860912, "lat": 49.4887554, "lon": 14.3356457}, {"type": "node", "id": 4085564923, "lat": 49.5266497, "lon": 14.2818883, "tags": {"board_type": "nature", "information": "board", "name": "NS Kov\u00e1\u0159ovska - Z\u00e1lu\u017e\u00ed", "source": "survey", "tourism": "information"}}, {"type": "node", "id": 4461343305, "lat": 49.3716231, "lon": 14.3688356, "tags": {"ele": "450", "hiking": "yes", "information": "guidepost", "name": "Piln\u00fd rybn\u00edk", "operator": "cz:K\u010cT", "ref": "MI378", "tourism": "information"}}, {"type": "node", "id": 4467434274, "lat": 49.4347287, "lon": 14.2189431, "tags": {"ele": "360", "hiking": "yes", "information": "guidepost", "name": "Sob\u011bdra\u017esk\u00fd potok", "operator": "cz:K\u010cT", "ref": "MI207", "tourism": "information"}}, {"type": "node", "id": 4468050828, "lat": 49.4679972, "lon": 14.3887513, "tags": {"ele": "520", "hiking": "yes", "information": "guidepost", "name": "Anglick\u00fd park", "operator": "cz:K\u010cT", "ref": "MI056", "tourism": "information"}}, {"type": "node", "id": 4468050829, "lat": 49.4641169, "lon": 14.399625, "tags": {"ele": "510", "hiking": "yes", "information": "guidepost", "name": "Dr\u017ekrajov", "operator": "cz:K\u010cT", "ref": "MI095", "tourism": "information"}}, {"type": "node", "id": 4468050830, "lat": 49.4383796, "lon": 14.3472796, "tags": {"ele": "511", "hiking": "yes", "information": "guidepost", "name": "Hajda (rozc.)", "operator": "cz:K\u010cT", "ref": "MI109", "tourism": "information"}}, {"type": "node", "id": 4468050831, "lat": 49.4690431, "lon": 14.3654161, "tags": {"hiking": "yes", "information": "guidepost", "name": "Ku\u0159inec", "operator": "cz:K\u010cT", "ref": "MI057", "tourism": "information"}}, {"type": "node", "id": 4468050832, "lat": 49.4421556, "lon": 14.3772251, "tags": {"ele": "456", "hiking": "yes", "information": "guidepost", "name": "Milevsko \u017est", "operator": "cz:K\u010cT", "ref": "MI101", "tourism": "information"}}, {"type": "node", "id": 4468050833, "lat": 49.4503583, "lon": 14.360049, "tags": {"ele": "455", "hiking": "yes", "information": "guidepost", "name": "Milevsko", "operator": "cz:K\u010cT", "ref": "MI100", "tourism": "information"}}, {"type": "node", "id": 4468050834, "lat": 49.4428702, "lon": 14.3407531, "tags": {"bicycle": "no", "ele": "525", "hiking": "yes", "information": "guidepost", "name": "Pod Zv\u00edkovcem (rozc.)", "operator": "cz:K\u010cT", "ref": "MI198", "tourism": "information"}}, {"type": "node", "id": 4468050835, "lat": 49.4704, "lon": 14.3417295, "tags": {"ele": "515", "hiking": "yes", "information": "guidepost", "name": "Sp\u00e1len\u00e1 (h\u00e1j.)", "operator": "cz:K\u010cT", "ref": "MI218", "tourism": "information"}}, {"type": "node", "id": 4468050836, "lat": 49.415461, "lon": 14.3087558, "tags": {"ele": "510", "hiking": "yes", "information": "guidepost", "name": "Tyrolsk\u00fd d\u016fm rozcestt\u00ed", "operator": "cz:K\u010cT", "ref": "MI112", "tourism": "information"}}, {"type": "node", "id": 4468050837, "lat": 49.4671858, "lon": 14.3647375, "tags": {"ele": "450", "hiking": "yes", "information": "guidepost", "name": "V\u00e1\u0161\u016fv ml\u00fdn", "operator": "cz:K\u010cT", "ref": "MI058", "tourism": "information"}}, {"type": "node", "id": 4468050838, "lat": 49.4572385, "lon": 14.3313171, "tags": {"ele": "495", "hiking": "yes", "information": "guidepost", "name": "Zbel\u00edtov", "operator": "cz:K\u010cT", "ref": "MI059", "tourism": "information"}}, {"type": "node", "id": 4468054684, "lat": 49.4545047, "lon": 14.3832984, "tags": {"ele": "480", "hiking": "yes", "information": "guidepost", "name": "\u017didovna", "operator": "cz:K\u010cT", "ref": "MI094", "tourism": "information"}}, {"type": "node", "id": 4580724867, "lat": 49.3697681, "lon": 14.221972, "tags": {"ele": "410", "hiking": "yes", "information": "guidepost", "name": "Vlastec - \u017est", "operator": "cz:K\u010cT", "ref": "PI039", "tourism": "information"}}, {"type": "node", "id": 4580724870, "lat": 49.3676129, "lon": 14.2383229, "tags": {"ele": "400", "hiking": "yes", "information": "guidepost", "name": "Struhy", "operator": "cz:K\u010cT", "ref": "PI040", "tourism": "information"}}, {"type": "node", "id": 4674161614, "lat": 49.5179886, "lon": 14.2784864, "tags": {"ele": "525", "hiking": "yes", "information": "guidepost", "name": "Kov\u00e1\u0159ov (n\u00e1m.)", "operator": "cz:K\u010cT", "ref": "PI006;MI006", "tourism": "information"}}, {"type": "node", "id": 4712981942, "lat": 49.5468828, "lon": 14.2308613, "tags": {"ele": "520", "hiking": "yes", "information": "guidepost", "name": "Z\u00e1ho\u0159any", "operator": "cz:K\u010cT", "ref": "MI382", "tourism": "information"}}, {"type": "node", "id": 4712981973, "lat": 49.5361881, "lon": 14.2364676, "tags": {"ele": "515", "hiking": "yes", "information": "guidepost", "name": "Pelechy", "operator": "cz:K\u010cT", "ref": "MI213", "tourism": "information"}}, {"type": "node", "id": 4712982201, "lat": 49.5224259, "lon": 14.2131097, "tags": {"ele": "400", "hiking": "yes", "information": "guidepost", "name": "\u017debr\u00e1kovsk\u00fd potok", "operator": "cz:K\u010cT", "ref": "MI010", "tourism": "information"}}, {"type": "node", "id": 4712982202, "lat": 49.5315546, "lon": 14.2214123, "tags": {"ele": "450", "hiking": "yes", "information": "guidepost", "name": "\u017eebr\u00e1kov", "operator": "cz:K\u010cT", "ref": "MI212", "tourism": "information"}}, {"type": "node", "id": 4805992255, "lat": 49.536791, "lon": 14.3947747, "tags": {"hiking": "yes", "information": "guidepost", "name": "N\u00e1les\u00ed", "operator": "cz:K\u010cT", "ref": "PB100;1055/28", "tourism": "information"}}, {"type": "node", "id": 4806043264, "lat": 49.5245289, "lon": 14.332438, "tags": {"hiking": "yes", "information": "guidepost", "name": "Hrazany", "operator": "cz:K\u010cT", "ref": "MI222", "tourism": "information"}}, {"type": "node", "id": 4806043289, "lat": 49.5330789, "lon": 14.3188489, "tags": {"ele": "545", "hiking": "yes", "information": "guidepost", "name": "Dobr\u00e1 Voda rozcest\u00ed", "operator": "cz:K\u010cT", "ref": "MI405", "tourism": "information"}}, {"type": "node", "id": 4806043290, "lat": 49.5343683, "lon": 14.3264282, "tags": {"ele": "515", "hiking": "yes", "information": "guidepost", "name": "Dobr\u00e1 Voda", "operator": "cz:K\u010cT", "ref": "MI295", "tourism": "information"}}, {"type": "node", "id": 4806110377, "lat": 49.4994412, "lon": 14.3460824, "tags": {"hiking": "yes", "information": "guidepost", "name": "Karlov", "operator": "cz:K\u010cT", "ref": "MI220", "tourism": "information"}}, {"type": "node", "id": 4806110378, "lat": 49.4893741, "lon": 14.3362293, "tags": {"hiking": "yes", "information": "guidepost", "name": "Ne\u017eovice", "operator": "cz:K\u010cT", "ref": "MI219", "tourism": "information"}}, {"type": "node", "id": 4806110388, "lat": 49.5170898, "lon": 14.335808, "tags": {"ele": "540", "hiking": "yes", "horse": "yes", "information": "guidepost", "name": "Hraz\u00e1nky", "operator": "cz:K\u010cT", "ref": "MI221;PI003", "tourism": "information"}}, {"type": "node", "id": 4806964605, "lat": 49.5006054, "lon": 14.3347378, "tags": {"ele": "555", "hiking": "yes", "information": "guidepost", "name": "Klis\u00edn", "operator": "cz:K\u010cT", "ref": "MI060", "tourism": "information"}}, {"type": "node", "id": 4806964606, "lat": 49.4899349, "lon": 14.3285719, "tags": {"ele": "550", "hiking": "yes", "information": "guidepost", "name": "pam\u00e1tn\u00edk Mil\u00e9nium", "operator": "cz:K\u010cT", "ref": "MI061", "tourism": "information"}}, {"type": "node", "id": 4806965226, "lat": 49.4880218, "lon": 14.3230626, "tags": {"ele": "530", "hiking": "yes", "information": "guidepost", "name": "Dm\u00fd\u0161tice", "operator": "cz:K\u010cT", "ref": "MI062", "tourism": "information"}}, {"type": "node", "id": 4806965597, "lat": 49.4958271, "lon": 14.2877004, "tags": {"ele": "485", "hiking": "yes", "information": "guidepost", "name": "Pechova Lhota", "operator": "cz:K\u010cT", "ref": "MI003", "tourism": "information"}}, {"type": "node", "id": 4806965598, "lat": 49.4843792, "lon": 14.3015084, "tags": {"ele": "495", "hiking": "yes", "information": "guidepost", "name": "N\u00edkovice", "operator": "cz:K\u010cT", "ref": "MI002", "tourism": "information"}}, {"type": "node", "id": 4806965599, "lat": 49.4767647, "lon": 14.3163839, "tags": {"ele": "500", "hiking": "yes", "information": "guidepost", "name": "Bud\u00e1k rybn\u00edk", "operator": "cz:K\u010cT", "ref": "MI001", "tourism": "information"}}, {"type": "node", "id": 4807010472, "lat": 49.5131442, "lon": 14.2722133, "tags": {"ele": "530", "hiking": "yes", "information": "guidepost", "name": "Kov\u00e1\u0159ov rozcest\u00ed", "operator": "cz:K\u010cT", "ref": "MI005", "tourism": "information"}}, {"type": "node", "id": 4807010473, "lat": 49.5131782, "lon": 14.299254, "tags": {"ele": "505", "hiking": "yes", "information": "guidepost", "name": "Mal\u00fd Sm\u00ed\u0161ek (ryb.)", "operator": "cz:K\u010cT", "ref": "PI402", "tourism": "information"}}, {"type": "node", "id": 4807010474, "lat": 49.5175213, "lon": 14.303964, "tags": {"ele": "500", "hiking": "yes", "information": "guidepost", "name": "Kojovka (ryb.)", "operator": "cz:K\u010cT", "ref": "PI403", "tourism": "information"}}, {"type": "node", "id": 4807010493, "lat": 49.523035, "lon": 14.3032265, "tags": {"ele": "510", "hiking": "yes", "information": "guidepost", "name": "Vepice", "operator": "cz:K\u010cT", "ref": "PI368", "tourism": "information"}}, {"type": "node", "id": 4807052967, "lat": 49.5265545, "lon": 14.2449825, "tags": {"ele": "510", "hiking": "yes", "information": "guidepost", "name": "Betl\u00e9m", "operator": "cz:K\u010cT", "ref": "MI328", "tourism": "information"}}, {"type": "node", "id": 4807052968, "lat": 49.5163232, "lon": 14.2536621, "tags": {"ele": "480", "hiking": "yes", "information": "guidepost", "name": "Slavo\u0148ov", "operator": "cz:K\u010cT", "ref": "MI327", "tourism": "information"}}, {"type": "node", "id": 4807052969, "lat": 49.5133348, "lon": 14.2579848, "tags": {"ele": "500", "hiking": "yes", "information": "guidepost", "name": "Vesec", "operator": "cz:K\u010cT", "ref": "MI326", "tourism": "information"}}, {"type": "node", "id": 4807696040, "lat": 49.5013556, "lon": 14.2119742, "tags": {"ele": "465", "hiking": "yes", "information": "guidepost", "name": "Kostelec nad Vltavou", "operator": "cz:K\u010cT", "ref": "MI012", "tourism": "information"}}, {"type": "node", "id": 4807696041, "lat": 49.5156517, "lon": 14.2159009, "tags": {"ele": "475", "hiking": "yes", "information": "guidepost", "name": "U \u010cern\u00e9ho k\u0159\u00ed\u017ee", "operator": "cz:K\u010cT", "ref": "MI011", "tourism": "information"}}, {"type": "node", "id": 4809136630, "lat": 49.422535, "lon": 14.2146456, "tags": {"ele": "400", "hiking": "yes", "information": "guidepost", "name": "\u010cerven\u00fd les", "operator": "cz:K\u010cT", "ref": "MI035", "tourism": "information"}}, {"type": "node", "id": 4809136631, "lat": 49.4267187, "lon": 14.2234218, "tags": {"ele": "365", "hiking": "yes", "information": "guidepost", "name": "Zv\u00edkovsk\u00fd most (lev\u00fd b\u0159eh)", "operator": "cz:K\u010cT", "ref": "PI133", "tourism": "information"}}, {"type": "node", "id": 4809169722, "lat": 49.3924959, "lon": 14.2363286, "tags": {"ele": "397", "hiking": "yes", "information": "guidepost", "name": "\u010cervenina", "operator": "cz:K\u010cT", "ref": "PI037", "tourism": "information"}}, {"type": "node", "id": 4868872763, "lat": 49.3822623, "lon": 14.2914541, "tags": {"ele": "450", "hiking": "yes", "information": "guidepost", "name": "Jet\u011btice - \u017est", "operator": "cz:K\u010cT", "ref": "MI116", "tourism": "information"}}, {"type": "node", "id": 4874479162, "lat": 49.3861199, "lon": 14.2927569, "tags": {"ele": "450", "hiking": "yes", "information": "guidepost", "name": "Jet\u011btice", "operator": "cz:K\u010cT", "ref": "MI115", "tourism": "information"}}, {"type": "node", "id": 4874479163, "lat": 49.4007283, "lon": 14.2847049, "tags": {"ele": "460", "hiking": "yes", "information": "guidepost", "name": "\u010cert\u016fv k\u016f\u0148", "operator": "cz:K\u010cT", "ref": "MI114", "tourism": "information"}}, {"type": "node", "id": 4874479164, "lat": 49.3960152, "lon": 14.2838895, "tags": {"ele": "465", "hiking": "yes", "information": "guidepost", "name": "V Sen\u00edku", "operator": "cz:K\u010cT", "ref": "MI114", "tourism": "information"}}, {"type": "node", "id": 4875382491, "lat": 49.3565825, "lon": 14.2636871, "tags": {"ele": "422", "hiking": "yes", "information": "guidepost", "name": "Teme\u0161v\u00e1r", "operator": "cz:K\u010cT", "ref": "PI041", "tourism": "information"}}, {"type": "node", "id": 4875491873, "lat": 49.4239552, "lon": 14.2445254, "tags": {"ele": "400", "hiking": "yes", "information": "guidepost", "name": "V Dolanech", "operator": "cz:K\u010cT", "ref": "MI337", "tourism": "information"}}, {"type": "node", "id": 4875491874, "lat": 49.4180021, "lon": 14.2492032, "tags": {"ele": "427", "hiking": "yes", "information": "guidepost", "name": "Br\u00e1n\u00edk", "operator": "cz:K\u010cT", "ref": "MI205", "tourism": "information"}}, {"type": "node", "id": 4875491875, "lat": 49.4032592, "lon": 14.2565846, "tags": {"ele": "354", "hiking": "yes", "information": "guidepost", "name": "Hrejkovick\u00fd potok (\u00fast\u00ed)", "operator": "cz:K\u010cT", "ref": "MI092", "tourism": "information"}}, {"type": "node", "id": 4875491876, "lat": 49.4056503, "lon": 14.2722058, "tags": {"ele": "385", "hiking": "yes", "information": "guidepost", "name": "Hrejkovick\u00fd potok u obory", "operator": "cz:K\u010cT", "ref": "MI203", "tourism": "information"}}, {"type": "node", "id": 4875518514, "lat": 49.4338046, "lon": 14.2461938, "tags": {"ele": "425", "hiking": "yes", "information": "guidepost", "name": "Ku\u010de\u0159", "operator": "cz:K\u010cT", "ref": "MI252", "tourism": "information"}}, {"type": "node", "id": 5094203234, "lat": 49.4622632, "lon": 14.3897365, "tags": {"ele": "526", "name": "Hladom\u0159e", "natural": "peak"}}, {"type": "node", "id": 5094207398, "lat": 49.4247704, "lon": 14.3741473, "tags": {"ele": "494", "name": "Planina", "natural": "peak"}}, {"type": "node", "id": 5094220814, "lat": 49.4625654, "lon": 14.3422712, "tags": {"ele": "512", "name": "Sp\u00e1len\u00e1", "natural": "peak"}}, {"type": "node", "id": 5094224563, "lat": 49.4619099, "lon": 14.3252554, "tags": {"ele": "515", "name": "Na Pekle", "natural": "peak"}}, {"type": "node", "id": 5094227637, "lat": 49.4720134, "lon": 14.2665181, "tags": {"ele": "513", "name": "U Pomn\u00edku", "natural": "peak"}}, {"type": "node", "id": 5094228795, "lat": 49.4866743, "lon": 14.2414047, "tags": {"ele": "506", "name": "U Obr\u00e1zku", "natural": "peak"}}, {"type": "node", "id": 5491675723, "lat": 49.3728938, "lon": 14.2225622, "tags": {"bicycle": "yes", "information": "guidepost", "tourism": "information"}}, {"type": "node", "id": 5519767821, "lat": 49.4505434, "lon": 14.3667189, "tags": {"tourism": "viewpoint"}}, {"type": "node", "id": 5893518693, "lat": 49.4864473, "lon": 14.2990764, "tags": {"information": "map", "name": "N\u00edkovice", "tourism": "information"}}, {"type": "node", "id": 5893518700, "lat": 49.5315479, "lon": 14.2213371, "tags": {"board_type": "history", "information": "board", "name": "\u017debr\u00e1kov", "tourism": "information"}}, {"type": "node", "id": 5894971401, "lat": 49.551135, "lon": 14.3750946, "tags": {"board_type": "history", "information": "board", "name": "Obd\u011bnice", "tourism": "information"}}, {"type": "node", "id": 5894971402, "lat": 49.5511582, "lon": 14.3750815, "tags": {"board_type": "history", "information": "board", "name": "Pam\u00e1tky Petrovicka", "tourism": "information"}}, {"type": "node", "id": 5956846517, "lat": 49.3560516, "lon": 14.2711614, "tags": {"direction": "NE", "tourism": "viewpoint"}}, {"type": "node", "id": 6354634118, "lat": 49.4957785, "lon": 14.287353}, {"type": "node", "id": 6354634119, "lat": 49.4957887, "lon": 14.2874038}, {"type": "node", "id": 6354634120, "lat": 49.4958108, "lon": 14.2873933}, {"type": "node", "id": 6354634121, "lat": 49.4958006, "lon": 14.2873425}, {"type": "node", "id": 6367936978, "lat": 49.3999397, "lon": 14.2109435, "tags": {"bicycle": "yes", "information": "route_marker", "tourism": "information"}}, {"type": "node", "id": 6367937314, "lat": 49.3565083, "lon": 14.2635369, "tags": {"information": "board", "tourism": "information"}}, {"type": "node", "id": 6367938141, "lat": 49.3557273, "lon": 14.2290625, "tags": {"bicycle": "yes", "information": "route_marker", "tourism": "information"}}, {"type": "node", "id": 6543284157, "lat": 49.3857549, "lon": 14.2928944, "tags": {"amenity": "shelter", "shelter_type": "public_transport"}}, {"type": "node", "id": 6831605020, "lat": 49.393467, "lon": 14.3225028, "tags": {"amenity": "shelter", "shelter_type": "public_transport"}}, {"type": "node", "id": 6831605026, "lat": 49.3935243, "lon": 14.3222799, "tags": {"board_type": "information", "information": "board", "name": "Stehlovice", "tourism": "information"}}, {"type": "node", "id": 6831605041, "lat": 49.3935055, "lon": 14.3231838, "tags": {"amenity": "shelter"}}, {"type": "node", "id": 6831605088, "lat": 49.4429025, "lon": 14.3000741, "tags": {"board_type": "information", "information": "board", "name": "Osek", "tourism": "information"}}, {"type": "node", "id": 6832780169, "lat": 49.4134539, "lon": 14.3585161, "tags": {"amenity": "shelter", "shelter_type": "public_transport"}}, {"type": "node", "id": 6832780171, "lat": 49.4017786, "lon": 14.3443423, "tags": {"board_type": "information", "information": "board", "name": "Branice", "tourism": "information"}}, {"type": "node", "id": 7026214126, "lat": 49.356063, "lon": 14.2710658, "tags": {"information": "board", "tourism": "information"}}, {"type": "node", "id": 7026214127, "lat": 49.35602, "lon": 14.2710795, "tags": {"amenity": "shelter"}}, {"type": "node", "id": 7026214137, "lat": 49.3575117, "lon": 14.2698372, "tags": {"tourism": "viewpoint"}}, {"type": "node", "id": 7028118921, "lat": 49.4562907, "lon": 14.343219, "tags": {"ele": "495", "hiking": "yes", "information": "guidepost", "name": "Na spojce", "operator": "cz:K\u010cT", "ref": "MI216", "tourism": "information"}}, {"type": "node", "id": 7492390676, "lat": 49.5131835, "lon": 14.2586834, "tags": {"board_type": "history", "description": "NS Kov\u00e1\u0159ovska", "information": "board", "name": "Vesec", "tourism": "information"}}, {"type": "node", "id": 7514683584, "lat": 49.4475013, "lon": 14.3627334, "tags": {"board_type": "history", "description": "Prohl\u00eddkov\u00fd okruh m\u011bsta Milevska", "information": "board", "name": "Sokolovna", "ref": "6", "tourism": "information"}}, {"type": "node", "id": 7514720046, "lat": 49.4351093, "lon": 14.3918962, "tags": {"board_type": "nature", "description": "Vlastiv\u011bdn\u00e1 nau\u010dn\u00e1 stezka", "information": "board", "name": "Rybn\u00edk Pytl\u00e1k", "ref": "6", "tourism": "information"}}, {"type": "node", "id": 7514720047, "lat": 49.4327173, "lon": 14.3802746, "tags": {"board_type": "nature", "description": "Vlastiv\u011bdn\u00e1 nau\u010dn\u00e1 stezka", "information": "board", "name": "Les", "ref": "3", "tourism": "information"}}, {"type": "node", "id": 7514732085, "lat": 49.4578435, "lon": 14.3682468, "tags": {"board_type": "nature", "description": "Vlastiv\u011bdn\u00e1 nau\u010dn\u00e1 stezka", "information": "board", "name": "Pam\u00e1tn\u00e9 stromy", "ref": "12", "tourism": "information"}}, {"type": "node", "id": 7516672576, "lat": 49.4680844, "lon": 14.3561302, "tags": {"board_type": "nature", "information": "board", "tourism": "information"}}, {"type": "node", "id": 7516672577, "lat": 49.4546579, "lon": 14.3904021, "tags": {"board_type": "history", "description": "Stezka na onen sv\u011bt", "information": "board", "name": "\u017didovsk\u00fd h\u0159bitov", "ref": "10", "tourism": "information"}}, {"type": "node", "id": 7622189989, "lat": 49.4889495, "lon": 14.3361007}, {"type": "node", "id": 7622189990, "lat": 49.4889268, "lon": 14.336098}, {"type": "node", "id": 7622189991, "lat": 49.4889198, "lon": 14.3361785}, {"type": "node", "id": 7622189992, "lat": 49.4889425, "lon": 14.3361838}, {"type": "node", "id": 7663592466, "lat": 49.5482718, "lon": 14.2733919, "tags": {"hiking": "yes", "horse": "yes", "information": "guidepost", "name": "P\u0159edbo\u0159ice", "operator": "cz:K\u010cT", "ref": "MI008", "tourism": "information"}}, {"type": "node", "id": 7717783887, "lat": 49.5466465, "lon": 14.2306732, "tags": {"information": "board", "tourism": "information"}}, {"type": "node", "id": 7717783895, "lat": 49.5381444, "lon": 14.2549485, "tags": {"information": "board", "tourism": "information"}}, {"type": "node", "id": 7717783897, "lat": 49.531508, "lon": 14.2571184, "tags": {"information": "board", "tourism": "information"}}, {"type": "node", "id": 7717783900, "lat": 49.5350219, "lon": 14.275535, "tags": {"ele": "540", "hiking": "yes", "information": "guidepost", "name": "B\u0159ez\u00ed", "operator": "cz:K\u010cT", "ref": "MI388", "tourism": "information"}}, {"type": "node", "id": 7717783915, "lat": 49.5422155, "lon": 14.2905468, "tags": {"information": "board", "tourism": "information"}}, {"type": "node", "id": 7717783920, "lat": 49.5428577, "lon": 14.3078765, "tags": {"board_type": "history", "information": "board", "tourism": "information"}}, {"type": "node", "id": 7717892840, "lat": 49.4230357, "lon": 14.3252438, "tags": {"information": "board", "name": "V\u00edtejte v Ruk\u00e1v\u010di", "tourism": "information"}}, {"type": "node", "id": 7717892852, "lat": 49.4569269, "lon": 14.3289413, "tags": {"information": "map", "map_size": "city", "map_type": "street", "tourism": "information"}}, {"type": "node", "id": 7717892853, "lat": 49.4569644, "lon": 14.3289815, "tags": {"information": "board", "tourism": "information"}}, {"type": "node", "id": 7717892858, "lat": 49.4877134, "lon": 14.3226475, "tags": {"information": "board", "tourism": "information"}}, {"type": "node", "id": 7717892862, "lat": 49.5069247, "lon": 14.2555225, "tags": {"information": "board", "tourism": "information"}}, {"type": "node", "id": 7722107916, "lat": 49.4792803, "lon": 14.3570133, "tags": {"information": "map", "map_size": "region", "map_type": "topo", "tourism": "information"}}, {"type": "node", "id": 8288786787, "lat": 49.5485746, "lon": 14.2729551, "tags": {"information": "board", "name": "NS Kov\u00e1\u0159ovsko", "tourism": "information"}}, {"type": "node", "id": 8374328813, "lat": 49.4566726, "lon": 14.3670178, "tags": {"bicycle": "yes", "check_date": "2025-08-11", "hiking": "yes", "information": "map", "map_size": "region", "map_type": "topo", "name": "Milevsko", "tourism": "information"}}, {"type": "node", "id": 8374363063, "lat": 49.4421773, "lon": 14.3771444, "tags": {"check_date": "2025-08-19", "information": "board", "name": "V\u00edtejte v Milevsku", "tourism": "information"}}, {"type": "node", "id": 8374363064, "lat": 49.449712, "lon": 14.36125, "tags": {"information": "board", "name": "V\u00edtejte v Milevsku", "tourism": "information"}}, {"type": "node", "id": 8425433998, "lat": 49.5228264, "lon": 14.2720782, "tags": {"board_type": "history", "description": "NS Kov\u00e1\u0159ovska", "information": "board", "name": "Kov\u00e1\u0159ovsk\u00e1 h\u016frka", "tourism": "information"}}, {"type": "node", "id": 8425433999, "lat": 49.5229269, "lon": 14.2720978, "tags": {"board_type": "history", "description": "Stezka na onen sv\u011bt", "information": "board", "name": "Kov\u00e1\u0159ovsk\u00e1 h\u016frka", "tourism": "information"}}, {"type": "node", "id": 8425434000, "lat": 49.519742, "lon": 14.2415294, "tags": {"board_type": "nature", "description": "NS Kov\u00e1\u0159ovska", "information": "board", "name": "Sfinga", "tourism": "information"}}, {"type": "node", "id": 8425434001, "lat": 49.5087819, "lon": 14.2594218, "tags": {"board_type": "nature", "description": "NS Kov\u00e1\u0159ovska", "information": "board", "name": "Skaln\u00ed br\u00e1na", "tourism": "information"}}, {"type": "node", "id": 8601527516, "lat": 49.5231263, "lon": 14.3034089, "tags": {"information": "board", "name": "NS Kov\u00e1\u0159ovska: Vepice", "tourism": "information"}}, {"type": "node", "id": 8772320580, "lat": 49.3617142, "lon": 14.2776574, "tags": {"information": "board", "name": "Podolsko", "tourism": "information"}}, {"type": "node", "id": 8772320581, "lat": 49.3810998, "lon": 14.2766677, "tags": {"information": "board", "name": "Pta\u010d\u00ed oblast \u00dadol\u00ed Otavy a Vltavy", "tourism": "information"}}, {"type": "node", "id": 9014350437, "lat": 49.5343742, "lon": 14.3265316, "tags": {"board_type": "history", "description": "NS Kov\u00e1\u0159ovska", "information": "board", "name": "Dobr\u00e1 Voda", "tourism": "information"}}, {"type": "node", "id": 9067687951, "lat": 49.3560039, "lon": 14.2289651, "tags": {"amenity": "shelter", "shelter_type": "picnic_shelter"}}, {"type": "node", "id": 9813106725, "lat": 49.4587444, "lon": 14.3686041, "tags": {"board_type": "history", "information": "board", "name": "K\u0159\u00ed\u017eov\u00e1 cesta", "tourism": "information"}}, {"type": "node", "id": 9813106729, "lat": 49.4595706, "lon": 14.3712603, "tags": {"board_type": "history", "information": "board", "name": "K\u0159\u00ed\u017eov\u00e1 cesta", "tourism": "information"}}, {"type": "node", "id": 9813106732, "lat": 49.4608345, "lon": 14.3719764, "tags": {"board_type": "history", "information": "board", "name": "Morov\u00fd h\u0159bitov", "tourism": "information"}}, {"type": "node", "id": 10133455191, "lat": 49.3817095, "lon": 14.2312318, "tags": {"ele": "397", "hiking": "yes", "information": "guidepost", "name": "\u010cervenina", "operator": "cz:K\u010cT", "ref": "PI037", "tourism": "information"}}, {"type": "node", "id": 10133455211, "lat": 49.4108588, "lon": 14.2258762, "tags": {"ele": "395", "hiking": "yes", "information": "guidepost", "name": "U Dejmova", "operator": "cz:K\u010cT", "ref": "PI036", "tourism": "information"}}, {"type": "node", "id": 10133455216, "lat": 49.4236129, "lon": 14.2181507, "tags": {"hiking": "yes", "information": "guidepost", "operator": "cz:K\u010cT", "ref": "MI035", "tourism": "information"}}, {"type": "node", "id": 10148194392, "lat": 49.3909737, "lon": 14.3910512, "tags": {"man_made": "tower", "name": "rozhledna Kupa", "tourism": "viewpoint", "tower:type": "observation"}}, {"type": "node", "id": 10148194393, "lat": 49.391091, "lon": 14.3910975, "tags": {"amenity": "shelter", "shelter_type": "picnic_shelter"}}, {"type": "node", "id": 10148194394, "lat": 49.3909378, "lon": 14.3910108, "tags": {"board_type": "history", "information": "board", "name": "Jest\u0159ebice rozhledna Kupa", "tourism": "information"}}, {"type": "node", "id": 10148194396, "lat": 49.3876573, "lon": 14.3875549, "tags": {"board_type": "history", "information": "board", "name": "Jest\u0159ebice", "tourism": "information"}}, {"type": "node", "id": 10148194407, "lat": 49.388274, "lon": 14.3638052, "tags": {"board_type": "history", "information": "board", "name": "Strar\u00fd h\u0159bitov", "tourism": "information"}}, {"type": "node", "id": 11252279510, "lat": 49.3686742, "lon": 14.3802389, "tags": {"information": "map", "name": "Deset jiho\u010desk\u00fdch hv\u011bzd trochu jinak", "tourism": "information"}}, {"type": "node", "id": 11252305920, "lat": 49.3686397, "lon": 14.3801339, "tags": {"information": "map", "name": "Bernarticko", "tourism": "information"}}, {"type": "node", "id": 12163365466, "lat": 49.3566667, "lon": 14.2703217, "tags": {"board_type": "history", "information": "board", "name": "Rozkaz spln\u011bn", "name:en": "Mission accomplished", "tourism": "information"}}, {"type": "node", "id": 12177174498, "lat": 49.4253265, "lon": 14.2027808, "tags": {"board_type": "wildlife", "information": "board", "name": "Ryba\u0159en\u00ed na \u00fadoln\u00ed n\u00e1dr\u017ei Orl\u00edk", "tourism": "information"}}, {"type": "node", "id": 12177174499, "lat": 49.4253068, "lon": 14.2027896, "tags": {"information": "map", "tourism": "information"}}, {"type": "node", "id": 12177174500, "lat": 49.4252824, "lon": 14.2028019, "tags": {"board_type": "sight", "information": "board", "name": "Tipy na v\u00fdlet Zv\u00edkovsk\u00e9ho podhradi", "tourism": "information"}}, {"type": "node", "id": 12177207101, "lat": 49.4252612, "lon": 14.202809, "tags": {"board_type": "sight", "information": "board", "name": "V\u00edtejte ve Zv\u00edtkovsk\u00e9m podhradi", "tourism": "information"}}, {"type": "node", "id": 12177207102, "lat": 49.4251509, "lon": 14.202389, "tags": {"information": "map", "map_size": "region", "map_type": "scheme", "name": "P\u00edsecko", "tourism": "information"}}, {"type": "node", "id": 12177207103, "lat": 49.42621, "lon": 14.2008906, "tags": {"board_type": "history", "information": "board", "name": "Kaple Svat\u00e9ho V\u00e1clava", "tourism": "information"}}, {"type": "node", "id": 12484575962, "lat": 49.3815545, "lon": 14.2497446, "tags": {"information": "board", "name": "Stavebn\u00ed pl\u00e1n \u017eelezni\u010dn\u00edho mostu", "tourism": "information"}}, {"type": "node", "id": 12987634721, "lat": 49.5316673, "lon": 14.2314152, "tags": {"ele": "525.5", "natural": "peak", "noname": "yes", "source": "cuzk:km"}}, {"type": "node", "id": 12987634722, "lat": 49.5337394, "lon": 14.2246286, "tags": {"ele": "490.9", "natural": "peak", "noname": "yes", "source": "cuzk:km"}}, {"type": "node", "id": 12987634723, "lat": 49.5376559, "lon": 14.2219384, "tags": {"ele": "493.3", "natural": "peak", "noname": "yes", "source": "cuzk:km"}}, {"type": "node", "id": 12987634724, "lat": 49.5319759, "lon": 14.211861, "tags": {"ele": "470.1", "natural": "peak", "noname": "yes", "source": "cuzk:km"}}, {"type": "node", "id": 12987692403, "lat": 49.5453984, "lon": 14.2686826, "tags": {"ele": "542.5", "name": "Bu\u010dina", "natural": "peak", "source": "cuzk:km"}}, {"type": "node", "id": 12987692404, "lat": 49.5428076, "lon": 14.2573841, "tags": {"ele": "534.3", "natural": "peak", "noname": "yes", "source": "cuzk:km"}}, {"type": "node", "id": 12987692405, "lat": 49.5420375, "lon": 14.2524451, "tags": {"ele": "532.8", "natural": "peak", "noname": "yes", "source": "cuzk:km"}}, {"type": "node", "id": 12987692476, "lat": 49.5336551, "lon": 14.236052, "tags": {"ele": "532.8", "natural": "peak", "noname": "yes", "source": "cuzk:km"}}, {"type": "node", "id": 12987692477, "lat": 49.5359225, "lon": 14.2322313, "tags": {"ele": "528.1", "natural": "peak", "noname": "yes", "source": "cuzk:km"}}, {"type": "node", "id": 12987692484, "lat": 49.540583, "lon": 14.2162892, "tags": {"ele": "516.7", "name": "Na Brej\u0161e", "natural": "peak", "source": "cuzk:km"}}, {"type": "node", "id": 12987692497, "lat": 49.537017, "lon": 14.2175424, "tags": {"ele": "492.4", "natural": "peak", "noname": "yes", "source": "cuzk:km"}}, {"type": "node", "id": 12987692499, "lat": 49.5420252, "lon": 14.202867, "tags": {"ele": "444.4", "natural": "peak", "noname": "yes", "source": "cuzk:km"}}, {"type": "node", "id": 12987692531, "lat": 49.5506018, "lon": 14.2024146, "tags": {"ele": "448.4", "natural": "peak", "noname": "yes", "source": "cuzk:km"}}, {"type": "node", "id": 12990019321, "lat": 49.5221043, "lon": 14.2436846, "tags": {"ele": "503.1", "name": "Kobyl\u00ed vrch", "natural": "peak", "source": "cuzk:km"}}, {"type": "node", "id": 12990019322, "lat": 49.5124703, "lon": 14.2438958, "tags": {"ele": "495.6", "natural": "peak", "noname": "yes", "source": "cuzk:km"}}, {"type": "node", "id": 12990019326, "lat": 49.5159918, "lon": 14.2423933, "tags": {"ele": "498.4", "natural": "peak", "noname": "yes", "source": "cuzk:km"}}, {"type": "node", "id": 12990019328, "lat": 49.5261399, "lon": 14.2360849, "tags": {"ele": "501.4", "natural": "peak", "noname": "yes", "source": "cuzk:km"}}, {"type": "node", "id": 12990019344, "lat": 49.5292635, "lon": 14.2071328, "tags": {"ele": "460.3", "natural": "peak", "noname": "yes", "source": "cuzk:km"}}, {"type": "node", "id": 12990019345, "lat": 49.5260958, "lon": 14.2250697, "tags": {"ele": "473", "natural": "peak", "noname": "yes", "source": "cuzk:km"}}, {"type": "node", "id": 12990019346, "lat": 49.5248714, "lon": 14.2202096, "tags": {"ele": "447.4", "natural": "peak", "noname": "yes", "source": "cuzk:km"}}, {"type": "node", "id": 12990019347, "lat": 49.5221566, "lon": 14.2207365, "tags": {"ele": "423.8", "natural": "peak", "noname": "yes", "source": "cuzk:km"}}, {"type": "node", "id": 12990019349, "lat": 49.5209866, "lon": 14.2311298, "tags": {"ele": "478.3", "natural": "peak", "noname": "yes", "source": "cuzk:km"}}, {"type": "node", "id": 12990019350, "lat": 49.5061089, "lon": 14.2134832, "tags": {"ele": "485", "natural": "peak", "noname": "yes", "source": "cuzk:km"}}, {"type": "node", "id": 12990019352, "lat": 49.5088377, "lon": 14.2307488, "tags": {"ele": "490.8", "natural": "peak", "noname": "yes", "source": "cuzk:km"}}, {"type": "node", "id": 12990019353, "lat": 49.5087374, "lon": 14.236683, "tags": {"ele": "487.3", "natural": "peak", "noname": "yes", "source": "cuzk:km"}}, {"type": "node", "id": 12990019360, "lat": 49.5133271, "lon": 14.2193033, "tags": {"ele": "484.9", "natural": "peak", "noname": "yes", "source": "cuzk:km"}}, {"type": "node", "id": 12990019361, "lat": 49.5164128, "lon": 14.2179003, "tags": {"ele": "482.2", "natural": "peak", "noname": "yes", "source": "cuzk:km"}}, {"type": "node", "id": 12990019363, "lat": 49.5147218, "lon": 14.2285537, "tags": {"ele": "492.8", "natural": "peak", "noname": "yes", "source": "cuzk:km"}}, {"type": "node", "id": 12990019373, "lat": 49.5086925, "lon": 14.2102439, "tags": {"ele": "488.1", "natural": "peak", "noname": "yes", "source": "cuzk:km"}}, {"type": "node", "id": 12990019376, "lat": 49.5170143, "lon": 14.2074618, "tags": {"ele": "473.9", "natural": "peak", "noname": "yes", "source": "cuzk:km"}}, {"type": "node", "id": 12990019377, "lat": 49.5250072, "lon": 14.2005043, "tags": {"ele": "450.4", "name": "Podj\u00edny", "natural": "peak", "source": "cuzk:km"}}, {"type": "node", "id": 12990019378, "lat": 49.5234508, "lon": 14.207106, "tags": {"ele": "442.3", "natural": "peak", "noname": "yes", "source": "cuzk:km"}}, {"type": "node", "id": 12990019379, "lat": 49.5241655, "lon": 14.2070724, "tags": {"ele": "446.2", "natural": "peak", "noname": "yes", "source": "cuzk:km"}}, {"type": "node", "id": 12991112041, "lat": 49.5138854, "lon": 14.2547275, "tags": {"ele": "497.3", "natural": "peak", "noname": "yes", "source": "cuzk:km"}}, {"type": "node", "id": 12992609787, "lat": 49.5140315, "lon": 14.2787261, "tags": {"ele": "549.4", "name": "Lipn\u00fd", "natural": "peak", "source": "cuzk:km"}}, {"type": "node", "id": 12992631875, "lat": 49.5403637, "lon": 14.2802445, "tags": {"ele": "531.8", "name": "Machov", "natural": "peak", "source": "cuzk:km"}}, {"type": "node", "id": 12992631877, "lat": 49.5398786, "lon": 14.2766278, "tags": {"board_type": "history", "information": "board", "name": "B\u0159ez\u00ed, P\u0159edbo\u0159ice", "tourism": "information"}}, {"type": "node", "id": 13040212689, "lat": 49.4214441, "lon": 14.3715147}, {"type": "node", "id": 13040212690, "lat": 49.4214337, "lon": 14.3715346}, {"type": "node", "id": 13040212691, "lat": 49.4214087, "lon": 14.3715039}, {"type": "node", "id": 13040212692, "lat": 49.421419, "lon": 14.371484}, {"type": "node", "id": 13040212700, "lat": 49.4214176, "lon": 14.3714867}, {"type": "node", "id": 13040279801, "lat": 49.4214424, "lon": 14.3715179}, {"type": "node", "id": 13314776567, "lat": 49.5083517, "lon": 14.2586832, "tags": {"board_type": "tourism", "information": "board", "name": "Kov\u00e1\u0159ovsko - Skaln\u00ed br\u00e1na", "tourism": "information"}}, {"type": "node", "id": 13314811487, "lat": 49.5164521, "lon": 14.2536572, "tags": {"board_type": "tourism", "information": "board", "name": "Kov\u00e1\u0159ovsko - Slavo\u0148ov", "tourism": "information"}}, {"type": "way", "id": 390032598, "nodes": [3931905907, 3931905908, 3931905909, 4021860912, 4021860911, 3931905910, 3931905907], "tags": {"amenity": "shelter"}}, {"type": "way", "id": 678665150, "nodes": [6354634121, 6354634120, 6354634119, 6354634118, 6354634121], "tags": {"amenity": "shelter", "building": "transportation", "building:ruian:type": "5", "ref:ruian:building": "39952860", "shelter_type": "public_transport", "source": "cuzk:ruian"}}, {"type": "way", "id": 816132103, "nodes": [7622189989, 7622189990, 7622189991, 7622189992, 7622189989], "tags": {"amenity": "shelter", "bench": "no", "bin": "no", "building": "yes", "lockable": "yes", "name": "loch", "shelter_type": "dugout"}}, {"type": "way", "id": 1419033956, "nodes": [13040212689, 13040279801, 13040212690, 13040212691, 13040212700, 13040212692, 13040212689], "tags": {"amenity": "shelter", "building": "yes", "shelter_type": "public_transport"}}]}