{"version": 0.6, "generator": "Overpass API 0.7.62.8 e802775f", "osm3s": {"timestamp_osm_base": "2026-01-05T16:27:06Z", "copyright": "The data included in this document is from www.openstreetmap.org. The data is made available under ODbL."}, "elements": [{"type": "node", "id": 285673533, "lat": 49.4753773, "lon": 13.9387649, "tags": {"historic": "ruins", "name": "K\u0159ikava", "opening_hours": "24/7", "tourism": "attraction", "wikidata": "Q287264", "wikipedia": "cs:K\u0159ikava"}}, {"type": "node", "id": 706436932, "lat": 49.4250599, "lon": 13.8818403, "tags": {"information": "office", "internet_access": "wlan", "tourism": "information"}}, {"type": "node", "id": 1324184418, "lat": 49.5406533, "lon": 13.958086, "tags": {"hiking": "yes", "information": "guidepost", "name": "Martinice", "operator": "cz:K\u010cT", "ref": "PB331", "source": "survey", "tourism": "information"}}, {"type": "node", "id": 1325382773, "lat": 49.5322065, "lon": 13.9509324, "tags": {"hiking": "yes", "information": "guidepost", "name": "Sim\u00ednsk\u00fd ml\u00fdn", "operator": "cz:K\u010cT", "ref": "PB330", "source": "survey", "tourism": "information"}}, {"type": "node", "id": 1819316584, "lat": 49.3901555, "lon": 13.9793095, "tags": {"ele": "573", "hiking": "yes", "information": "guidepost", "name": "Mu\u017eetick\u00fd vrch", "tourism": "information"}}, {"type": "node", "id": 2366786175, "lat": 49.5232182, "lon": 13.8953861}, {"type": "node", "id": 2366786178, "lat": 49.5232296, "lon": 13.8953444}, {"type": "node", "id": 2366786183, "lat": 49.5232534, "lon": 13.8954087}, {"type": "node", "id": 2366786186, "lat": 49.5232647, "lon": 13.895367}, {"type": "node", "id": 2366786672, "lat": 49.527607, "lon": 13.9285642}, {"type": "node", "id": 2366786702, "lat": 49.5276307, "lon": 13.928548}, {"type": "node", "id": 2366786705, "lat": 49.5276206, "lon": 13.9286115}, {"type": "node", "id": 2366786713, "lat": 49.5276443, "lon": 13.9285954}, {"type": "node", "id": 2601982960, "lat": 49.4468147, "lon": 13.9804264, "tags": {"ele": "450", "hiking": "yes", "information": "guidepost", "name": "Kost\u0159ata", "operator": "cz:K\u010cT", "ref": "PI153", "tourism": "information"}}, {"type": "node", "id": 2601982961, "lat": 49.4468519, "lon": 13.9792478, "tags": {"information": "guidepost", "name": "Kost\u0159ata", "tourism": "information"}}, {"type": "node", "id": 2601982962, "lat": 49.4535764, "lon": 13.9423751, "tags": {"ele": "470", "hiking": "yes", "information": "guidepost", "name": "St\u0159\u00ed\u017eovice", "operator": "cz:K\u010cT", "ref": "ST003", "tourism": "information"}}, {"type": "node", "id": 2601982968, "lat": 49.450756, "lon": 13.9684856, "tags": {"ele": "454", "hiking": "yes", "information": "guidepost", "name": "My\u0161tice Labu\u0165 (ryb.)", "operator": "cz:K\u010cT", "ref": "ST216", "source": "mavit GPS", "tourism": "information"}}, {"type": "node", "id": 2601983006, "lat": 49.4517945, "lon": 13.925084, "tags": {"ele": "460", "hiking": "yes", "information": "guidepost", "name": "\u00dajezd u Skali\u010dan", "operator": "cz:K\u010cT", "ref": "ST004", "source": "mavit GPS", "tourism": "information"}}, {"type": "node", "id": 2602143192, "lat": 49.4427592, "lon": 13.8853344, "tags": {"ele": "454", "hiking": "yes", "information": "guidepost", "name": "Bezd\u011bdovice", "operator": "cz:K\u010cT", "ref": "ST004", "tourism": "information"}}, {"type": "node", "id": 2602143210, "lat": 49.4446298, "lon": 13.8987248, "tags": {"ele": "455", "hiking": "yes", "information": "guidepost", "name": "Pa\u0161tiky", "operator": "cz:K\u010cT", "ref": "ST007", "source": "mavit GPS", "tourism": "information"}}, {"type": "node", "id": 2602143650, "lat": 49.4529379, "lon": 13.9147831, "tags": {"ele": "491", "hiking": "yes", "information": "guidepost", "name": "\u017denat\u00fd dub", "operator": "cz:K\u010cT", "ref": "ST005", "source": "mavit GPS", "tourism": "information"}}, {"type": "node", "id": 2602195453, "lat": 49.4246404, "lon": 13.8820655, "tags": {"ele": "435", "hiking": "yes", "information": "guidepost", "name": "Blatn\u00e1 (n\u00e1m.)", "operator": "cz:K\u010cT", "ref": "ST198", "tourism": "information"}}, {"type": "node", "id": 2602195454, "lat": 49.4268492, "lon": 13.8824258, "tags": {"hiking": "yes", "information": "guidepost", "name": "Blatn\u00e1 (rozc.)", "source": "mavit GPS", "tourism": "information"}}, {"type": "node", "id": 2602195455, "lat": 49.4367973, "lon": 13.8252604, "tags": {"hiking": "yes", "information": "guidepost", "name": "Dolej\u0161\u00ed rybn\u00edk", "ref": "ST057", "source": "mavit GPS", "tourism": "information"}}, {"type": "node", "id": 2602195456, "lat": 49.4288835, "lon": 13.8768098, "tags": {"ele": "440", "hiking": "yes", "information": "guidepost", "name": "Blatn\u00e1 sokolovna", "operator": "cz:K\u010cT", "ref": "ST284", "source": "mavit GPS", "tourism": "information"}}, {"type": "node", "id": 2602195473, "lat": 49.434314, "lon": 13.8516178, "tags": {"information": "guidepost", "name": "\u0158e\u010dice", "tourism": "information"}}, {"type": "node", "id": 2945945900, "lat": 49.4155611, "lon": 13.8168818, "tags": {"ele": "465", "hiking": "yes", "information": "guidepost", "name": "Velk\u00fd P\u00e1lenec", "operator": "cz:K\u010cT", "ref": "ST154", "tourism": "information"}}, {"type": "node", "id": 3175643323, "lat": 49.4354702, "lon": 13.9678656, "tags": {"destination": "My\u0161tice", "ele": "420", "information": "guidepost", "name": "Nov\u00fd Ml\u00fdn", "operator": "cz:K\u010cT", "tourism": "information"}}, {"type": "node", "id": 3175643336, "lat": 49.4373432, "lon": 13.96612, "tags": {"ele": "420", "hiking": "yes", "information": "guidepost", "name": "Nov\u00fd ml\u00fdn", "operator": "cz:K\u010cT", "ref": "ST071", "source": "mavit GPS", "tourism": "information"}}, {"type": "node", "id": 3175643337, "lat": 49.440594, "lon": 13.9761365, "tags": {"information": "guidepost", "source": "mavit GPS", "tourism": "information"}}, {"type": "node", "id": 3175670101, "lat": 49.4192096, "lon": 13.9664643, "tags": {"ele": "475", "hiking": "yes", "information": "guidepost", "name": "U J\u016f\u017eova", "operator": "cz:K\u010cT", "ref": "ST070", "source": "mavit GPS", "tourism": "information"}}, {"type": "node", "id": 3175675695, "lat": 49.4018205, "lon": 13.9482735, "tags": {"ele": "455", "hiking": "yes", "information": "guidepost", "name": "\u0160kvo\u0159etice", "operator": "cz:K\u010cT", "ref": "ST194", "source": "mavit GPS", "tourism": "information"}}, {"type": "node", "id": 3175696506, "lat": 49.3869549, "lon": 13.9790743, "tags": {"ele": "538", "hiking": "yes", "information": "guidepost", "name": "Mu\u017eetice", "operator": "cz:K\u010cT", "ref": "ST069", "source": "mavit GPS", "tourism": "information"}}, {"type": "node", "id": 3175696507, "lat": 49.376509, "lon": 13.9395023, "tags": {"ele": "510", "hiking": "yes", "information": "guidepost", "name": "Sedlice (n\u00e1m.)", "operator": "cz:K\u010cT", "ref": "ST212", "source": "mavit GPS", "tourism": "information"}}, {"type": "node", "id": 3175696508, "lat": 49.3779612, "lon": 13.944329, "tags": {"ele": "500", "hiking": "yes", "information": "guidepost", "name": "Sedlice (\u017est.)", "operator": "cz:K\u010cT", "ref": "ST067", "source": "mavit GPS", "tourism": "information"}}, {"type": "node", "id": 3175716962, "lat": 49.3626874, "lon": 13.924605, "tags": {"ele": "473", "hiking": "yes", "information": "guidepost", "name": "Pilsk\u00fd ml\u00fdn", "operator": "cz:K\u010cT", "ref": "ST066", "source": "mavit GPS", "tourism": "information"}}, {"type": "node", "id": 3340673071, "lat": 49.4450101, "lon": 13.8778443, "tags": {"ele": "455", "hiking": "yes", "information": "guidepost", "name": "Bezd\u011bdovice (\u017est)", "operator": "cz:K\u010cT", "ref": "ST188", "source": "mavit GPS", "tourism": "information"}}, {"type": "node", "id": 3340673074, "lat": 49.4588611, "lon": 13.8649107, "tags": {"ele": "465", "hiking": "yes", "information": "guidepost", "name": "U By\u010d\u00edna", "operator": "cz:K\u010cT", "ref": "ST187", "tourism": "information"}}, {"type": "node", "id": 3340698749, "lat": 49.4827015, "lon": 13.8397738, "tags": {"ele": "510", "hiking": "yes", "information": "guidepost", "name": "Hornos\u00edn", "operator": "cz:K\u010cT", "ref": "ST185", "source": "mavit GPS", "tourism": "information"}}, {"type": "node", "id": 3340698750, "lat": 49.4653948, "lon": 13.8540176, "tags": {"ele": "505", "hiking": "yes", "information": "guidepost", "name": "Para\u010dov", "operator": "cz:K\u010cT", "ref": "ST186", "tourism": "information"}}, {"type": "node", "id": 3340698751, "lat": 49.4948295, "lon": 13.8440932, "tags": {"ele": "494", "hiking": "yes", "information": "guidepost", "name": "Pod Kn\u011b\u017eskou horou", "operator": "cz:K\u010cT", "ref": "ST184", "tourism": "information"}}, {"type": "node", "id": 3340709676, "lat": 49.5281598, "lon": 13.8051751, "tags": {"hiking": "yes", "information": "guidepost", "name": "Hvo\u017e\u010fany", "operator": "cz:K\u010cT", "ref": "PB336", "source": "mavit GPS", "tourism": "information"}}, {"type": "node", "id": 3340709677, "lat": 49.5160403, "lon": 13.8215975, "tags": {"ele": "510", "hiking": "yes", "information": "guidepost", "name": "Tisov", "operator": "cz:K\u010cT", "ref": "ST080", "source": "mavit GPS", "tourism": "information"}}, {"type": "node", "id": 3340709678, "lat": 49.5006099, "lon": 13.8325045, "tags": {"ele": "485", "hiking": "yes", "information": "guidepost", "name": "\u00dajezdec u B\u011bl\u010dic", "operator": "cz:K\u010cT", "ref": "ST183", "source": "mavit GPS", "tourism": "information"}}, {"type": "node", "id": 3733684933, "lat": 49.5441906, "lon": 13.8373062, "tags": {"hiking": "yes", "information": "guidepost", "name": "Vac\u00edkov", "operator": "cz:K\u010cT", "ref": "PB326", "tourism": "information"}}, {"type": "node", "id": 3790717542, "lat": 49.5280447, "lon": 13.9286856, "tags": {"hiking": "yes", "information": "guidepost", "name": "Hud\u010dice (\u017est.)", "operator": "cz:K\u010cT", "ref": "PB329", "source": "mavit GPS", "tourism": "information"}}, {"type": "node", "id": 3790717543, "lat": 49.5306288, "lon": 13.9256554, "tags": {"hiking": "yes", "information": "guidepost", "name": "Hud\u010dice", "operator": "cz:K\u010cT", "ref": "PB328", "source": "mavit GPS", "tourism": "information"}}, {"type": "node", "id": 3790717545, "lat": 49.5152584, "lon": 13.8550803, "tags": {"destination": "Leletice;T\u0159em\u0161\u00edn;Hud\u010dice", "ele": "493", "fixme": "mo\u017en\u00e1 zru\u0161en, ov\u011b\u0159it", "hiking": "yes", "information": "guidepost", "name": "K Z\u00e1hrob\u00ed (rozc.)", "operator": "cz:K\u010cT", "ref": "PB334", "source": "mavit GPS", "tourism": "information"}}, {"type": "node", "id": 3790717546, "lat": 49.5152405, "lon": 13.9174346, "tags": {"destination": "Hud\u010dice;Hvo\u017e\u010fany;Dlouh\u00e1;Uzeni\u010dky", "hiking": "yes", "information": "guidepost", "name": "Koup\u011b", "operator": "cz:K\u010cT", "ref": "PB332", "source": "mavit GPS", "tourism": "information"}}, {"type": "node", "id": 3790717547, "lat": 49.5242217, "lon": 13.8452357, "tags": {"destination": "T\u0159em\u0161\u00edn 10km, Hud\u010dice 9,5km", "hiking": "yes", "information": "guidepost", "name": "Leletice", "operator": "cz:K\u010cT", "ref": "PB335", "source": "mavit GPS", "tourism": "information"}}, {"type": "node", "id": 3790717548, "lat": 49.5369544, "lon": 13.9556928, "tags": {"information": "board", "name": "Prosba lesa", "source": "mavit GPS", "tourism": "information"}}, {"type": "node", "id": 3790717549, "lat": 49.5231228, "lon": 13.8952381, "tags": {"ele": "542", "hiking": "yes", "information": "guidepost", "name": "Slav\u011bt\u00edn (\u017est.)", "operator": "cz:K\u010cT", "ref": "PB333", "source": "mavit GPS", "tourism": "information"}}, {"type": "node", "id": 3790717550, "lat": 49.5152878, "lon": 13.855041, "tags": {"information": "board", "name": "Vrate\u010d\u00edn", "tourism": "information"}}, {"type": "node", "id": 4476331968, "lat": 49.4152644, "lon": 13.8268015, "tags": {"ele": "450", "hiking": "yes", "information": "guidepost", "name": "Had\u00ed rybn\u00edk", "operator": "cz:K\u010cT", "ref": "ST060", "tourism": "information"}}, {"type": "node", "id": 4476331969, "lat": 49.3881123, "lon": 13.8566569, "tags": {"ele": "515", "hiking": "yes", "information": "guidepost", "name": "Jind\u0159ichovice", "operator": "cz:K\u010cT", "ref": "ST147", "tourism": "information"}}, {"type": "node", "id": 4476331972, "lat": 49.4161253, "lon": 13.8532158, "tags": {"ele": "435", "hiking": "yes", "information": "guidepost", "name": "U Hude\u010dk\u016f", "operator": "cz:K\u010cT", "ref": "ST155", "tourism": "information"}}, {"type": "node", "id": 4476331973, "lat": 49.3988136, "lon": 13.8103103, "tags": {"ele": "480", "hiking": "yes", "information": "guidepost", "name": "U Mal\u00e9 Ku\u0161e", "operator": "cz:K\u010cT", "ref": "ST152", "tourism": "information"}}, {"type": "node", "id": 4476331974, "lat": 49.3965816, "lon": 13.8072052, "tags": {"ele": "480", "hiking": "yes", "information": "guidepost", "name": "Velk\u00e1 Ku\u0161", "operator": "cz:K\u010cT", "ref": "ST151", "tourism": "information"}}, {"type": "node", "id": 4476331975, "lat": 49.4030487, "lon": 13.8081741, "tags": {"ele": "475", "hiking": "yes", "information": "guidepost", "name": "Vrbno", "operator": "cz:K\u010cT", "ref": "ST153", "tourism": "information"}}, {"type": "node", "id": 4476331976, "lat": 49.3785284, "lon": 13.8274559, "tags": {"ele": "550", "hiking": "yes", "information": "guidepost", "name": "Z\u00e1bo\u0159\u00ed u Blatn\u00e9", "operator": "cz:K\u010cT", "ref": "ST148", "tourism": "information"}}, {"type": "node", "id": 4477112348, "lat": 49.4005272, "lon": 13.8545231, "tags": {"ele": "475", "hiking": "yes", "information": "guidepost", "name": "Blatenka", "operator": "cz:K\u010cT", "ref": "ST146", "tourism": "information"}}, {"type": "node", "id": 4483371206, "lat": 49.5084155, "lon": 13.8491876, "tags": {"ele": "510", "hiking": "yes", "information": "guidepost", "name": "Z\u00e1hrob\u00ed", "operator": "cz:K\u010cT", "ref": "ST079", "tourism": "information"}}, {"type": "node", "id": 4486040886, "lat": 49.457404, "lon": 13.9798919, "tags": {"ele": "460", "hiking": "yes", "information": "guidepost", "name": "Ko\u017el\u00ed", "operator": "cz:K\u010cT", "ref": "MI152", "source": "mavit Garmin Edge 705", "tourism": "information"}}, {"type": "node", "id": 4488196680, "lat": 49.502491, "lon": 13.8755999, "tags": {"ele": "505", "hiking": "yes", "information": "guidepost", "name": "B\u011bl\u010dice (n\u00e1m.)", "operator": "cz:K\u010cT", "ref": "ST078", "tourism": "information"}}, {"type": "node", "id": 4488196681, "lat": 49.4625797, "lon": 13.9339742, "tags": {"ele": "455", "hiking": "yes", "information": "guidepost", "name": "Chobot", "operator": "cz:K\u010cT", "ref": "ST073", "tourism": "information"}}, {"type": "node", "id": 4488196682, "lat": 49.4812655, "lon": 13.8922075, "tags": {"ele": "525", "hiking": "yes", "information": "guidepost", "name": "K\u0159enovy les", "operator": "cz:K\u010cT", "ref": "ST076", "tourism": "information"}}, {"type": "node", "id": 4488196683, "lat": 49.4754239, "lon": 13.938717, "tags": {"ele": "467", "hiking": "yes", "information": "guidepost", "name": "K\u0159ikava z\u0159\u00edcenina", "operator": "cz:K\u010cT", "ref": "ST201", "tourism": "information"}}, {"type": "node", "id": 4488196684, "lat": 49.4777701, "lon": 13.9168674, "tags": {"ele": "480", "hiking": "yes", "information": "guidepost", "name": "Pod Kub\u00e1tovou horou", "operator": "cz:K\u010cT", "ref": "ST075", "tourism": "information"}}, {"type": "node", "id": 4488196685, "lat": 49.525011, "lon": 13.8735161, "tags": {"ele": "553", "hiking": "yes", "information": "guidepost", "name": "Pod \u0160palkovou horou", "operator": "cz:K\u010cT", "ref": "PB387", "tourism": "information"}}, {"type": "node", "id": 4488196686, "lat": 49.4904448, "lon": 13.8901261, "tags": {"ele": "495", "hiking": "yes", "information": "guidepost", "name": "U Ov\u010d\u00edna", "operator": "cz:K\u010cT", "ref": "ST077", "tourism": "information"}}, {"type": "node", "id": 4488201469, "lat": 49.4753019, "lon": 13.9360294, "tags": {"ele": "467", "hiking": "yes", "information": "guidepost", "name": "\u010cern\u00edvsko", "operator": "cz:K\u010cT", "ref": "ST074", "tourism": "information"}}, {"type": "node", "id": 4488569292, "lat": 49.4897072, "lon": 13.931411, "tags": {"ele": "495", "hiking": "yes", "information": "guidepost", "name": "Hosti\u0161ovice", "operator": "cz:K\u010cT", "ref": "ST192", "tourism": "information"}}, {"type": "node", "id": 4488569293, "lat": 49.4943849, "lon": 13.9401671, "tags": {"ele": "520", "hiking": "yes", "information": "guidepost", "name": "Uzeni\u010dky rozcest\u00ed", "operator": "cz:K\u010cT", "ref": "ST199", "tourism": "information"}}, {"type": "node", "id": 4548904435, "lat": 49.4468025, "lon": 13.834373, "tags": {"ele": "455", "hiking": "yes", "information": "guidepost", "name": "Hajany", "operator": "cz:K\u010cT", "ref": "ST286", "tourism": "information"}}, {"type": "node", "id": 4582701089, "lat": 49.5257847, "lon": 13.9288126, "tags": {"name:en": "Nature swimming", "tourism": "attraction"}}, {"type": "node", "id": 4626472793, "lat": 49.4488267, "lon": 13.8402504, "tags": {"name": "9-StoneStand", "tourism": "viewpoint"}}, {"type": "node", "id": 4726253622, "lat": 49.4407929, "lon": 13.9617446, "tags": {"ele": "465", "hiking": "yes", "information": "guidepost", "name": "Lacin\u00e1", "operator": "cz:K\u010cT", "ref": "ST191", "tourism": "information"}}, {"type": "node", "id": 4726341147, "lat": 49.4165729, "lon": 13.9089959, "tags": {"ele": "432", "hiking": "yes", "information": "guidepost", "name": "\u0158itov\u00edz rybn\u00edk", "operator": "cz:K\u010cT", "ref": "ST197", "tourism": "information"}}, {"type": "node", "id": 4726341148, "lat": 49.4202179, "lon": 13.9231686, "tags": {"ele": "430", "hiking": "yes", "information": "guidepost", "name": "Buzice tvrz", "operator": "cz:K\u010cT", "ref": "ST196", "tourism": "information"}}, {"type": "node", "id": 4726341149, "lat": 49.4229572, "lon": 13.9308343, "tags": {"ele": "430", "hiking": "yes", "information": "guidepost", "name": "Buzice", "operator": "cz:K\u010cT", "ref": "ST189", "tourism": "information"}}, {"type": "node", "id": 4727255766, "lat": 49.4468197, "lon": 13.8509779, "tags": {"ele": "460", "hiking": "yes", "information": "guidepost", "name": "Chlum", "operator": "cz:K\u010cT", "ref": "ST285", "tourism": "information"}}, {"type": "node", "id": 4727305687, "lat": 49.4269838, "lon": 13.8256092, "tags": {"hiking": "yes", "information": "guidepost", "name": "Radov rybn\u00edk", "operator": "cz:K\u010cT", "ref": "ST059", "tourism": "information"}}, {"type": "node", "id": 4727921952, "lat": 49.361094, "lon": 13.9872459, "tags": {"ele": "465", "hiking": "yes", "information": "guidepost", "name": "Sedlick\u00e1 obora bus", "operator": "cz:K\u010cT", "ref": "ST202", "tourism": "information"}}, {"type": "node", "id": 4727921961, "lat": 49.3547733, "lon": 13.9859692, "tags": {"ele": "450", "hiking": "yes", "information": "guidepost", "name": "Staroborsk\u00fd rybn\u00edk", "operator": "cz:K\u010cT", "ref": "ST203", "tourism": "information"}}, {"type": "node", "id": 4727957954, "lat": 49.4238853, "lon": 13.950618, "tags": {"ele": "430", "hiking": "yes", "information": "guidepost", "name": "Buzi\u010dky", "operator": "cz:K\u010cT", "ref": "ST189", "tourism": "information"}}, {"type": "node", "id": 4727975989, "lat": 49.3893469, "lon": 13.9441485, "tags": {"ele": "535", "hiking": "yes", "information": "guidepost", "name": "Kamenice", "operator": "cz:K\u010cT", "ref": "ST193", "tourism": "information"}}, {"type": "node", "id": 4727975990, "lat": 49.4081326, "lon": 13.9336289, "tags": {"ele": "450", "hiking": "yes", "information": "guidepost", "name": "Pacelice", "operator": "cz:K\u010cT", "ref": "ST195", "tourism": "information"}}, {"type": "node", "id": 5030098050, "lat": 49.3750612, "lon": 13.8137573, "tags": {"man_made": "tower", "source": "bing;survey", "tourism": "viewpoint", "tower:type": "communication;observation"}}, {"type": "node", "id": 5094260968, "lat": 49.5386024, "lon": 13.993484, "tags": {"ele": "516", "name": "Rampa\u0161ka", "natural": "peak"}}, {"type": "node", "id": 5094260969, "lat": 49.5342246, "lon": 13.9856252, "tags": {"ele": "515", "name": "\u010cihadlo", "natural": "peak"}}, {"type": "node", "id": 5094260988, "lat": 49.5308744, "lon": 13.9798952, "tags": {"ele": "500", "name": "Hora", "natural": "peak"}}, {"type": "node", "id": 5094264995, "lat": 49.5207971, "lon": 13.9941965, "tags": {"ele": "513", "name": "Hol\u00fd vrch", "natural": "peak"}}, {"type": "node", "id": 5094265352, "lat": 49.5514393, "lon": 13.9425684, "tags": {"ele": "535", "name": "Str\u00e1\u017e", "natural": "peak"}}, {"type": "node", "id": 5145196173, "lat": 49.3712905, "lon": 13.8600415, "tags": {"bicycle": "yes", "information": "route_marker", "operator": "cz:K\u010cT", "ref": "none", "tourism": "information"}}, {"type": "node", "id": 5145196175, "lat": 49.3740116, "lon": 13.8527352, "tags": {"bicycle": "yes", "information": "route_marker", "operator": "cz:K\u010cT", "ref": "none", "tourism": "information"}}, {"type": "node", "id": 5145196176, "lat": 49.3742827, "lon": 13.8470293, "tags": {"bicycle": "yes", "information": "guidepost", "operator": "cz:K\u010cT", "ref": "none", "tourism": "information"}}, {"type": "node", "id": 5145196201, "lat": 49.3783914, "lon": 13.8273507, "tags": {"bicycle": "yes", "hiking": "yes", "information": "map", "map_size": "region", "map_type": "topo", "tourism": "information"}}, {"type": "node", "id": 5145196406, "lat": 49.3669555, "lon": 13.8411319, "tags": {"bicycle": "yes", "information": "guidepost", "operator": "cz:K\u010cT", "ref": "none", "tourism": "information"}}, {"type": "node", "id": 5145196407, "lat": 49.366407, "lon": 13.8415933, "tags": {"bicycle": "yes", "information": "guidepost", "operator": "cz:K\u010cT", "ref": "none", "tourism": "information"}}, {"type": "node", "id": 5145196492, "lat": 49.3522147, "lon": 13.861565, "tags": {"bicycle": "yes", "hiking": "yes", "information": "map", "map_size": "region", "map_type": "topo", "tourism": "information"}}, {"type": "node", "id": 5145200406, "lat": 49.3563599, "lon": 13.9221144, "tags": {"bicycle": "yes", "information": "route_marker", "operator": "cz:K\u010cT", "ref": "none", "tourism": "information"}}, {"type": "node", "id": 5145200457, "lat": 49.3618568, "lon": 13.9234402, "tags": {"bicycle": "yes", "information": "route_marker", "operator": "cz:K\u010cT", "ref": "none", "tourism": "information"}}, {"type": "node", "id": 5145200463, "lat": 49.3721009, "lon": 13.9346069, "tags": {"bicycle": "yes", "information": "route_marker", "operator": "cz:K\u010cT", "ref": "none", "tourism": "information"}}, {"type": "node", "id": 5145200467, "lat": 49.3774275, "lon": 13.941291, "tags": {"bicycle": "yes", "information": "route_marker", "operator": "cz:K\u010cT", "ref": "none", "tourism": "information"}}, {"type": "node", "id": 5145200468, "lat": 49.3775846, "lon": 13.9408565, "tags": {"horse": "yes", "information": "guidepost", "operator": "cz:K\u010cT", "ref": "none", "tourism": "information"}}, {"type": "node", "id": 5145200480, "lat": 49.3764989, "lon": 13.9394369, "tags": {"bicycle": "yes", "hiking": "yes", "information": "map", "map_size": "region", "map_type": "topo", "tourism": "information"}}, {"type": "node", "id": 5145200622, "lat": 49.3791318, "lon": 13.9324021, "tags": {"bicycle": "yes", "hiking": "yes", "information": "map", "map_size": "region", "map_type": "topo", "name": "Strakonicko", "tourism": "information"}}, {"type": "node", "id": 5145200821, "lat": 49.3736762, "lon": 13.8839078, "tags": {"bicycle": "yes", "information": "route_marker", "operator": "cz:K\u010cT", "ref": "none", "tourism": "information"}}, {"type": "node", "id": 5145200822, "lat": 49.3740854, "lon": 13.8832681, "tags": {"bicycle": "yes", "information": "route_marker", "operator": "cz:K\u010cT", "tourism": "information"}}, {"type": "node", "id": 5145200957, "lat": 49.3629309, "lon": 13.8837308, "tags": {"bicycle": "yes", "hiking": "yes", "information": "map", "map_size": "region", "map_type": "topo", "tourism": "information"}}, {"type": "node", "id": 5792863842, "lat": 49.5459822, "lon": 13.9867809, "tags": {"information": "guidepost", "name": "Hradi\u0161t\u011b Boze\u0148", "operator": "cz:K\u010cT", "tourism": "information"}}, {"type": "node", "id": 5792863843, "lat": 49.5467337, "lon": 13.9856677, "tags": {"ele": "511", "information": "guidepost", "name": "Boze\u0148 (t\u00e9\u017e \u0160ance)", "operator": "cz:K\u010cT", "tourism": "information"}}, {"type": "node", "id": 5792863847, "lat": 49.5312527, "lon": 13.9500004, "tags": {"amenity": "shelter"}}, {"type": "node", "id": 5792863958, "lat": 49.508746, "lon": 13.8488963, "tags": {"amenity": "shelter", "shelter_type": "picnic_shelter"}}, {"type": "node", "id": 5792863961, "lat": 49.4812471, "lon": 13.8951393, "tags": {"information": "guidepost", "name": "K\u0159enovy (les)", "tourism": "information"}}, {"type": "node", "id": 5792863964, "lat": 49.4753005, "lon": 13.9361516, "tags": {"amenity": "shelter", "shelter_type": "picnic_shelter"}}, {"type": "node", "id": 5792863966, "lat": 49.4625402, "lon": 13.9339951, "tags": {"information": "board", "tourism": "information"}}, {"type": "node", "id": 5794366139, "lat": 49.4588857, "lon": 13.9419785, "tags": {"board_type": "nature", "information": "board", "name": "Fauna My\u0161tic: pt\u00e1ci", "tourism": "information"}}, {"type": "node", "id": 5794366140, "lat": 49.4588713, "lon": 13.9420247, "tags": {"board_type": "nature", "information": "board", "name": "Fauna My\u0161tic: oboj\u017eiveln\u00edci a plazi", "tourism": "information"}}, {"type": "node", "id": 5794366141, "lat": 49.4568605, "lon": 13.9444467, "tags": {"board_type": "nature", "information": "board", "name": "Fauna My\u0161tic: pt\u00e1ci okol\u00ed vod", "tourism": "information"}}, {"type": "node", "id": 5794366142, "lat": 49.4536387, "lon": 13.9425312, "tags": {"board_type": "nature", "information": "board", "name": "Fauna My\u0161tic: suchozem\u0161t\u00ed bezobratl\u00ed", "tourism": "information"}}, {"type": "node", "id": 5794366144, "lat": 49.4437127, "lon": 13.8906257, "tags": {"amenity": "shelter", "shelter_type": "picnic_shelter"}}, {"type": "node", "id": 6660745128, "lat": 49.481807, "lon": 13.8410681, "tags": {"amenity": "shelter", "shelter_type": "picnic_shelter"}}, {"type": "node", "id": 6666001740, "lat": 49.4575973, "lon": 13.980356, "tags": {"information": "board", "tourism": "information"}}, {"type": "node", "id": 6666002889, "lat": 49.4547937, "lon": 13.8894318, "tags": {"information": "map", "tourism": "information"}}, {"type": "node", "id": 6670137561, "lat": 49.4461972, "lon": 13.8516609, "tags": {"information": "map", "map_size": "region", "map_type": "topo", "name": "Blatensko", "tourism": "information"}}, {"type": "node", "id": 6670138885, "lat": 49.4466942, "lon": 13.9428802, "tags": {"information": "board", "tourism": "information"}}, {"type": "node", "id": 6670138952, "lat": 49.4440762, "lon": 13.8805249, "tags": {"information": "map", "map_size": "region", "map_type": "topo", "name": "Blatensko", "tourism": "information"}}, {"type": "node", "id": 6688150611, "lat": 49.3872833, "lon": 13.98306, "tags": {"bicycle": "yes", "information": "guidepost", "tourism": "information"}}, {"type": "node", "id": 6688152908, "lat": 49.3762321, "lon": 13.9391928, "tags": {"information": "map", "tourism": "information"}}, {"type": "node", "id": 6688152909, "lat": 49.3763298, "lon": 13.9392029}, {"type": "node", "id": 6688152910, "lat": 49.3762835, "lon": 13.9392646}, {"type": "node", "id": 6688152911, "lat": 49.3762539, "lon": 13.9392123}, {"type": "node", "id": 6688152912, "lat": 49.3763002, "lon": 13.9391506}, {"type": "node", "id": 6688153510, "lat": 49.3802809, "lon": 13.9919914, "tags": {"information": "map", "tourism": "information"}}, {"type": "node", "id": 6691256722, "lat": 49.3523117, "lon": 13.8398451, "tags": {"information": "map", "map_size": "region", "map_type": "topo", "tourism": "information"}}, {"type": "node", "id": 6691256724, "lat": 49.3526506, "lon": 13.8397868, "tags": {"amenity": "shelter", "shelter_type": "picnic_shelter"}}, {"type": "node", "id": 6720242192, "lat": 49.3520959, "lon": 13.806563, "tags": {"amenity": "shelter"}}, {"type": "node", "id": 7922022876, "lat": 49.3769189, "lon": 13.9391665}, {"type": "node", "id": 7922022877, "lat": 49.3769186, "lon": 13.9391764}, {"type": "node", "id": 7922022878, "lat": 49.3769161, "lon": 13.9391854}, {"type": "node", "id": 7922022879, "lat": 49.3769116, "lon": 13.9391924}, {"type": "node", "id": 7922022880, "lat": 49.3769057, "lon": 13.9391964}, {"type": "node", "id": 7922022881, "lat": 49.3768993, "lon": 13.939197}, {"type": "node", "id": 7922022882, "lat": 49.3768933, "lon": 13.9391939}, {"type": "node", "id": 7922022883, "lat": 49.3768883, "lon": 13.9391877}, {"type": "node", "id": 7922022884, "lat": 49.3768852, "lon": 13.9391791}, {"type": "node", "id": 7922087385, "lat": 49.3768842, "lon": 13.9391694}, {"type": "node", "id": 7922087386, "lat": 49.3768856, "lon": 13.9391598}, {"type": "node", "id": 7922087387, "lat": 49.3768892, "lon": 13.9391516}, {"type": "node", "id": 7922087388, "lat": 49.3768945, "lon": 13.939146}, {"type": "node", "id": 7922087389, "lat": 49.3769007, "lon": 13.9391437}, {"type": "node", "id": 7922087390, "lat": 49.3769071, "lon": 13.939145}, {"type": "node", "id": 7922087391, "lat": 49.3769127, "lon": 13.9391497}, {"type": "node", "id": 7922087392, "lat": 49.3769168, "lon": 13.9391572}, {"type": "node", "id": 7967162902, "lat": 49.4465751, "lon": 13.877131, "tags": {"amenity": "shelter", "shelter_type": "picnic_shelter"}}, {"type": "node", "id": 7967162903, "lat": 49.4446301, "lon": 13.8781987, "tags": {"amenity": "shelter", "shelter_type": "picnic_shelter"}}, {"type": "node", "id": 7969984082, "lat": 49.4155223, "lon": 13.8169029, "tags": {"board_type": "nature", "information": "board", "name": "Hydrobilologick\u00e1 stanice Velk\u00fd P\u00e1lenec", "ref": "1", "tourism": "information"}}, {"type": "node", "id": 7970192879, "lat": 49.4032316, "lon": 13.8080543, "tags": {"board_type": "history", "information": "board", "name": "Vrbno", "ref": "4", "tourism": "information"}}, {"type": "node", "id": 9038427457, "lat": 49.4309635, "lon": 13.8736181, "tags": {"description": "Vint\u00ed\u0159ova stezka", "information": "map", "name": "Sakr\u00e1ln\u00ed pam\u00e1tky v Blatn\u00e9", "tourism": "information"}}, {"type": "node", "id": 9038469050, "lat": 49.4261471, "lon": 13.8822134, "tags": {"information": "board", "tourism": "information"}}, {"type": "node", "id": 9373428028, "lat": 49.4357098, "lon": 13.8092778, "tags": {"amenity": "shelter", "shelter_type": "picnic_shelter"}}, {"type": "node", "id": 9548353576, "lat": 49.3526101, "lon": 13.8135953, "tags": {"ele": "549", "name": "M\u00ed\u0161n\u00e1 hora", "natural": "peak", "source": "\u010c\u00daZK"}}, {"type": "node", "id": 9642450072, "lat": 49.5516427, "lon": 13.8235838, "tags": {"description": "NS Petr\u00e1\u010dkova hora", "information": "board", "name": "Pr\u016fzkumn\u00e9 vrty na Petr\u00e1\u010dkov\u011b ho\u0159e", "ref": "4", "tourism": "information"}}, {"type": "node", "id": 9642450073, "lat": 49.5491879, "lon": 13.8213703, "tags": {"board_type": "nature", "description": "NS Petr\u00e1\u010dkova hora", "information": "board", "name": "Vrchol Petr\u00e1\u010dkovy hory", "ref": "3", "tourism": "information"}}, {"type": "node", "id": 9642465185, "lat": 49.5451323, "lon": 13.8136597, "tags": {"board_type": "nature", "description": "NS Petr\u00e1\u010dkova hora", "information": "board", "name": "Z\u00e1vi\u0161\u00ednsk\u00fd potok", "ref": "7", "tourism": "information"}}, {"type": "node", "id": 9642465186, "lat": 49.5477783, "lon": 13.81536, "tags": {"board_type": "nature", "description": "NS Petr\u00e1\u010dkova hora", "information": "board", "name": "Star\u00e1 \u0161achta", "ref": "6", "tourism": "information"}}, {"type": "node", "id": 9642470839, "lat": 49.5442829, "lon": 13.8372338, "tags": {"board_type": "history", "description": "NS Petr\u00e1\u010dkova hora", "information": "board", "name": "Vac\u00edkov - n\u00e1ves", "ref": "1", "tourism": "information"}}, {"type": "node", "id": 9642478262, "lat": 49.5474161, "lon": 13.8288582, "tags": {"board_type": "nature", "description": "NS Petr\u00e1\u010dkova hora", "information": "board", "name": "Dob\u00fdvac\u00ed prostor", "ref": "2", "tourism": "information"}}, {"type": "node", "id": 9820889989, "lat": 49.5479818, "lon": 13.8316805, "tags": {"board_type": "history", "information": "board", "name": "Barto\u0148\u016fv k\u0159\u00ed\u017e", "tourism": "information"}}, {"type": "node", "id": 9820889990, "lat": 49.5492242, "lon": 13.8327113, "tags": {"amenity": "shelter", "shelter_type": "picnic_shelter"}}, {"type": "node", "id": 9820890004, "lat": 49.5491825, "lon": 13.8216391, "tags": {"ele": "651", "name": "Petr\u00e1\u010dkova hora", "natural": "peak"}}, {"type": "node", "id": 9844737440, "lat": 49.4072657, "lon": 13.8138909, "tags": {"board_type": "information", "information": "board", "name": "Oboj\u017eiveln\u00edci, vodn\u00ed ptactvo", "ref": "3", "tourism": "information"}}, {"type": "node", "id": 9844737441, "lat": 49.4083923, "lon": 13.8175106, "tags": {"board_type": "nature", "information": "board", "name": "Les", "ref": "2", "tourism": "information"}}, {"type": "node", "id": 9844737442, "lat": 49.4159912, "lon": 13.8396348, "tags": {"amenity": "shelter", "shelter_type": "picnic_shelter"}}, {"type": "node", "id": 9844737471, "lat": 49.37707, "lon": 13.9394953, "tags": {"amenity": "shelter", "shelter_type": "picnic_shelter"}}, {"type": "node", "id": 9844861494, "lat": 49.3522634, "lon": 13.8608855, "tags": {"amenity": "shelter", "shelter_type": "picnic_shelter"}}, {"type": "node", "id": 9917047779, "lat": 49.5280692, "lon": 13.8049854, "tags": {"information": "board", "tourism": "information"}}, {"type": "node", "id": 9917047780, "lat": 49.5280492, "lon": 13.8050042, "tags": {"information": "board", "tourism": "information"}}, {"type": "node", "id": 9990682929, "lat": 49.5440606, "lon": 13.8374508, "tags": {"information": "board", "name": "P\u0159\u00edrodn\u00ed park T\u0159em\u0161\u00edn", "tourism": "information"}}, {"type": "node", "id": 10732750130, "lat": 49.5028575, "lon": 13.87513, "tags": {"information": "map", "name": "Strakonicko", "tourism": "information"}}, {"type": "node", "id": 10732759094, "lat": 49.4309156, "lon": 13.8735603, "tags": {"information": "map", "name": "Blatn\u00e1", "tourism": "information"}}, {"type": "node", "id": 10734508678, "lat": 49.3771397, "lon": 13.9395844, "tags": {"information": "map", "name": "Sedlice", "tourism": "information"}}, {"type": "node", "id": 10862624050, "lat": 49.4469503, "lon": 13.9795181, "tags": {"amenity": "shelter", "shelter_type": "picnic_shelter"}}, {"type": "node", "id": 11110363081, "lat": 49.5049507, "lon": 13.8674225, "tags": {"ele": "557", "name": "Slepi\u010d\u00ed hora", "natural": "peak"}}, {"type": "node", "id": 11110419320, "lat": 49.5048527, "lon": 13.8688211, "tags": {"board_type": "information", "information": "board", "name": "Orienta\u010dn\u00ed tabule nau\u010dn\u00e9 stezky B\u011bl\u010dice", "tourism": "information"}}, {"type": "node", "id": 11110419321, "lat": 49.5048709, "lon": 13.8687826, "tags": {"board_type": "nature", "information": "board", "name": "Douglaska tisolist\u00e1", "tourism": "information"}}, {"type": "node", "id": 11110419322, "lat": 49.5049315, "lon": 13.8670112, "tags": {"amenity": "shelter", "shelter_type": "picnic_shelter"}}, {"type": "node", "id": 11110419323, "lat": 49.5050463, "lon": 13.8671714, "tags": {"board_type": "nature", "information": "board", "name": "Savci", "tourism": "information"}}, {"type": "node", "id": 11110419324, "lat": 49.5050294, "lon": 13.8670727, "tags": {"board_type": "nature", "information": "board", "name": "Pt\u00e1ci", "tourism": "information"}}, {"type": "node", "id": 11110419325, "lat": 49.5049889, "lon": 13.8672467, "tags": {"board_type": "nature", "information": "board", "name": "Javor ml\u00e9\u010d", "tourism": "information"}}, {"type": "node", "id": 11110419326, "lat": 49.5049763, "lon": 13.8671662, "tags": {"board_type": "nature", "information": "board", "name": "Hmyz", "tourism": "information"}}, {"type": "node", "id": 11110419327, "lat": 49.5049619, "lon": 13.8671285, "tags": {"board_type": "nature", "information": "board", "name": "Rostliny", "tourism": "information"}}, {"type": "node", "id": 11110419328, "lat": 49.5049206, "lon": 13.866974, "tags": {"information": "map", "name": "Orienta\u010dn\u00ed mapa", "tourism": "information"}}, {"type": "node", "id": 11110419329, "lat": 49.5058249, "lon": 13.8647067, "tags": {"board_type": "nature", "information": "board", "name": "B\u0159\u00edza b\u011blokor\u00e1", "tourism": "information"}}, {"type": "node", "id": 11110419331, "lat": 49.5057579, "lon": 13.8642163, "tags": {"board_type": "nature", "information": "board", "name": "Mod\u0159\u00edn opadav\u00fd", "tourism": "information"}}, {"type": "node", "id": 11110419332, "lat": 49.5061145, "lon": 13.8637508, "tags": {"board_type": "nature", "information": "board", "name": "Borovice lesn\u00ed", "tourism": "information"}}, {"type": "node", "id": 11110419333, "lat": 49.5062036, "lon": 13.863803, "tags": {"board_type": "nature", "information": "board", "name": "Smrk ztepil\u00fd", "tourism": "information"}}, {"type": "node", "id": 11110419334, "lat": 49.5052909, "lon": 13.8633807, "tags": {"board_type": "nature", "information": "board", "name": "Ryby", "tourism": "information"}}, {"type": "node", "id": 11110419335, "lat": 49.5052502, "lon": 13.8633793, "tags": {"amenity": "shelter", "shelter_type": "picnic_shelter"}}, {"type": "node", "id": 11110419336, "lat": 49.5052533, "lon": 13.8632888, "tags": {"board_type": "nature", "information": "board", "name": "Oboj\u017eiveln\u00edci", "tourism": "information"}}, {"type": "node", "id": 11110419337, "lat": 49.5068028, "lon": 13.8644384, "tags": {"board_type": "information", "information": "board", "name": "Stud\u00e1nka Vojt\u011b\u0161ka", "tourism": "information"}}, {"type": "node", "id": 11110419340, "lat": 49.5071334, "lon": 13.8664192, "tags": {"board_type": "nature", "information": "board", "name": "Habr obecn\u00fd", "tourism": "information"}}, {"type": "node", "id": 11110419341, "lat": 49.5066712, "lon": 13.8672557, "tags": {"amenity": "shelter", "shelter_type": "picnic_shelter"}}, {"type": "node", "id": 11110419342, "lat": 49.5066071, "lon": 13.8671557, "tags": {"board_type": "nature", "information": "board", "name": "Dub letn\u00ed", "tourism": "information"}}, {"type": "node", "id": 11110419343, "lat": 49.5062385, "lon": 13.8675441, "tags": {"board_type": "nature", "information": "board", "name": "L\u00edpa malolist\u00e1", "tourism": "information"}}, {"type": "node", "id": 11230919923, "lat": 49.3731833, "lon": 13.9370475}, {"type": "node", "id": 11230919924, "lat": 49.3731641, "lon": 13.93705}, {"type": "node", "id": 11230919925, "lat": 49.373162, "lon": 13.9370107}, {"type": "node", "id": 11230919926, "lat": 49.3731811, "lon": 13.9370082}, {"type": "node", "id": 11236779776, "lat": 49.4930304, "lon": 13.938059, "tags": {"hiking": "yes", "information": "guidepost", "name": "Uzeni\u010dky (rozc.)", "operator": "cz:K\u010cT", "ref": "ST199", "tourism": "information"}}, {"type": "node", "id": 11236779777, "lat": 49.4896873, "lon": 13.9490827, "tags": {"bicycle": "yes", "information": "guidepost", "operator": "cz:K\u010cT", "tourism": "information"}}, {"type": "node", "id": 11236779778, "lat": 49.4892453, "lon": 13.9508795, "tags": {"amenity": "shelter", "shelter_type": "picnic_shelter"}}, {"type": "node", "id": 11236779780, "lat": 49.4733406, "lon": 13.9594348, "tags": {"amenity": "shelter", "shelter_type": "picnic_shelter"}}, {"type": "node", "id": 11236849154, "lat": 49.4633471, "lon": 13.9640308, "tags": {"board_type": "nature", "information": "board", "name": "Fauna My\u0161tic: pt\u00e1ci okol\u00ed vod", "tourism": "information"}}, {"type": "node", "id": 11506400382, "lat": 49.4015381, "lon": 13.8569725, "tags": {"ele": "475", "hiking": "yes", "information": "guidepost", "name": "Blatenka", "operator": "cz:K\u010cT", "tourism": "information"}}, {"type": "node", "id": 11636085969, "lat": 49.5043144, "lon": 13.8860366}, {"type": "node", "id": 11636085970, "lat": 49.5042633, "lon": 13.8859914}, {"type": "node", "id": 11636085971, "lat": 49.5042779, "lon": 13.8859522}, {"type": "node", "id": 11636085972, "lat": 49.504329, "lon": 13.8859974}, {"type": "node", "id": 12142998823, "lat": 49.4224729, "lon": 13.8804946, "tags": {"information": "map", "name": "Z\u00e1meck\u00fd park Blatn\u00e1", "tourism": "information"}}, {"type": "node", "id": 12179648738, "lat": 49.5513103, "lon": 13.9425865, "tags": {"board_type": "history", "information": "board", "name": "Str\u00e1\u017e", "tourism": "information"}}, {"type": "node", "id": 12473822278, "lat": 49.4371165, "lon": 13.8800024, "tags": {"ele": "472", "name": "Vinice", "natural": "peak"}}, {"type": "node", "id": 12480449950, "lat": 49.5279359, "lon": 13.8478486, "tags": {"ele": "638", "name": "Str\u00e1\u017e", "natural": "peak"}}, {"type": "node", "id": 12509812166, "lat": 49.4346908, "lon": 13.8903557, "tags": {"amenity": "shelter", "shelter_type": "picnic_shelter"}}, {"type": "node", "id": 12509812168, "lat": 49.4371873, "lon": 13.8810406, "tags": {"amenity": "shelter", "shelter_type": "picnic_shelter"}}, {"type": "node", "id": 12509812169, "lat": 49.4371895, "lon": 13.8810025, "tags": {"board_type": "history", "information": "board", "name": "Kostel sv. Jana K\u0159titelev Pa\u0161tik\u00e1ch", "tourism": "information"}}, {"type": "node", "id": 12509812170, "lat": 49.4371502, "lon": 13.8808484, "tags": {"board_type": "nature", "information": "board", "name": "Rostliny", "tourism": "information"}}, {"type": "node", "id": 12509812174, "lat": 49.4369085, "lon": 13.8808658, "tags": {"board_type": "nature", "information": "board", "name": "Mod\u0159\u00edn opadav\u00fd", "tourism": "information"}}, {"type": "node", "id": 12509812181, "lat": 49.4368593, "lon": 13.8804555, "tags": {"board_type": "nature", "information": "board", "name": "Javor klen", "tourism": "information"}}, {"type": "node", "id": 12509812182, "lat": 49.4368409, "lon": 13.8803551, "tags": {"board_type": "nature", "information": "board", "name": "Borovice lesn\u00ed", "tourism": "information"}}, {"type": "node", "id": 12509812188, "lat": 49.4362668, "lon": 13.8804131, "tags": {"board_type": "nature", "information": "board", "name": "Nau\u010dn\u00e1 stezka Vinice", "tourism": "information"}}, {"type": "node", "id": 12509812189, "lat": 49.4370156, "lon": 13.8801541, "tags": {"amenity": "shelter", "shelter_type": "picnic_shelter"}}, {"type": "node", "id": 12509812190, "lat": 49.4370553, "lon": 13.8801592, "tags": {"board_type": "nature", "information": "board", "name": "Oto\u010dn\u00e9 kolo - d\u0159eviny", "tourism": "information"}}, {"type": "node", "id": 12509812191, "lat": 49.4370586, "lon": 13.8799402, "tags": {"board_type": "nature", "information": "board", "name": "Dub letn\u00ed", "tourism": "information"}}, {"type": "node", "id": 12509812192, "lat": 49.4368216, "lon": 13.8787852, "tags": {"board_type": "nature", "information": "board", "name": "Smrk ztepil\u00fd", "tourism": "information"}}, {"type": "node", "id": 12509812195, "lat": 49.4374161, "lon": 13.8793163, "tags": {"board_type": "nature", "information": "board", "name": "Blatensk\u00e1 horniny", "tourism": "information"}}, {"type": "node", "id": 13043738985, "lat": 49.4449673, "lon": 13.8757208}, {"type": "node", "id": 13043738986, "lat": 49.4449765, "lon": 13.8757387}, {"type": "node", "id": 13043738987, "lat": 49.4449567, "lon": 13.8757631}, {"type": "node", "id": 13043738988, "lat": 49.4449474, "lon": 13.8757453}, {"type": "node", "id": 13127958276, "lat": 49.5501496, "lon": 13.9108499, "tags": {"ele": "519", "name": "Za Hospodou", "natural": "peak"}}, {"type": "node", "id": 13127958283, "lat": 49.5466445, "lon": 13.9158207, "tags": {"ele": "511", "name": "Na Vr\u0161\u00edch", "natural": "peak"}}, {"type": "node", "id": 13127958300, "lat": 49.535647, "lon": 13.9217253, "tags": {"ele": "510", "name": "Na H\u016frce", "natural": "peak"}}, {"type": "node", "id": 13127965005, "lat": 49.5219565, "lon": 13.9213255, "tags": {"name": "Na Kop\u00e1ch", "natural": "peak"}}, {"type": "node", "id": 13127965025, "lat": 49.5158749, "lon": 13.9279116, "tags": {"ele": "574", "name": "Lipovce", "natural": "peak"}}, {"type": "node", "id": 13127965036, "lat": 49.5048136, "lon": 13.9266131, "tags": {"ele": "541", "name": "Slavkovice", "natural": "peak"}}, {"type": "node", "id": 13127965039, "lat": 49.5101873, "lon": 13.9553785, "tags": {"ele": "615", "name": "Drahenick\u00fd vrch", "natural": "peak"}}, {"type": "node", "id": 13127965047, "lat": 49.5172336, "lon": 13.9707199, "tags": {"ele": "516", "name": "Vrch svobody", "natural": "peak"}}, {"type": "node", "id": 13127965048, "lat": 49.5186769, "lon": 13.9601105, "tags": {"bicycle": "yes", "information": "guidepost", "tourism": "information"}}, {"type": "node", "id": 13127965049, "lat": 49.5186956, "lon": 13.9604877, "tags": {"bicycle": "yes", "information": "guidepost", "tourism": "information"}}, {"type": "node", "id": 13127965050, "lat": 49.5189018, "lon": 13.9600101, "tags": {"bicycle": "yes", "information": "guidepost", "tourism": "information"}}, {"type": "way", "id": 228033285, "nodes": [2366786178, 2366786186, 2366786183, 2366786175, 2366786178], "tags": {"amenity": "shelter", "building": "yes", "ref:ruian": "49090348", "shelter_type": "public_transport", "source": "ruian"}}, {"type": "way", "id": 228033369, "nodes": [2366786705, 2366786672, 2366786702, 2366786713, 2366786705], "tags": {"amenity": "shelter", "building": "yes", "ref:ruian": "44444974", "source": "ruian"}}, {"type": "way", "id": 711355481, "nodes": [6688152912, 6688152909, 6688152910, 6688152911, 6688152912], "tags": {"amenity": "shelter", "shelter_type": "weather_shelter"}}, {"type": "way", "id": 849099507, "nodes": [7922087392, 7922087391, 7922087390, 7922087389, 7922087388, 7922087387, 7922087386, 7922087385, 7922022884, 7922022883, 7922022882, 7922022881, 7922022880, 7922022879, 7922022878, 7922022877, 7922022876, 7922087392], "tags": {"amenity": "shelter", "shelter_type": "gazebo"}}, {"type": "way", "id": 1212219497, "nodes": [11230919926, 11230919925, 11230919924, 11230919923, 11230919926], "tags": {"amenity": "shelter", "shelter_type": "picnic_shelter"}}, {"type": "way", "id": 1251829491, "nodes": [11636085969, 11636085970, 11636085971, 11636085972, 11636085969], "tags": {"amenity": "shelter", "bench": "yes", "bin": "yes", "building": "yes", "lit": "yes", "shelter_type": "public_transport"}}, {"type": "way", "id": 1419472553, "nodes": [13043738985, 13043738986, 13043738987, 13043738988, 13043738985], "tags": {"amenity": "shelter", "bench": "yes", "bin": "yes", "shelter_type": "public_transport"}}]}