{"version": 0.6, "generator": "Overpass API 0.7.62.8 e802775f", "osm3s": {"timestamp_osm_base": "2026-01-05T15:17:44Z", "copyright": "The data included in this document is from www.openstreetmap.org. The data is made available under ODbL."}, "elements": [{"type": "node", "id": 267272087, "lat": 49.7426235, "lon": 12.4099095, "tags": {"ele": "894", "name": "Havran", "name:cs": "Havran", "name:de": "Gro\u00dfer Rabenberg", "natural": "peak", "wikidata": "Q282632"}}, {"type": "node", "id": 285104205, "lat": 49.6259854, "lon": 12.5729911}, {"type": "node", "id": 285104210, "lat": 49.6244417, "lon": 12.5716452}, {"type": "node", "id": 285104212, "lat": 49.6255791, "lon": 12.5726514}, {"type": "node", "id": 293580158, "lat": 49.6244139, "lon": 12.5717384}, {"type": "node", "id": 444856775, "lat": 49.6254656, "lon": 12.5757272}, {"type": "node", "id": 444856776, "lat": 49.6246532, "lon": 12.5750532}, {"type": "node", "id": 444856777, "lat": 49.6244064, "lon": 12.5743303}, {"type": "node", "id": 444870988, "lat": 49.6244978, "lon": 12.5717264, "tags": {"description": "B\u00fdval\u00e1 rota pohrani\u010dn\u00ed str\u00e1\u017ee", "ele": "498", "hiking": "yes", "information": "guidepost", "name": "Rybni\u010dn\u00e1", "operator": "cz:K\u010cT", "ref": "TC072", "tourism": "information"}}, {"type": "node", "id": 444871021, "lat": 49.6523636, "lon": 12.5521015, "tags": {"ele": "525", "hiking": "yes", "information": "guidepost", "name": "Smr\u010dina", "operator": "cz:K\u010cT", "ref": "0248/46;TC071", "tourism": "information"}}, {"type": "node", "id": 444871127, "lat": 49.6702984, "lon": 12.5546458, "tags": {"description": "Prvn\u00ed zpr\u00e1vy z\u00a0roku 1580, celn\u00ed \u00fa\u0159ad od roku 1613. Skl\u00e1rna ze 16. a 17. stolet\u00ed. Kostel svat\u00e9ho V\u00e1clava dokon\u010den roku 1816.", "ele": "555", "hiking": "yes", "information": "guidepost", "name": "Rozvadov", "old_ref": "0248/43;1450/0", "operator": "cz:K\u010cT", "ref": "TC070", "tourism": "information"}}, {"type": "node", "id": 444871139, "lat": 49.6703973, "lon": 12.5648544, "tags": {"information": "board", "tourism": "information"}}, {"type": "node", "id": 639219875, "lat": 49.6739582, "lon": 12.4389099, "tags": {"ele": "784", "name": "Mitterberg", "natural": "peak", "wikidata": "Q31530563"}}, {"type": "node", "id": 639219876, "lat": 49.6769472, "lon": 12.4476039, "tags": {"ele": "760", "name": "Wolfswinkelberg", "natural": "peak", "wikidata": "Q30504177"}}, {"type": "node", "id": 639219877, "lat": 49.680492, "lon": 12.4384087, "tags": {"ele": "755", "name": "Hochberg", "natural": "peak"}}, {"type": "node", "id": 687067670, "lat": 49.7268282, "lon": 12.4006609, "tags": {"hiking": "yes", "information": "guidepost", "survey:date": "2025-08-15", "tourism": "information"}}, {"type": "node", "id": 878869631, "lat": 49.6492546, "lon": 12.4975529, "tags": {"name": "Aussichtsterasse", "tourism": "viewpoint"}}, {"type": "node", "id": 946082224, "lat": 49.6027452, "lon": 12.5764891, "tags": {"ele": "500", "hiking": "yes", "information": "guidepost", "name": "V luhu", "operator": "cz:K\u010cT", "ref": "TC073;0248/52", "source": "survey", "tourism": "information"}}, {"type": "node", "id": 946082369, "lat": 49.6600777, "lon": 12.535099, "tags": {"ele": "535", "hiking": "yes", "information": "guidepost", "name": "U star\u00e9 celnice", "operator": "cz:K\u010cT", "ref": "TC008", "tourism": "information"}}, {"type": "node", "id": 946082560, "lat": 49.5845942, "lon": 12.5805395, "tags": {"description": "Prvn\u00ed zm\u00ednka z\u00a0roku 1591. V\u00a0roce 1930 174 dom\u016f a 1138 obyvatel. Z\u00e1mek st\u00e1val u rybn\u00edka.", "ele": "509", "hiking": "yes", "information": "guidepost", "name": "\u017delezn\u00e1 (rozcest\u00ed)", "official_name": "\u017delezn\u00e1 (rozc.)", "operator": "cz:K\u010cT", "ref": "DO045", "source": "survey", "tourism": "information"}}, {"type": "node", "id": 946083356, "lat": 49.5858683, "lon": 12.5875733, "tags": {"ele": "524", "hiking": "yes", "information": "guidepost", "name": "\u017delezn\u00e1", "operator": "cz:K\u010cT", "ref": "DO046", "tourism": "information"}}, {"type": "node", "id": 977348175, "lat": 49.5748478, "lon": 12.4980913, "tags": {"amenity": "shelter", "bench": "yes", "shelter_type": "weather_shelter"}}, {"type": "node", "id": 1085718896, "lat": 49.6690387, "lon": 12.43113, "tags": {"ele": "725", "name": "Gro\u00dfer Stein", "natural": "peak"}}, {"type": "node", "id": 1085744178, "lat": 49.6647731, "lon": 12.4842952, "tags": {"ele": "755", "name": "Pleysteiner Sulzberg", "natural": "peak", "wikidata": "Q31527846"}}, {"type": "node", "id": 1111958036, "lat": 49.6172688, "lon": 12.4742246, "tags": {"ele": "591", "name": "Ulrichsberg", "natural": "peak"}}, {"type": "node", "id": 1247415856, "lat": 49.6667252, "lon": 12.5993117, "tags": {"ele": "520", "hiking": "yes", "information": "guidepost", "name": "Kate\u0159ina", "ref": "TC146", "tourism": "information"}}, {"type": "node", "id": 1261876816, "lat": 49.7475023, "lon": 12.4371719, "tags": {"access": "yes", "amenity": "shelter", "fee": "no", "lit": "no", "shelter_type": "picnic_shelter"}}, {"type": "node", "id": 1261877238, "lat": 49.7327485, "lon": 12.4363321, "tags": {"amenity": "shelter", "backrest": "yes", "bench": "yes", "covered": "yes", "lit": "no", "shelter_type": "gazebo"}}, {"type": "node", "id": 1372619697, "lat": 49.7130078, "lon": 12.4350088, "tags": {"information": "board", "name": "Sch\u00fcsselsteine in Neudorf", "tourism": "information"}}, {"type": "node", "id": 1372619724, "lat": 49.7179516, "lon": 12.4329397, "tags": {"name": "Kleiner Sch\u00fcsselstein", "name:cs": "Mal\u00fd \u010dert\u016fv k\u00e1men", "natural": "stone", "tourism": "attraction"}}, {"type": "node", "id": 1372619728, "lat": 49.7117251, "lon": 12.435688, "tags": {"name": "Gro\u00dfer Sch\u00fcsselstein", "name:cs": "Ob\u0159\u00ed menhir", "natural": "stone", "tourism": "attraction"}}, {"type": "node", "id": 1372619749, "lat": 49.712427, "lon": 12.4352044, "tags": {"board_type": "warning", "boundary": "marker", "information": "board", "inscription": "POZOR St\u00e1tn\u00ed hranice", "marker": "stone", "ref": "18/9 C", "tourism": "information"}}, {"type": "node", "id": 1372619751, "lat": 49.7161011, "lon": 12.432796, "tags": {"name": "Mittlerer Sch\u00fcsselstein", "name:cs": "St\u0159edn\u00ed menhir", "natural": "stone", "tourism": "attraction"}}, {"type": "node", "id": 1372745906, "lat": 49.7460191, "lon": 12.4122087, "tags": {"ele": "832", "hiking": "yes", "information": "guidepost", "name": "Pod Havranem", "operator": "cz:K\u010cT", "ref": "TC542", "tourism": "information"}}, {"type": "node", "id": 1372833069, "lat": 49.7411292, "lon": 12.4020981, "tags": {"information": "guidepost", "tourism": "information"}}, {"type": "node", "id": 1372833073, "lat": 49.7190868, "lon": 12.421233, "tags": {"information": "guidepost", "tourism": "information"}}, {"type": "node", "id": 1372833102, "lat": 49.7188127, "lon": 12.4244532, "tags": {"information": "guidepost", "tourism": "information"}}, {"type": "node", "id": 1372833123, "lat": 49.7241523, "lon": 12.4156369, "tags": {"information": "guidepost", "tourism": "information"}}, {"type": "node", "id": 1372833153, "lat": 49.746034, "lon": 12.412182, "tags": {"board_type": "nature", "check_date": "2025-10-06", "information": "board", "name": "P\u0159\u00edrodn\u00ed rezervace K\u0159\u00ed\u017eov\u00fd k\u00e1men", "tourism": "information"}}, {"type": "node", "id": 1372833155, "lat": 49.7405916, "lon": 12.4020038, "tags": {"information": "guidepost", "tourism": "information"}}, {"type": "node", "id": 1372833200, "lat": 49.7092769, "lon": 12.4302271, "tags": {"information": "guidepost", "tourism": "information"}}, {"type": "node", "id": 1372897696, "lat": 49.7190628, "lon": 12.4215459, "tags": {"board_type": "nature", "information": "board", "name": "Heimische Pilze", "tourism": "information"}}, {"type": "node", "id": 1372897703, "lat": 49.7093081, "lon": 12.4303235, "tags": {"information": "map", "tourism": "information"}}, {"type": "node", "id": 1372897760, "lat": 49.718948, "lon": 12.4213817, "tags": {"board_type": "nature", "information": "board", "name": "Vitrine: Heimische Tiere", "tourism": "information"}}, {"type": "node", "id": 1372897785, "lat": 49.7190234, "lon": 12.4215062, "tags": {"board_type": "nature", "information": "board", "name": "Heimische V\u00f6gel", "tourism": "information"}}, {"type": "node", "id": 1372897787, "lat": 49.7187366, "lon": 12.4217958, "tags": {"name": "Hammerwerk", "tourism": "attraction"}}, {"type": "node", "id": 1372981176, "lat": 49.7430846, "lon": 12.4092061}, {"type": "node", "id": 1372981208, "lat": 49.7431742, "lon": 12.4091154}, {"type": "node", "id": 1372981243, "lat": 49.7041827, "lon": 12.440783, "tags": {"information": "guidepost", "tourism": "information"}}, {"type": "node", "id": 1372981279, "lat": 49.7431373, "lon": 12.4093307}, {"type": "node", "id": 1384176544, "lat": 49.7182786, "lon": 12.4219495, "tags": {"information": "map", "map_type": "topo", "tourism": "information"}}, {"type": "node", "id": 1384176546, "lat": 49.7182534, "lon": 12.4220835, "tags": {"bicycle": "yes", "hiking": "yes", "information": "guidepost", "tourism": "information"}}, {"type": "node", "id": 1393493683, "lat": 49.6842063, "lon": 12.4865601, "tags": {"ele": "746", "name": "Schneeberg", "natural": "peak", "wikidata": "Q31522301"}}, {"type": "node", "id": 1395772694, "lat": 49.6436692, "lon": 12.4287467, "tags": {"tourism": "viewpoint"}}, {"type": "node", "id": 1395772717, "lat": 49.6690096, "lon": 12.4310955, "tags": {"tourism": "viewpoint"}}, {"type": "node", "id": 1607043367, "lat": 49.7039763, "lon": 12.4192423, "tags": {"designation": "www.georgenberg.de", "name": "Rathaus Georgenberg", "tourism": "information"}}, {"type": "node", "id": 1653041022, "lat": 49.7474984, "lon": 12.4372133, "tags": {"ele": "690", "hiking": "yes", "information": "guidepost", "name": "B\u00fdval\u00fd Zlat\u00fd potok (rozcest\u00ed)", "operator": "cz:K\u010cT", "ref": "TC061", "tourism": "information"}}, {"type": "node", "id": 1653041024, "lat": 49.7499683, "lon": 12.4916987, "tags": {"ele": "727", "hiking": "yes", "information": "guidepost", "name": "Farsk\u00fd les", "operator": "cz:K\u010cT", "ref": "TC544", "tourism": "information"}}, {"type": "node", "id": 1653041033, "lat": 49.7454425, "lon": 12.444178, "tags": {"ele": "681", "hiking": "yes", "information": "guidepost", "name": "Pod Ml\u00fdnsk\u00fdm vrchem (rozcest\u00ed)", "official_name": "Pod Ml\u00fdnsk\u00fdm vrchem (rozc.)", "operator": "cz:K\u010cT", "ref": "TC548", "tourism": "information"}}, {"type": "node", "id": 2069658568, "lat": 49.7516961, "lon": 12.531869, "tags": {"ele": "671", "hiking": "yes", "information": "guidepost", "name": "Lesn\u00e1 h\u0159bitov", "operator": "cz:K\u010cT", "ref": "TC226", "tourism": "information"}}, {"type": "node", "id": 2069658569, "lat": 49.7369958, "lon": 12.535239, "tags": {"ele": "702", "hiking": "yes", "information": "guidepost", "name": "Pod peklem", "operator": "cz:K\u010cT", "ref": "TC104", "tourism": "information"}}, {"type": "node", "id": 2069658570, "lat": 49.7059008, "lon": 12.5033314, "tags": {"ele": "595", "hiking": "yes", "information": "guidepost", "name": "Nov\u00e1 hu\u0165", "operator": "cz:K\u010cT", "ref": "TC065", "tourism": "information"}}, {"type": "node", "id": 2069658572, "lat": 49.7259131, "lon": 12.5208843, "tags": {"ele": "713", "hiking": "yes", "information": "guidepost", "name": "Sch\u00f6nwaldsk\u00e1 Hu\u0165", "operator": "cz:K\u010cT", "ref": "TC112", "tourism": "information"}}, {"type": "node", "id": 2069658573, "lat": 49.7326742, "lon": 12.5259518, "tags": {"ele": "709", "hiking": "yes", "information": "guidepost", "name": "U Kapli\u010dky", "operator": "cz:K\u010cT", "ref": "TC227", "tourism": "information"}}, {"type": "node", "id": 2109424847, "lat": 49.7462512, "lon": 12.5145123, "tags": {"ele": "724", "hiking": "yes", "information": "guidepost", "name": "U Jedl\u00ed", "operator": "cz:K\u010cT", "ref": "TC114", "source": "survey", "tourism": "information"}}, {"type": "node", "id": 2109541848, "lat": 49.7363885, "lon": 12.5224501, "tags": {"ele": "715", "hiking": "yes", "information": "guidepost", "name": "Podkov\u00e1k", "operator": "cz:K\u010cT", "ref": "TC113", "source": "survey", "tourism": "information"}}, {"type": "node", "id": 2276678946, "lat": 49.7161962, "lon": 12.4267568, "tags": {"ele": "708", "name": "Troidelberg", "natural": "peak", "wikidata": "Q31517003"}}, {"type": "node", "id": 2276701081, "lat": 49.6700075, "lon": 12.4141643, "tags": {"ele": "684", "name": "Kleinhohenberg", "natural": "peak"}}, {"type": "node", "id": 2276701083, "lat": 49.6947967, "lon": 12.4141147, "tags": {"ele": "750", "name": "K\u00fchtr\u00e4nkberg", "natural": "peak"}}, {"type": "node", "id": 2276701188, "lat": 49.6942893, "lon": 12.4095788, "tags": {"ele": "753", "name": "Rehberg", "natural": "peak", "wikidata": "Q32251088"}}, {"type": "node", "id": 2276701193, "lat": 49.6881468, "lon": 12.4154307, "tags": {"ele": "710", "name": "Zenkenberg", "natural": "peak"}}, {"type": "node", "id": 2350019579, "lat": 49.5907725, "lon": 12.4097709, "tags": {"information": "office", "name": "G\u00e4ste Info", "tourism": "information"}}, {"type": "node", "id": 2359333009, "lat": 49.5841695, "lon": 12.5766024, "tags": {"ele": "518", "hiking": "yes", "information": "guidepost", "name": "\u017delezn\u00e1 (CZ/D)", "operator": "cz:K\u010cT", "ref": "DO097", "tourism": "information"}}, {"type": "node", "id": 2386070189, "lat": 49.7348511, "lon": 12.4548179, "tags": {"amenity": "shelter", "lit": "no", "shelter_type": "picnic_shelter"}}, {"type": "node", "id": 2429049995, "lat": 49.6645426, "lon": 12.5113122, "tags": {"ele": "619", "name": "Greifenstein", "natural": "peak"}}, {"type": "node", "id": 2429049997, "lat": 49.6823474, "lon": 12.4945678, "tags": {"ele": "730", "name": "Landerb\u00fchl", "natural": "peak"}}, {"type": "node", "id": 2429049998, "lat": 49.6787122, "lon": 12.5004592, "tags": {"ele": "677", "name": "Landerh\u00fcbel", "natural": "peak"}}, {"type": "node", "id": 2429050124, "lat": 49.667379, "lon": 12.5047558, "tags": {"ele": "640", "name": "Waidhauser Sulzberg", "natural": "peak"}}, {"type": "node", "id": 2483299237, "lat": 49.6437386, "lon": 12.4456897, "tags": {"amenity": "shelter"}}, {"type": "node", "id": 2505846815, "lat": 49.6645747, "lon": 12.5225093, "tags": {"ele": "553", "name": "Rippelberg", "natural": "peak"}}, {"type": "node", "id": 2512719494, "lat": 49.6735457, "lon": 12.5446065, "tags": {"name": "pozorovatelna Pohrani\u010dn\u00ed str\u00e1\u017ee", "tourism": "viewpoint"}}, {"type": "node", "id": 2713641617, "lat": 49.6221715, "lon": 12.4481651, "tags": {"ele": "553", "name": "Finsterberg", "natural": "peak"}}, {"type": "node", "id": 2713641618, "lat": 49.6184731, "lon": 12.4527399, "tags": {"ele": "571", "name": "Haunberg", "natural": "peak"}}, {"type": "node", "id": 2726655662, "lat": 49.6175744, "lon": 12.5134261, "tags": {"amenity": "shelter", "name": "Grenzh\u00fctte"}}, {"type": "node", "id": 2769109665, "lat": 49.588276, "lon": 12.4228274, "tags": {"amenity": "shelter", "fireplace": "yes", "shelter_type": "weather_shelter"}}, {"type": "node", "id": 2771983039, "lat": 49.5704644, "lon": 12.4507724, "tags": {"ele": "625", "name": "Schertlsberg", "natural": "peak"}}, {"type": "node", "id": 2771983043, "lat": 49.5970846, "lon": 12.4677294, "tags": {"ele": "524", "name": "Schwarzkopf", "natural": "peak"}}, {"type": "node", "id": 2771983047, "lat": 49.5997026, "lon": 12.4160039, "tags": {"ele": "511", "name": "Strehberg", "natural": "peak", "wikidata": "Q31303753"}}, {"type": "node", "id": 2771983050, "lat": 49.5876918, "lon": 12.4656378, "tags": {"ele": "552", "name": "Wiegenb\u00fchl", "natural": "peak"}}, {"type": "node", "id": 3036568034, "lat": 49.5520597, "lon": 12.4724215, "tags": {"ele": "687", "name": "Bromberg", "natural": "peak"}}, {"type": "node", "id": 3048511585, "lat": 49.5588645, "lon": 12.4692202, "tags": {"amenity": "shelter", "bench": "yes", "shelter_type": "weather_shelter"}}, {"type": "node", "id": 3060523491, "lat": 49.5782575, "lon": 12.545515, "tags": {"amenity": "shelter", "shelter_type": "picnic_shelter"}}, {"type": "node", "id": 3073041903, "lat": 49.6244043, "lon": 12.5726376}, {"type": "node", "id": 3073041905, "lat": 49.6244497, "lon": 12.5746329}, {"type": "node", "id": 3073041908, "lat": 49.6245376, "lon": 12.5749031}, {"type": "node", "id": 3073041916, "lat": 49.6255701, "lon": 12.5758383}, {"type": "node", "id": 3225538070, "lat": 49.5725853, "lon": 12.4200966, "tags": {"amenity": "shelter", "shelter_type": "public_transport"}}, {"type": "node", "id": 3225542787, "lat": 49.5913704, "lon": 12.4093315, "tags": {"hiking": "yes", "information": "guidepost", "tourism": "information"}}, {"type": "node", "id": 3283754218, "lat": 49.7294646, "lon": 12.4171038, "tags": {"ele": "783", "name": "Elisenberg", "natural": "peak"}}, {"type": "node", "id": 3283754246, "lat": 49.7432704, "lon": 12.4088948}, {"type": "node", "id": 3440488473, "lat": 49.5770259, "lon": 12.5088874}, {"type": "node", "id": 3440488474, "lat": 49.577034, "lon": 12.5088284}, {"type": "node", "id": 3440488475, "lat": 49.5770472, "lon": 12.5089379}, {"type": "node", "id": 3440488476, "lat": 49.5770667, "lon": 12.5087955}, {"type": "node", "id": 3440488477, "lat": 49.5770854, "lon": 12.5089504}, {"type": "node", "id": 3440488478, "lat": 49.577105, "lon": 12.508808}, {"type": "node", "id": 3440488479, "lat": 49.5771182, "lon": 12.5089175}, {"type": "node", "id": 3440488480, "lat": 49.5771263, "lon": 12.5088586}, {"type": "node", "id": 3447445505, "lat": 49.6212632, "lon": 12.4839542, "tags": {"amenity": "bench", "backrest": "yes", "name": "Bachacker-Blick Nordwest (H.S.)", "tourism": "viewpoint"}}, {"type": "node", "id": 3447463601, "lat": 49.6184236, "lon": 12.4825812, "tags": {"name": "Pfreimdttalblick H.S.", "tourism": "viewpoint"}}, {"type": "node", "id": 3447466825, "lat": 49.6176312, "lon": 12.4873234, "tags": {"name": "Zur sch\u00f6nen Aussicht", "tourism": "viewpoint"}}, {"type": "node", "id": 3460103274, "lat": 49.7026998, "lon": 12.4457508, "tags": {"board_type": "warning", "information": "board", "inscription": "POZOR St\u00e1tn\u00ed hranice", "tourism": "information"}}, {"type": "node", "id": 3511329168, "lat": 49.7430868, "lon": 12.4089685, "tags": {"description": "Nejvy\u0161\u0161\u00ed vrchol Tachovska. B\u00fdval\u00e1 vojensk\u00e1 hl\u00e1ska.", "ele": "894", "hiking": "yes", "information": "guidepost", "name": "Havran rozhledna", "operator": "cz:K\u010cT", "ref": "TC545", "tourism": "information"}}, {"type": "node", "id": 3514578329, "lat": 49.7213521, "lon": 12.4493284, "tags": {"ele": "650", "hiking": "yes", "information": "guidepost", "name": "B\u00fdval\u00e1 Stoupa", "operator": "cz:K\u010cT", "ref": "TC062", "tourism": "information"}}, {"type": "node", "id": 3514578331, "lat": 49.7166619, "lon": 12.4603836, "tags": {"ele": "662", "hiking": "yes", "information": "guidepost", "name": "Pod \u010cerven\u00fdm vrchem", "operator": "cz:K\u010cT", "ref": "TC063", "tourism": "information"}}, {"type": "node", "id": 3514578332, "lat": 49.7036172, "lon": 12.4433306, "tags": {"description": "Obec se skl\u00e1dala z P\u0159edn\u00edho a Zadn\u00edho Zah\u00e1j\u00ed. Nedaleko st\u00e1val z\u00e1mek Waldheim.", "ele": "610", "hiking": "yes", "information": "guidepost", "name": "P\u0159edn\u00ed Zah\u00e1j\u00ed (CZ/D)", "operator": "cz:K\u010cT", "ref": "TC535", "tourism": "information"}}, {"type": "node", "id": 3514578333, "lat": 49.7042236, "lon": 12.4506151, "tags": {"description": "Vstup do sklepn\u00edch prostor na vlastn\u00ed nebezpe\u010d\u00ed", "ele": "660", "hiking": "yes", "information": "guidepost", "name": "Star\u00fd z\u00e1mek (z\u0159\u00edcenina)", "official_name": "Star\u00fd z\u00e1mek (z\u0159\u00edc.)", "operator": "cz:K\u010cT", "ref": "TC098", "tourism": "information"}}, {"type": "node", "id": 3514578334, "lat": 49.7326244, "lon": 12.4361906, "tags": {"ele": "702", "hiking": "yes", "information": "guidepost", "name": "U alt\u00e1nku", "operator": "cz:K\u010cT", "ref": "TC039", "tourism": "information"}}, {"type": "node", "id": 3514578335, "lat": 49.7067278, "lon": 12.4536255, "tags": {"bicycle": "yes", "ele": "648", "hiking": "yes", "information": "guidepost", "name": "Zadn\u00ed Zah\u00e1j\u00ed", "operator": "cz:K\u010cT", "ref": "TC097", "tourism": "information"}}, {"type": "node", "id": 3514578359, "lat": 49.7039558, "lon": 12.4438301, "tags": {"bicycle": "yes", "information": "guidepost", "tourism": "information"}}, {"type": "node", "id": 3514578381, "lat": 49.7165547, "lon": 12.4603824, "tags": {"bicycle": "yes", "information": "guidepost", "name": "Pod \u010cerven\u00fdm vrchem", "operator": "cz:K\u010cT", "ref": "none", "tourism": "information"}}, {"type": "node", "id": 3514578829, "lat": 49.7385383, "lon": 12.4155501, "tags": {"amenity": "shelter", "bench": "yes", "check_date": "2025-07-20", "lit": "no", "shelter_type": "weather_shelter"}}, {"type": "node", "id": 3517016254, "lat": 49.6894813, "lon": 12.5210279, "tags": {"description": "Na hrani\u010dn\u00edm potoce zanikl\u00fd Arno\u0161tin Hamr.", "ele": "535", "hiking": "yes", "information": "guidepost", "name": "Arno\u0161tin Hamr", "operator": "cz:K\u010cT", "ref": "TC068", "tourism": "information"}}, {"type": "node", "id": 3517016255, "lat": 49.6945425, "lon": 12.5128482, "tags": {"description": "B\u00fdval\u00e1 obec na hrani\u010dn\u00edm potoce. Zachoval\u00fd pomn\u00edk ob\u011btem z 1. sv\u011bt. v\u00e1lky.", "ele": "550", "hiking": "yes", "information": "guidepost", "name": "Hrani\u010dky", "operator": "cz:K\u010cT", "ref": "TC067", "tourism": "information"}}, {"type": "node", "id": 3517016256, "lat": 49.6894398, "lon": 12.5210601, "tags": {"board_type": "history", "description": "Arno\u0161tin Hamr", "information": "board", "name": "P\u0159\u00edhrani\u010dn\u00ed stezka 10", "ref": "10", "tourism": "information"}}, {"type": "node", "id": 3517016257, "lat": 49.7216335, "lon": 12.4690579, "tags": {"ele": "690", "hiking": "yes", "information": "guidepost", "name": "Star\u00e1 Kn\u00ed\u017eec\u00ed Hu\u0165", "operator": "cz:K\u010cT", "ref": "TC064", "tourism": "information"}}, {"type": "node", "id": 3517017201, "lat": 49.5845407, "lon": 12.5807117, "tags": {"bicycle": "yes", "information": "guidepost", "note": "36;37;2230", "tourism": "information"}}, {"type": "node", "id": 3517017380, "lat": 49.7346979, "lon": 12.4963255, "tags": {"bicycle": "yes", "information": "guidepost", "name": "Jedlina (rozc.)", "operator": "cz:K\u010cT", "tourism": "information"}}, {"type": "node", "id": 3835394906, "lat": 49.6964141, "lon": 12.5991808}, {"type": "node", "id": 3835394910, "lat": 49.6964226, "lon": 12.5992519}, {"type": "node", "id": 3835394984, "lat": 49.6963859, "lon": 12.5991892}, {"type": "node", "id": 3835394985, "lat": 49.6963941, "lon": 12.5992601}, {"type": "node", "id": 3844145880, "lat": 49.6770833, "lon": 12.5843508}, {"type": "node", "id": 3844145881, "lat": 49.6770887, "lon": 12.5844}, {"type": "node", "id": 3844145882, "lat": 49.6771077, "lon": 12.5843452}, {"type": "node", "id": 3844145883, "lat": 49.6771125, "lon": 12.5843934}, {"type": "node", "id": 4063529271, "lat": 49.6314107, "lon": 12.5947076, "tags": {"ele": "530", "hiking": "yes", "information": "guidepost", "name": "Diana", "operator": "cz:K\u010cT", "ref": "TC690", "tourism": "information"}}, {"type": "node", "id": 4160099197, "lat": 49.621778, "lon": 12.4833628, "tags": {"backrest": "yes", "name": "Bachacker-Blick Ost (H.S.)", "tourism": "viewpoint"}}, {"type": "node", "id": 4160134500, "lat": 49.6155469, "lon": 12.486393, "tags": {"name": "Dorfacker-Blick nach Osten", "tourism": "viewpoint"}}, {"type": "node", "id": 4205656205, "lat": 49.6399945, "lon": 12.4963231}, {"type": "node", "id": 4205656206, "lat": 49.6399993, "lon": 12.4962835}, {"type": "node", "id": 4205656207, "lat": 49.6400565, "lon": 12.496341}, {"type": "node", "id": 4205656208, "lat": 49.6400613, "lon": 12.4963014}, {"type": "node", "id": 4254978575, "lat": 49.7462525, "lon": 12.4122965, "tags": {"board_type": "plants", "information": "board", "tourism": "information"}}, {"type": "node", "id": 4254978576, "lat": 49.747454, "lon": 12.4057003, "tags": {"information": "guidepost", "tourism": "information"}}, {"type": "node", "id": 5068753287, "lat": 49.7059369, "lon": 12.4019821, "tags": {"amenity": "shelter"}}, {"type": "node", "id": 5068792219, "lat": 49.6801355, "lon": 12.4260922, "tags": {"amenity": "shelter", "name": "Alter Bunker"}}, {"type": "node", "id": 5088806935, "lat": 49.64248, "lon": 12.4958003, "tags": {"description": "Oberpf\u00e4lzer-Waldverein Waidhaus", "hiking": "yes", "information": "map", "map_size": "region", "map_type": "scheme", "tourism": "information"}}, {"type": "node", "id": 5347442052, "lat": 49.5666871, "lon": 12.5924939, "tags": {"ele": "544", "hiking": "yes", "information": "guidepost", "name": "Eisendorfsk\u00e1 hu\u0165", "operator": "cz:K\u010cT", "ref": "DO044", "tourism": "information"}}, {"type": "node", "id": 5356247163, "lat": 49.7348159, "lon": 12.4548805, "tags": {"ele": "675", "hiking": "yes", "information": "guidepost", "name": "Hu\u0165sk\u00fd rybn\u00edk", "operator": "cz:K\u010cT", "ref": "TC536", "tourism": "information"}}, {"type": "node", "id": 5356277846, "lat": 49.7079874, "lon": 12.4774389}, {"type": "node", "id": 5356459971, "lat": 49.7242989, "lon": 12.5431681, "tags": {"ele": "619", "hiking": "yes", "information": "guidepost", "name": "Vodn\u00ed sv\u011bt", "operator": "cz:K\u010cT", "ref": "TC111", "tourism": "information"}}, {"type": "node", "id": 5598558562, "lat": 49.7432269, "lon": 12.40924}, {"type": "node", "id": 5600930908, "lat": 49.7215626, "lon": 12.4716577, "tags": {"information": "board", "source": "survey", "tourism": "information"}}, {"type": "node", "id": 5600933537, "lat": 49.7047832, "lon": 12.4464003}, {"type": "node", "id": 5600933649, "lat": 49.7032406, "lon": 12.4428467, "tags": {"board_type": "history", "check_date": "2025-10-05", "information": "board", "name": "Waldheim", "source": "survey", "tourism": "information"}}, {"type": "node", "id": 5600933650, "lat": 49.703218, "lon": 12.4427985, "tags": {"check_date": "2025-10-05", "information": "map", "source": "survey", "tourism": "information"}}, {"type": "node", "id": 5743957423, "lat": 49.7380994, "lon": 12.4961236, "tags": {"board_type": "history", "information": "board", "name": "Zanikl\u00e1 m\u00edsta \u010cesk\u00e9ho lesa - Rendezvous", "name:en": "Desolate places of the Czech Forest - Rendevous", "tourism": "information"}}, {"type": "node", "id": 5743957424, "lat": 49.7381874, "lon": 12.4958315, "tags": {"access": "yes", "amenity": "shelter", "backcountry": "yes", "bench": "yes", "camp_site": "basic", "description": "P\u0159\u00edst\u0159e\u0161ek se sklepem k p\u0159enocov\u00e1n\u00ed.", "drinking_water": "no", "fireplace": "yes", "group_only": "no", "name": "Rendezvous", "scout": "no", "shelter": "lean_to", "shelter_type": "lean_to", "tourism": "camp_site"}}, {"type": "node", "id": 5970433549, "lat": 49.6597677, "lon": 12.5933707, "tags": {"amenity": "shelter", "shelter_type": "picnic_shelter"}}, {"type": "node", "id": 5970577457, "lat": 49.6677357, "lon": 12.5984949}, {"type": "node", "id": 5970577458, "lat": 49.6677309, "lon": 12.5985263}, {"type": "node", "id": 5970577459, "lat": 49.6677504, "lon": 12.5985334}, {"type": "node", "id": 5970577460, "lat": 49.6677551, "lon": 12.598502}, {"type": "node", "id": 5972594395, "lat": 49.676974, "lon": 12.5851717}, {"type": "node", "id": 5972594396, "lat": 49.6769984, "lon": 12.5851661}, {"type": "node", "id": 5972594397, "lat": 49.6770032, "lon": 12.5852143}, {"type": "node", "id": 5972594398, "lat": 49.6769794, "lon": 12.5852209}, {"type": "node", "id": 5978338361, "lat": 49.625644, "lon": 12.5752236}, {"type": "node", "id": 6687923518, "lat": 49.7192151, "lon": 12.4598876, "tags": {"ele": "695", "name": "\u010cerven\u00fd kopec", "natural": "peak"}}, {"type": "node", "id": 6687938517, "lat": 49.7307679, "lon": 12.4575578, "tags": {"check_date": "2025-08-30", "ele": "701.2", "name": "Hu\u0165sk\u00fd vrch", "natural": "peak", "summit:cross": "no"}}, {"type": "node", "id": 6850582009, "lat": 49.5878317, "lon": 12.4064602, "tags": {"hiking": "yes", "information": "guidepost", "tourism": "information"}}, {"type": "node", "id": 7129080588, "lat": 49.5759105, "lon": 12.5084261}, {"type": "node", "id": 7129080589, "lat": 49.5758901, "lon": 12.508453}, {"type": "node", "id": 7129080590, "lat": 49.5758609, "lon": 12.5083976}, {"type": "node", "id": 7129080591, "lat": 49.575865, "lon": 12.5084317}, {"type": "node", "id": 7129080592, "lat": 49.5759076, "lon": 12.5083812}, {"type": "node", "id": 7129080593, "lat": 49.5758814, "lon": 12.5083677}, {"type": "node", "id": 7326571191, "lat": 49.6447415, "lon": 12.5072823, "tags": {"ele": "532", "name": "Kreuzberg", "natural": "peak", "place": "locality"}}, {"type": "node", "id": 7326871632, "lat": 49.6473362, "lon": 12.5033016}, {"type": "node", "id": 7333700739, "lat": 49.6503263, "lon": 12.4921954, "tags": {"ele": "573", "name": "Pfefferb\u00fchl", "natural": "peak", "place": "locality", "source": "Bavaria (80 cm)"}}, {"type": "node", "id": 7353372980, "lat": 49.647999, "lon": 12.5092992, "tags": {"ele": "540", "name": "Lehenb\u00fchl", "natural": "peak", "place": "locality"}}, {"type": "node", "id": 7413338531, "lat": 49.6550641, "lon": 12.5253244, "tags": {"information": "board", "name": "\u010cESK\u00c1 REPUBLIKA", "tourism": "information"}}, {"type": "node", "id": 7469494295, "lat": 49.6796204, "lon": 12.5222177, "tags": {"board_type": "warning", "information": "board", "inscription": "POZOR St\u00e1tn\u00ed hranice", "name:de": "Achtung Staatsgrenze CZ", "name:en": "Border CZ - DE", "tourism": "information"}}, {"type": "node", "id": 7694723103, "lat": 49.7291625, "lon": 12.4084147, "tags": {"ele": "803", "name": "Hochried", "natural": "peak"}}, {"type": "node", "id": 7694798710, "lat": 49.7507172, "lon": 12.4013328, "tags": {"ele": "868", "natural": "peak"}}, {"type": "node", "id": 7694798713, "lat": 49.7389868, "lon": 12.4276828, "tags": {"ele": "784", "name": "Havr\u00e1nek", "natural": "peak"}}, {"type": "node", "id": 7694813591, "lat": 49.7194297, "lon": 12.4062252, "tags": {"ele": "754", "natural": "peak"}}, {"type": "node", "id": 7694813592, "lat": 49.7137275, "lon": 12.4016332, "tags": {"ele": "675", "name": "Latschenberg", "natural": "peak"}}, {"type": "node", "id": 7694813593, "lat": 49.7096482, "lon": 12.4150443, "tags": {"ele": "695", "name": "Schleiderberg", "natural": "peak"}}, {"type": "node", "id": 7695092055, "lat": 49.7499963, "lon": 12.5208091, "tags": {"ele": "703", "natural": "peak"}}, {"type": "node", "id": 7695092056, "lat": 49.7449494, "lon": 12.5850963, "tags": {"ele": "661", "natural": "peak"}}, {"type": "node", "id": 7695092060, "lat": 49.7516045, "lon": 12.5627803, "tags": {"ele": "744", "name": "Borek", "name:cs": "Borek", "natural": "peak"}}, {"type": "node", "id": 7695092068, "lat": 49.7137137, "lon": 12.5716209, "tags": {"ele": "608", "natural": "peak"}}, {"type": "node", "id": 7695092069, "lat": 49.7031123, "lon": 12.5642394, "tags": {"ele": "561", "natural": "peak"}}, {"type": "node", "id": 7695092070, "lat": 49.708219, "lon": 12.5347995, "tags": {"ele": "663", "name": "Jest\u0159\u00e1b\u00ed vrch", "name:cs": "Jestrabi vrch", "natural": "peak"}}, {"type": "node", "id": 7695092071, "lat": 49.7405676, "lon": 12.535572, "tags": {"ele": "715", "name": "Peklo", "name:cs": "Peklo", "name:de": "H\u00f6llberg", "natural": "peak"}}, {"type": "node", "id": 7695092072, "lat": 49.7459477, "lon": 12.5521802, "tags": {"ele": "714", "name": "Hol\u00fd vrch", "name:cs": "Hol\u00fd vrch", "natural": "peak"}}, {"type": "node", "id": 7695092073, "lat": 49.7326351, "lon": 12.5404643, "tags": {"ele": "678", "natural": "peak"}}, {"type": "node", "id": 7695092074, "lat": 49.734965, "lon": 12.5543689, "tags": {"ele": "658", "name": "Smr\u010dina", "name:de": "Streuberg", "natural": "peak"}}, {"type": "node", "id": 7695092075, "lat": 49.6916202, "lon": 12.5339412, "tags": {"ele": "630", "name": "Jezev\u010d\u00ed vrch", "name:cs": "Jezev\u010d\u00ed vrch", "name:de": "Dachsberg", "natural": "peak"}}, {"type": "node", "id": 7695111999, "lat": 49.7415106, "lon": 12.5273322, "tags": {"ele": "745", "name": "Pust\u00fd vrch", "name:cs": "Pust\u00fd vrch", "name:de": "Hufnagelberg", "natural": "peak"}}, {"type": "node", "id": 7695112003, "lat": 49.749109, "lon": 12.4458789, "tags": {"ele": "728", "name": "Ml\u00fdnsk\u00fd vrch", "name:cs": "Ml\u00fdnsk\u00fd vrch", "natural": "peak"}}, {"type": "node", "id": 7695112004, "lat": 49.7479443, "lon": 12.4644183, "tags": {"ele": "711", "name": "Studen\u00fd vrch", "name:cs": "Studen\u00fd vrch", "natural": "peak"}}, {"type": "node", "id": 7695112005, "lat": 49.7431191, "lon": 12.5045013, "tags": {"ele": "763", "name": "Sklarsk\u00fd vrch", "name:cs": "Sklarsk\u00fd vrch", "name:de": "Glasberg", "natural": "peak"}}, {"type": "node", "id": 7695112006, "lat": 49.7317474, "lon": 12.5090503, "tags": {"name": "M\u00fdtn\u00fd vrch", "name:cs": "M\u00fdtn\u00fd vrch", "name:de": "Maulberg", "natural": "peak"}}, {"type": "node", "id": 7695112007, "lat": 49.7146017, "lon": 12.545185, "tags": {"ele": "626", "natural": "peak"}}, {"type": "node", "id": 7695112008, "lat": 49.704167, "lon": 12.5218391, "tags": {"ele": "680", "name": "Javorn\u00fd vrch", "name:cs": "Javorn\u00fd vrch", "name:de": "Ahornberg", "natural": "peak"}}, {"type": "node", "id": 7695112009, "lat": 49.7016134, "lon": 12.5369453, "tags": {"ele": "660", "name:cs": "Kv\u011btn\u00e1 hora", "name:de": "Bl\u00fcmelberg", "natural": "peak"}}, {"type": "node", "id": 7695112010, "lat": 49.7264212, "lon": 12.524929, "tags": {"ele": "730", "name": "Chloumek", "name:cs": "Chloumek", "name:de": "Kolmer Berg", "natural": "peak"}}, {"type": "node", "id": 7695112011, "lat": 49.7157671, "lon": 12.5184058, "tags": {"ele": "710", "name": "Li\u0161\u010d\u00ed vrch", "natural": "peak"}}, {"type": "node", "id": 7695112012, "lat": 49.7135472, "lon": 12.502098, "tags": {"ele": "687", "name:cs": "Flus\u00e1rensk\u00fd vrch", "name:de": "Flussberg", "natural": "peak"}}, {"type": "node", "id": 7695112013, "lat": 49.6967281, "lon": 12.5195646, "tags": {"ele": "605", "name": "Hamersk\u00fd vrch", "name:cs": "Hamersk\u00fd vrch", "name:de": "Hammerhang", "natural": "peak"}}, {"type": "node", "id": 7695112014, "lat": 49.6935912, "lon": 12.4900496, "tags": {"ele": "690", "natural": "peak"}}, {"type": "node", "id": 7695112015, "lat": 49.699948, "lon": 12.4825501, "tags": {"ele": "699", "natural": "peak"}}, {"type": "node", "id": 7695112016, "lat": 49.7115769, "lon": 12.4530887, "tags": {"ele": "674", "natural": "peak"}}, {"type": "node", "id": 7695112017, "lat": 49.7053049, "lon": 12.4885368, "tags": {"ele": "716", "natural": "peak"}}, {"type": "node", "id": 7695112018, "lat": 49.7219268, "lon": 12.4612855, "tags": {"ele": "691", "natural": "peak"}}, {"type": "node", "id": 7695112019, "lat": 49.7115006, "lon": 12.4736667, "tags": {"name": "K\u0148ourek", "name:cs": "Knourek", "name:de": "Schweinberg", "natural": "peak"}}, {"type": "node", "id": 7695112020, "lat": 49.708323, "lon": 12.4815738, "tags": {"ele": "734", "natural": "peak"}}, {"type": "node", "id": 7695112021, "lat": 49.7194774, "lon": 12.4835706, "tags": {"ele": "772", "name:cs": "Stadler\u016fv Kopec", "natural": "peak"}}, {"type": "node", "id": 7695112022, "lat": 49.7162943, "lon": 12.4883222, "tags": {"ele": "766", "name": "Popelov\u00fd Vrch", "name:de": "Aschenstein", "natural": "peak"}}, {"type": "node", "id": 7695112023, "lat": 49.7304436, "lon": 12.4858331, "tags": {"ele": "773", "name:cs": "Se\u010d", "name:de": "Hauberg", "natural": "peak"}}, {"type": "node", "id": 7696849616, "lat": 49.6293518, "lon": 12.4053615, "tags": {"ele": "544", "natural": "peak"}}, {"type": "node", "id": 7696849618, "lat": 49.6341466, "lon": 12.4054313, "tags": {"ele": "581", "name": "Hasenb\u00fchl", "natural": "peak"}}, {"type": "node", "id": 7696849619, "lat": 49.6419772, "lon": 12.4337447, "tags": {"ele": "628", "name": "Fuchsenberg", "natural": "peak", "wikidata": "Q30735423"}}, {"type": "node", "id": 7696849620, "lat": 49.641206, "lon": 12.4571657, "tags": {"ele": "570", "name": "Hoher Brand", "natural": "peak"}}, {"type": "node", "id": 7696849621, "lat": 49.6492994, "lon": 12.4745357, "tags": {"ele": "551", "natural": "peak"}}, {"type": "node", "id": 7696849622, "lat": 49.6466961, "lon": 12.4881881, "tags": {"ele": "565", "name": "G\u00e4nsb\u00fchl", "natural": "peak"}}, {"type": "node", "id": 7696849623, "lat": 49.6597389, "lon": 12.4494088, "tags": {"ele": "653", "natural": "peak"}}, {"type": "node", "id": 7696849624, "lat": 49.6724606, "lon": 12.4713814, "tags": {"ele": "591", "natural": "peak"}}, {"type": "node", "id": 7696849625, "lat": 49.6808889, "lon": 12.46113, "tags": {"ele": "688", "name": "Samstagberg", "natural": "peak"}}, {"type": "node", "id": 7696849626, "lat": 49.68243, "lon": 12.4518549, "tags": {"ele": "718", "natural": "peak"}}, {"type": "node", "id": 7696849627, "lat": 49.6656002, "lon": 12.4608457, "tags": {"ele": "623", "name": "Kleiner Hochberg", "natural": "peak"}}, {"type": "node", "id": 7696849628, "lat": 49.6666696, "lon": 12.4488187, "tags": {"ele": "647", "natural": "peak"}}, {"type": "node", "id": 7696849629, "lat": 49.6594541, "lon": 12.4102217, "tags": {"ele": "669", "name": "Dorfb\u00fchl", "natural": "peak"}}, {"type": "node", "id": 7696849630, "lat": 49.6546896, "lon": 12.4255264, "tags": {"ele": "601", "natural": "peak"}}, {"type": "node", "id": 7696849631, "lat": 49.6553633, "lon": 12.4353969, "tags": {"ele": "610", "natural": "peak"}}, {"type": "node", "id": 7696849632, "lat": 49.6592805, "lon": 12.4320173, "tags": {"ele": "621", "natural": "peak"}}, {"type": "node", "id": 7696849633, "lat": 49.6652252, "lon": 12.4314809, "tags": {"ele": "689", "natural": "peak"}}, {"type": "node", "id": 7696849634, "lat": 49.6782509, "lon": 12.4713921, "tags": {"ele": "624", "natural": "peak"}}, {"type": "node", "id": 7696849635, "lat": 49.6844153, "lon": 12.4712098, "tags": {"ele": "681", "natural": "peak"}}, {"type": "node", "id": 7696849636, "lat": 49.7010236, "lon": 12.4626696, "tags": {"ele": "661", "natural": "peak"}}, {"type": "node", "id": 7696849637, "lat": 49.6996774, "lon": 12.450031, "tags": {"ele": "668", "natural": "peak"}}, {"type": "node", "id": 7696849638, "lat": 49.6934385, "lon": 12.4683452, "tags": {"ele": "664", "natural": "peak"}}, {"type": "node", "id": 7696849639, "lat": 49.6938271, "lon": 12.4612212, "tags": {"ele": "663", "natural": "peak"}}, {"type": "node", "id": 7696849640, "lat": 49.6965476, "lon": 12.4520159, "tags": {"ele": "656", "natural": "peak"}}, {"type": "node", "id": 7696849641, "lat": 49.6949237, "lon": 12.4429822, "tags": {"ele": "660", "natural": "peak"}}, {"type": "node", "id": 7696849642, "lat": 49.7004962, "lon": 12.43456, "tags": {"ele": "628", "natural": "peak"}}, {"type": "node", "id": 7696849643, "lat": 49.7056379, "lon": 12.4310302, "tags": {"ele": "669", "natural": "peak"}}, {"type": "node", "id": 7699444595, "lat": 49.6499038, "lon": 12.5843238, "tags": {"name": "Javo\u0159\u00ed", "name:de": "Ahornberg", "natural": "peak"}}, {"type": "node", "id": 7699444596, "lat": 49.6121282, "lon": 12.6003313, "tags": {"ele": "557", "natural": "peak"}}, {"type": "node", "id": 7699444597, "lat": 49.6196356, "lon": 12.584753, "tags": {"ele": "511", "natural": "peak"}}, {"type": "node", "id": 7699444598, "lat": 49.6309685, "lon": 12.5768839, "tags": {"ele": "533", "name": "T\u0159\u00edskolupsk\u00fd vrch", "name:de": "Drisglobnerberg", "natural": "peak", "source": "\u010c\u00daZK"}}, {"type": "node", "id": 7699444599, "lat": 49.6424227, "lon": 12.5727542, "tags": {"ele": "514", "name": "Jelen\u00ed vrch", "name:de": "Gro\u00dfer Berg", "natural": "peak", "source": "\u010c\u00daZK"}}, {"type": "node", "id": 7700777180, "lat": 49.6869004, "lon": 12.5906324, "tags": {"natural": "peak"}}, {"type": "node", "id": 7700777181, "lat": 49.6897392, "lon": 12.5970858, "tags": {"natural": "peak"}}, {"type": "node", "id": 7700777182, "lat": 49.6902389, "lon": 12.5790238, "tags": {"ele": "527", "name": "U mostu", "natural": "peak"}}, {"type": "node", "id": 7700777183, "lat": 49.6801947, "lon": 12.59516, "tags": {"ele": "561", "name": "Pansky vrch", "natural": "peak"}}, {"type": "node", "id": 7700777184, "lat": 49.6944795, "lon": 12.5531566, "tags": {"ele": "575", "name": "Medv\u011bd\u00ed vrch", "name:de": "B\u00e4renfang", "natural": "peak"}}, {"type": "node", "id": 7700796304, "lat": 49.638093, "lon": 12.532529, "tags": {"ele": "516.9", "name": "M\u011blk\u00fd d\u016fl", "natural": "peak"}}, {"type": "node", "id": 7700796305, "lat": 49.6469722, "lon": 12.5220322, "tags": {"natural": "peak"}}, {"type": "node", "id": 7700796306, "lat": 49.6484588, "lon": 12.5250149, "tags": {"ele": "566", "name": "Strebelsky vrch", "name:de": "Mittlerberg", "natural": "peak"}}, {"type": "node", "id": 7700796307, "lat": 49.6522377, "lon": 12.527461, "tags": {"ele": "563", "natural": "peak"}}, {"type": "node", "id": 7700796308, "lat": 49.6541351, "lon": 12.54777, "tags": {"ele": "541.9", "name": "Smr\u010dina", "natural": "peak"}}, {"type": "node", "id": 7700796309, "lat": 49.6599056, "lon": 12.5267314, "tags": {"ele": "549", "name": "Nad celnic\u00ed", "natural": "peak"}}, {"type": "node", "id": 7700796310, "lat": 49.6606711, "lon": 12.548315, "tags": {"ele": "576.4", "name": "Nad Ra\u0161elinami", "name:de": "Knoblochsberg", "natural": "peak", "wikidata": "Q91241804"}}, {"type": "node", "id": 7700796311, "lat": 49.6691694, "lon": 12.5428462, "tags": {"ele": "625", "name": "B\u0159ezov\u00fd vrch", "name:de": "Hohenbirkenberg", "natural": "peak"}}, {"type": "node", "id": 7700800285, "lat": 49.6887328, "lon": 12.5590467, "tags": {"ele": "582", "natural": "peak"}}, {"type": "node", "id": 7700800286, "lat": 49.6818191, "lon": 12.5623619, "tags": {"ele": "572", "name": "Tcho\u0159\u00ed vrch", "natural": "peak"}}, {"type": "node", "id": 7700800287, "lat": 49.6832631, "lon": 12.5481033, "tags": {"ele": "585", "natural": "peak"}}, {"type": "node", "id": 7722204051, "lat": 49.6948126, "lon": 12.4072123, "tags": {"natural": "peak"}}, {"type": "node", "id": 7722204052, "lat": 49.6779454, "lon": 12.407341, "tags": {"ele": "652", "natural": "peak"}}, {"type": "node", "id": 7722204053, "lat": 49.680278, "lon": 12.4150872, "tags": {"ele": "679", "natural": "peak"}}, {"type": "node", "id": 7722312552, "lat": 49.5896616, "lon": 12.4309015, "tags": {"ele": "535", "natural": "peak"}}, {"type": "node", "id": 7722312553, "lat": 49.5909343, "lon": 12.4249792, "tags": {"ele": "538", "natural": "peak"}}, {"type": "node", "id": 7722312959, "lat": 49.5747129, "lon": 12.497077, "tags": {"ele": "574", "natural": "peak"}}, {"type": "node", "id": 7722312960, "lat": 49.5718882, "lon": 12.5003064, "tags": {"ele": "561", "name": "Pflugb\u00fchl", "natural": "peak"}}, {"type": "node", "id": 7722312961, "lat": 49.5704688, "lon": 12.472465, "tags": {"ele": "608", "natural": "peak"}}, {"type": "node", "id": 7722312962, "lat": 49.5690007, "lon": 12.4825823, "tags": {"ele": "614", "name": "Katzenb\u00fchl", "natural": "peak"}}, {"type": "node", "id": 7722312963, "lat": 49.5630652, "lon": 12.4818528, "tags": {"ele": "634", "natural": "peak"}}, {"type": "node", "id": 7722312964, "lat": 49.558319, "lon": 12.4732375, "tags": {"ele": "651", "natural": "peak"}}, {"type": "node", "id": 7722312965, "lat": 49.5599893, "lon": 12.4802756, "tags": {"ele": "547", "natural": "peak"}}, {"type": "node", "id": 7722326112, "lat": 49.5865039, "lon": 12.456361, "tags": {"ele": "590", "natural": "peak"}}, {"type": "node", "id": 7722326113, "lat": 49.5952913, "lon": 12.4595529, "tags": {"ele": "563", "natural": "peak"}}, {"type": "node", "id": 7722326114, "lat": 49.5913655, "lon": 12.4727654, "tags": {"ele": "531", "natural": "peak"}}, {"type": "node", "id": 7722326115, "lat": 49.5800974, "lon": 12.4706304, "tags": {"ele": "587", "natural": "peak"}}, {"type": "node", "id": 7722326116, "lat": 49.5863926, "lon": 12.4767458, "tags": {"ele": "568", "natural": "peak"}}, {"type": "node", "id": 7723952875, "lat": 49.6087912, "lon": 12.5945806, "tags": {"ele": "536", "natural": "peak"}}, {"type": "node", "id": 7723952876, "lat": 49.6117875, "lon": 12.4820781, "tags": {"ele": "543", "natural": "peak"}}, {"type": "node", "id": 7723952877, "lat": 49.6240491, "lon": 12.4820244, "tags": {"ele": "508", "natural": "peak"}}, {"type": "node", "id": 7723952878, "lat": 49.6183357, "lon": 12.4805331, "tags": {"ele": "547", "natural": "peak"}}, {"type": "node", "id": 7723952879, "lat": 49.6276387, "lon": 12.5082672, "tags": {"ele": "514", "natural": "peak"}}, {"type": "node", "id": 7723952880, "lat": 49.6723668, "lon": 12.5175261, "tags": {"ele": "585", "natural": "peak"}}, {"type": "node", "id": 7967344913, "lat": 49.7504423, "lon": 12.435751}, {"type": "node", "id": 7967344914, "lat": 49.7504473, "lon": 12.4358202}, {"type": "node", "id": 7967344915, "lat": 49.7505111, "lon": 12.4358118}, {"type": "node", "id": 7967344916, "lat": 49.7505066, "lon": 12.4357402}, {"type": "node", "id": 7990232125, "lat": 49.7131663, "lon": 12.4350276, "tags": {"ele": "660", "information": "guidepost", "name": "U \u010cesk\u00fdch Domk\u016f", "source": "survey", "tourism": "information"}}, {"type": "node", "id": 8582074128, "lat": 49.6203213, "lon": 12.4232812, "tags": {"amenity": "shelter", "bench": "yes", "kerb": "yes", "kerb:height": "0.13", "shelter_type": "public_transport", "wheelchair": "no"}}, {"type": "node", "id": 8598591490, "lat": 49.5577227, "lon": 12.4330128}, {"type": "node", "id": 8615843122, "lat": 49.6177113, "lon": 12.5145092, "tags": {"tourism": "viewpoint"}}, {"type": "node", "id": 8665282519, "lat": 49.6984197, "lon": 12.4591602, "tags": {"amenity": "shelter"}}, {"type": "node", "id": 8695375513, "lat": 49.560212, "lon": 12.4646759, "tags": {"ele": "632", "natural": "peak"}}, {"type": "node", "id": 8695375514, "lat": 49.5576091, "lon": 12.4518013, "tags": {"ele": "585", "name": "Kronleite", "natural": "peak"}}, {"type": "node", "id": 8700975531, "lat": 49.6514661, "lon": 12.4052993, "tags": {"amenity": "shelter", "bench": "yes", "kerb": "raised", "kerb:height": "0.13", "shelter_type": "public_transport", "wheelchair": "no"}}, {"type": "node", "id": 8701031022, "lat": 49.6448624, "lon": 12.4043806, "tags": {"amenity": "shelter", "bench": "yes", "kerb": "raised", "kerb:height": "0.19", "shelter_type": "public_transport", "wheelchair": "no"}}, {"type": "node", "id": 8725548953, "lat": 49.7218399, "lon": 12.4927064, "tags": {"board_type": "nature", "information": "board", "name": "Skaln\u00ed m\u011bsto Muschelh\u00fctte", "tourism": "information"}}, {"type": "node", "id": 8725549024, "lat": 49.704565, "lon": 12.4754364, "tags": {"board_type": "history", "information": "board", "name": "zanikl\u00e1 obec Jedlina", "tourism": "information"}}, {"type": "node", "id": 8747624614, "lat": 49.7092651, "lon": 12.4303156, "tags": {"amenity": "shelter", "bench": "yes", "shelter_type": "public_transport"}}, {"type": "node", "id": 8913124254, "lat": 49.6245107, "lon": 12.5719886, "tags": {"amenity": "shelter", "shelter_type": "picnic_shelter"}}, {"type": "node", "id": 8921582485, "lat": 49.6121287, "lon": 12.4329694, "tags": {"amenity": "shelter", "bench": "yes", "kerb": "raised", "shelter_type": "public_transport", "surface": "unpaved", "wheelchair": "no"}}, {"type": "node", "id": 9000623863, "lat": 49.6667144, "lon": 12.5973029, "tags": {"board_type": "history", "information": "board", "name": "Bobr \u0159\u00ed\u010dn\u00ed", "ref": "4", "tourism": "information"}}, {"type": "node", "id": 9000623864, "lat": 49.6662535, "lon": 12.594947, "tags": {"board_type": "history", "information": "board", "name": "Hospod\u00e1\u0159sk\u00fd dv\u016fr Svat\u00e1 Kate\u0159ina", "ref": "3;16", "tourism": "information"}}, {"type": "node", "id": 9000623865, "lat": 49.6637938, "lon": 12.5938321, "tags": {"board_type": "history", "information": "board", "name": "Svat\u00e1 Kate\u0159ina", "ref": "15", "tourism": "information"}}, {"type": "node", "id": 9000623866, "lat": 49.6597104, "lon": 12.5933585, "tags": {"board_type": "history", "information": "board", "name": "Star\u00e1 cihelna", "ref": "14", "tourism": "information"}}, {"type": "node", "id": 9000623867, "lat": 49.6360814, "lon": 12.5951171, "tags": {"board_type": "history", "information": "board", "name": "Pila Diana", "ref": "12", "tourism": "information"}}, {"type": "node", "id": 9000623868, "lat": 49.6312602, "lon": 12.5955354, "tags": {"board_type": "history", "information": "board", "name": "Diana", "ref": "11", "tourism": "information"}}, {"type": "node", "id": 9000623869, "lat": 49.6297278, "lon": 12.599961, "tags": {"amenity": "shelter", "shelter_type": "picnic_shelter"}}, {"type": "node", "id": 9000623870, "lat": 49.6297672, "lon": 12.599961, "tags": {"name": "Vyhl\u00eddka Dominiky Kolowrat Krakovsk\u00e9", "tourism": "viewpoint"}}, {"type": "node", "id": 9001392123, "lat": 49.6278024, "lon": 12.5843689, "tags": {"board_type": "nature", "information": "board", "name": "P\u016fvodn\u00ed kv\u011btnat\u00e1 bu\u010dina", "tourism": "information"}}, {"type": "node", "id": 9001392124, "lat": 49.6267626, "lon": 12.5798709, "tags": {"board_type": "nature", "information": "board", "name": "Chr\u00e1n\u011bn\u00e9 p\u0159\u00edrodn\u00ed rezervace Diana", "ref": "10", "tourism": "information"}}, {"type": "node", "id": 9001392128, "lat": 49.6244806, "lon": 12.5718332, "tags": {"board_type": "nature", "information": "board", "name": "Diansk\u00e1 rota", "ref": "9", "tourism": "information"}}, {"type": "node", "id": 9001392129, "lat": 49.5854574, "lon": 12.5802061, "tags": {"board_type": "history", "information": "board", "name": "\u017delez\u00e1\u0159stv\u00ed v obci \u017delezn\u00e1", "tourism": "information"}}, {"type": "node", "id": 9001392140, "lat": 49.5666979, "lon": 12.5926512, "tags": {"board_type": "history", "information": "board", "name": "Eisendorfsk\u00e1 Hu\u0165", "tourism": "information"}}, {"type": "node", "id": 9107033410, "lat": 49.5577106, "lon": 12.4329526}, {"type": "node", "id": 9107033411, "lat": 49.5576954, "lon": 12.4329598}, {"type": "node", "id": 9107033412, "lat": 49.5577075, "lon": 12.43302}, {"type": "node", "id": 9221399233, "lat": 49.7368247, "lon": 12.523088, "tags": {"board_type": "nature", "description": "PR Podkov\u00e1k", "information": "board", "name": "Lesn\u00ed ra\u0161elini\u0161t\u011b s borovic\u00ed blatkou", "tourism": "information"}}, {"type": "node", "id": 9221399234, "lat": 49.7463085, "lon": 12.5145591, "tags": {"board_type": "nature", "description": "NS Lesn\u00e1", "information": "board", "name": "Jedle v \u010cesk\u00e9m lese", "ref": "10", "tourism": "information"}}, {"type": "node", "id": 9221399235, "lat": 49.7367937, "lon": 12.5230459, "tags": {"board_type": "nature", "description": "NS Lesn\u00e1", "information": "board", "name": "Ra\u0161elini\u0161t\u011b v PR Podkov\u00e1k", "ref": "9", "tourism": "information"}}, {"type": "node", "id": 9221399236, "lat": 49.7326402, "lon": 12.5258146, "tags": {"board_type": "history", "description": "NS Lesn\u00e1", "information": "board", "name": "Kaple Panny Marie", "ref": "8", "tourism": "information"}}, {"type": "node", "id": 9221399237, "lat": 49.7256301, "lon": 12.5211888, "tags": {"board_type": "history", "description": "NS Lesn\u00e1", "information": "board", "name": "Sch\u00f6nwaldsk\u00e1 Hu\u0165", "ref": "7", "tourism": "information"}}, {"type": "node", "id": 9221399238, "lat": 49.7237621, "lon": 12.5328352, "tags": {"board_type": "nature", "description": "NS Lesn\u00e1", "information": "board", "name": "Jelen lesn\u00ed v \u010cesk\u00e9m lese", "ref": "6", "tourism": "information"}}, {"type": "node", "id": 9221399239, "lat": 49.736469, "lon": 12.5353962, "tags": {"board_type": "nature", "description": "NS Lesn\u00e1", "information": "board", "name": "Z\u00e1sady hospoda\u0159en\u00ed", "ref": "3", "tourism": "information"}}, {"type": "node", "id": 9221399240, "lat": 49.7492048, "lon": 12.5321497, "tags": {"board_type": "nature", "description": "NS Lesn\u00e1", "information": "board", "name": "Chov pstruha v \u010cesk\u00e9m lese", "ref": "2", "tourism": "information"}}, {"type": "node", "id": 9223106218, "lat": 49.7243424, "lon": 12.5432387, "tags": {"board_type": "nature", "description": "NS Vodn\u00ed sv\u011bt", "information": "board", "name": "\u017divot nad vodou", "tourism": "information"}}, {"type": "node", "id": 9223106219, "lat": 49.7263383, "lon": 12.5425387, "tags": {"board_type": "nature", "description": "NS Vodn\u00ed sv\u011bt", "information": "board", "name": "Bobr. Seznamte se!", "tourism": "information"}}, {"type": "node", "id": 9223106220, "lat": 49.7274399, "lon": 12.5436367, "tags": {"board_type": "nature", "description": "NS Vodn\u00ed sv\u011bt", "information": "board", "name": "\u017divot ve vod\u011b", "tourism": "information"}}, {"type": "node", "id": 9223106221, "lat": 49.7280747, "lon": 12.5452591, "tags": {"board_type": "history", "description": "NS Vodn\u00ed sv\u011bt", "information": "board", "name": "Kdy\u017e se \u017eilo na Kolmu", "tourism": "information"}}, {"type": "node", "id": 9223106222, "lat": 49.7250611, "lon": 12.5448491, "tags": {"board_type": "nature", "description": "NS Vodn\u00ed sv\u011bt", "information": "board", "name": "Hlasy \u017eivota", "tourism": "information"}}, {"type": "node", "id": 9384142818, "lat": 49.7093349, "lon": 12.4141734, "tags": {"name": "Stoahgr\u00f6ll Friedenskreiz", "natural": "peak"}}, {"type": "node", "id": 9514189851, "lat": 49.6546974, "lon": 12.4311469, "tags": {"amenity": "shelter", "bench": "yes", "kerb": "raised", "kerb:height": "0.14", "shelter_type": "public_transport", "wheelchair": "no"}}, {"type": "node", "id": 9611534592, "lat": 49.669368, "lon": 12.599462, "tags": {"ele": "535.8", "natural": "peak"}}, {"type": "node", "id": 9833721150, "lat": 49.563733, "lon": 12.5008691, "tags": {"information": "guidepost", "tourism": "information"}}, {"type": "node", "id": 9834448970, "lat": 49.5592518, "lon": 12.4925608, "tags": {"information": "guidepost", "tourism": "information"}}, {"type": "node", "id": 10195115896, "lat": 49.5857343, "lon": 12.4493953}, {"type": "node", "id": 10195115897, "lat": 49.5857271, "lon": 12.4494216}, {"type": "node", "id": 10195115898, "lat": 49.5857522, "lon": 12.4494382}, {"type": "node", "id": 10195115899, "lat": 49.5857595, "lon": 12.4494119}, {"type": "node", "id": 10195637711, "lat": 49.6892724, "lon": 12.4632336}, {"type": "node", "id": 10195637712, "lat": 49.68929, "lon": 12.4631803}, {"type": "node", "id": 10195637713, "lat": 49.6892676, "lon": 12.4631627}, {"type": "node", "id": 10195637714, "lat": 49.6892501, "lon": 12.4632161}, {"type": "node", "id": 10297088796, "lat": 49.6358704, "lon": 12.5723855, "tags": {"access": "yes", "amenity": "shelter", "backcountry": "yes", "bench": "yes", "building": "cabin", "camp_site": "basic", "group_only": "no", "name": "Lumi\u0161ky", "power_supply": "no", "scout": "no", "shelter": "yes", "shelter_type": "basic_hut", "tourism": "wilderness_hut"}}, {"type": "node", "id": 10297134323, "lat": 49.6244114, "lon": 12.5719716}, {"type": "node", "id": 10650237502, "lat": 49.7432231, "lon": 12.4088804}, {"type": "node", "id": 10650237503, "lat": 49.7432174, "lon": 12.408925}, {"type": "node", "id": 10650237504, "lat": 49.7432647, "lon": 12.4089394}, {"type": "node", "id": 10951346375, "lat": 49.7308031, "lon": 12.4253058, "tags": {"board_type": "warning", "information": "board", "inscription": "POZOR St\u00e1tn\u00ed hranice", "inscription:de": "Achtung Staatsgrenze CZ", "inscription:en": "Attention CZ state border", "tourism": "information"}}, {"type": "node", "id": 10951404445, "lat": 49.7248063, "lon": 12.4287316, "tags": {"board_type": "warning", "information": "board", "inscription": "POZOR St\u00e1tn\u00ed hranice", "inscription:de": "Achtung Staatsgrenze CZ", "inscription:en": "Border CZ - DE", "tourism": "information"}}, {"type": "node", "id": 10951425465, "lat": 49.7179652, "lon": 12.4329143, "tags": {"board_type": "warning", "information": "board", "name": "LANDESGRENZE", "tourism": "information"}}, {"type": "node", "id": 10951467106, "lat": 49.7179511, "lon": 12.4329546, "tags": {"board_type": "warning", "information": "board", "inscription": "POZOR St\u00e1tn\u00ed hranice", "tourism": "information"}}, {"type": "node", "id": 10951502027, "lat": 49.7142725, "lon": 12.4346391, "tags": {"board_type": "warning", "information": "board", "inscription": "POZOR St\u00e1tn\u00ed hranice", "tourism": "information"}}, {"type": "node", "id": 10951537491, "lat": 49.7049008, "lon": 12.4417412, "tags": {"board_type": "warning", "information": "board", "inscription": "POZOR St\u00e1tn\u00ed hranice", "tourism": "information"}}, {"type": "node", "id": 10951566536, "lat": 49.7108189, "lon": 12.4364597, "tags": {"board_type": "warning", "information": "board", "inscription": "POZOR St\u00e1tn\u00ed hranice", "tourism": "information"}}, {"type": "node", "id": 10951578931, "lat": 49.7036047, "lon": 12.4433032, "tags": {"board_type": "warning", "information": "board", "inscription": "\u010cesk\u00e1 republika", "tourism": "information"}}, {"type": "node", "id": 10951579032, "lat": 49.703634, "lon": 12.4432366, "tags": {"board_type": "warning", "information": "board", "inscription": "Pozor|St\u00e1tn\u00ed hranice", "tourism": "information"}}, {"type": "node", "id": 10951782777, "lat": 49.7021402, "lon": 12.4488342, "tags": {"board_type": "warning", "direction": "0", "information": "board", "inscription": "POZOR St\u00e1tn\u00ed hranice", "tourism": "information"}}, {"type": "node", "id": 10951900897, "lat": 49.7011308, "lon": 12.4529738, "tags": {"board_type": "warning", "information": "board", "inscription": "POZOR St\u00e1tn\u00ed hranice", "tourism": "information"}}, {"type": "node", "id": 10951904375, "lat": 49.6889999, "lon": 12.4851061, "tags": {"board_type": "warning", "information": "board", "inscription": "POZOR St\u00e1tn\u00ed hranice", "tourism": "information"}}, {"type": "node", "id": 10951907508, "lat": 49.7004875, "lon": 12.4612199, "tags": {"board_type": "warning", "information": "board", "inscription": "POZOR St\u00e1tn\u00ed hranice", "tourism": "information"}}, {"type": "node", "id": 10951915802, "lat": 49.6988431, "lon": 12.4663786, "tags": {"board_type": "warning", "information": "board", "inscription": "POZOR St\u00e1tn\u00ed hranice", "tourism": "information"}}, {"type": "node", "id": 10951918747, "lat": 49.6960802, "lon": 12.4769624, "tags": {"board_type": "warning", "information": "board", "inscription": "POZOR St\u00e1tn\u00ed hranice", "tourism": "information"}}, {"type": "node", "id": 10951924584, "lat": 49.6940405, "lon": 12.4840236, "tags": {"board_type": "warning", "information": "board", "inscription": "POZOR St\u00e1tn\u00ed hranice", "tourism": "information"}}, {"type": "node", "id": 10951936706, "lat": 49.6984004, "lon": 12.4687926, "tags": {"board_type": "warning", "information": "board", "inscription": "POZOR St\u00e1tn\u00ed hranice", "tourism": "information"}}, {"type": "node", "id": 10951936887, "lat": 49.6876773, "lon": 12.486639, "tags": {"board_type": "warning", "information": "board", "inscription": "POZOR St\u00e1tn\u00ed hranice", "tourism": "information"}}, {"type": "node", "id": 10951949256, "lat": 49.6904337, "lon": 12.4850917, "tags": {"board_type": "warning", "information": "board", "inscription": "POZOR St\u00e1tn\u00ed hranice", "tourism": "information"}}, {"type": "node", "id": 10951960036, "lat": 49.6949185, "lon": 12.4814917, "tags": {"board_type": "warning", "information": "board", "inscription": "POZOR St\u00e1tn\u00ed hranice", "tourism": "information"}}, {"type": "node", "id": 10951975034, "lat": 49.6867737, "lon": 12.4891411, "tags": {"board_type": "warning", "information": "board", "inscription": "POZOR St\u00e1tn\u00ed hranice", "tourism": "information"}}, {"type": "node", "id": 10955892149, "lat": 49.6858577, "lon": 12.4925184, "tags": {"board_type": "warning", "information": "board", "inscription": "POZOR St\u00e1tn\u00ed hranice", "tourism": "information"}}, {"type": "node", "id": 10955894107, "lat": 49.686352, "lon": 12.508374, "tags": {"board_type": "warning", "information": "board", "inscription": "POZOR St\u00e1tn\u00ed hranice", "tourism": "information"}}, {"type": "node", "id": 10955910548, "lat": 49.6858456, "lon": 12.4977875, "tags": {"board_type": "warning", "information": "board", "inscription": "POZOR St\u00e1tn\u00ed hranice", "tourism": "information"}}, {"type": "node", "id": 10955916077, "lat": 49.6866789, "lon": 12.52189, "tags": {"board_type": "warning", "information": "board", "inscription": "POZOR St\u00e1tn\u00ed hranice", "tourism": "information"}}, {"type": "node", "id": 10955925954, "lat": 49.6874454, "lon": 12.5175052, "tags": {"board_type": "warning", "information": "board", "inscription": "POZOR St\u00e1tn\u00ed hranice", "tourism": "information"}}, {"type": "node", "id": 10955926049, "lat": 49.6878659, "lon": 12.5147811, "tags": {"board_type": "warning", "information": "board", "inscription": "POZOR St\u00e1tn\u00ed hranice", "tourism": "information"}}, {"type": "node", "id": 10956335550, "lat": 49.661311, "lon": 12.5237836, "tags": {"board_type": "warning", "information": "board", "name": "LANDESGRENZE", "tourism": "information"}}, {"type": "node", "id": 10956675688, "lat": 49.6566793, "lon": 12.5237388, "tags": {"board_type": "warning", "information": "board", "inscription": "POZOR St\u00e1tn\u00ed hranice", "inscription:de": "Achtung Staatsgrenze CZ", "inscription:en": "Border CZ - DE", "tourism": "information"}}, {"type": "node", "id": 10956686647, "lat": 49.6551615, "lon": 12.5250509, "tags": {"board_type": "warning", "information": "board", "inscription": "POZOR St\u00e1tn\u00ed hranice", "inscription:de": "Achtung Staatsgrenze CZ", "inscription:en": "Boder CZ - DE", "tourism": "information"}}, {"type": "node", "id": 10956804868, "lat": 49.6273859, "lon": 12.5245156, "tags": {"board_type": "warning", "information": "board", "inscription": "POZOR St\u00e1tn\u00ed hranice", "inscription:de": "Achtung Staatsgrenze CZ", "inscription:en": "Border CZ - DE", "tourism": "information"}}, {"type": "node", "id": 10956842718, "lat": 49.6204215, "lon": 12.5282697, "tags": {"board_type": "warning", "information": "board", "inscription": "POZOR St\u00e1tn\u00ed hranice", "inscription:de": "Achtung Staatsgrenze CZ", "inscription:en": "Border CZ - DE", "tourism": "information"}}, {"type": "node", "id": 10957017534, "lat": 49.6181095, "lon": 12.5363891, "tags": {"board_type": "warning", "information": "board", "inscription": "POZOR St\u00e1tn\u00ed hranice", "inscription:de": "Achtung Staatsgrenze CZ", "inscription:en": "Border CZ - DE", "tourism": "information"}}, {"type": "node", "id": 10957030515, "lat": 49.6181586, "lon": 12.5282206, "tags": {"board_type": "warning", "information": "board", "inscription": "POZOR St\u00e1tn\u00ed hranice", "inscription:de": "Achtung Staatsgrenze CZ", "inscription:en": "Border CZ - DE", "tourism": "information"}}, {"type": "node", "id": 10957048213, "lat": 49.6195749, "lon": 12.5407206, "tags": {"board_type": "warning", "information": "board", "inscription": "POZOR St\u00e1tn\u00ed hranice", "tourism": "information"}}, {"type": "node", "id": 10957050053, "lat": 49.621293, "lon": 12.5457273, "tags": {"board_type": "warning", "information": "board", "inscription": "POZOR St\u00e1tn\u00ed hranice", "tourism": "information"}}, {"type": "node", "id": 10957705283, "lat": 49.6196401, "lon": 12.5607217, "tags": {"board_type": "warning", "information": "board", "inscription": "POZOR St\u00e1tn\u00ed hranice", "tourism": "information"}}, {"type": "node", "id": 10957725869, "lat": 49.6200102, "lon": 12.5591231, "tags": {"board_type": "warning", "information": "board", "inscription": "POZOR St\u00e1tn\u00ed hranice", "tourism": "information"}}, {"type": "node", "id": 10957733418, "lat": 49.6207993, "lon": 12.553694, "tags": {"board_type": "warning", "information": "board", "inscription": "POZOR St\u00e1tn\u00ed hranice", "tourism": "information"}}, {"type": "node", "id": 10957750289, "lat": 49.6170778, "lon": 12.5582732, "tags": {"board_type": "warning", "information": "board", "inscription": "POZOR St\u00e1tn\u00ed hranice", "tourism": "information"}}, {"type": "node", "id": 10957756744, "lat": 49.6115533, "lon": 12.5595699, "tags": {"board_type": "warning", "information": "board", "inscription": "POZOR St\u00e1tn\u00ed hranice", "tourism": "information"}}, {"type": "node", "id": 10957765139, "lat": 49.614328, "lon": 12.5569961, "tags": {"board_type": "warning", "information": "board", "inscription": "POZOR St\u00e1tn\u00ed hranice", "tourism": "information"}}, {"type": "node", "id": 10957775794, "lat": 49.6044174, "lon": 12.5636605, "tags": {"board_type": "warning", "information": "board", "inscription": "POZOR St\u00e1tn\u00ed hranice", "tourism": "information"}}, {"type": "node", "id": 10957781501, "lat": 49.6101878, "lon": 12.5617887, "tags": {"board_type": "warning", "information": "board", "inscription": "POZOR St\u00e1tn\u00ed hranice", "tourism": "information"}}, {"type": "node", "id": 10957787901, "lat": 49.5927643, "lon": 12.569319, "tags": {"board_type": "warning", "information": "board", "inscription": "POZOR St\u00e1tn\u00ed hranice", "tourism": "information"}}, {"type": "node", "id": 10957788710, "lat": 49.6063404, "lon": 12.5632235, "tags": {"board_type": "warning", "information": "board", "inscription": "POZOR St\u00e1tn\u00ed hranice", "tourism": "information"}}, {"type": "node", "id": 10957816107, "lat": 49.5961185, "lon": 12.5652811, "tags": {"board_type": "warning", "information": "board", "inscription": "POZOR St\u00e1tn\u00ed hranice", "tourism": "information"}}, {"type": "node", "id": 10957824266, "lat": 49.5890959, "lon": 12.5742472, "tags": {"board_type": "warning", "information": "board", "inscription": "POZOR St\u00e1tn\u00ed hranice", "tourism": "information"}}, {"type": "node", "id": 10957829644, "lat": 49.5946802, "lon": 12.566327, "tags": {"board_type": "warning", "information": "board", "inscription": "POZOR St\u00e1tn\u00ed hranice", "tourism": "information"}}, {"type": "node", "id": 10957863120, "lat": 49.5876915, "lon": 12.5755975, "tags": {"board_type": "warning", "information": "board", "inscription": "POZOR St\u00e1tn\u00ed hranice", "tourism": "information"}}, {"type": "node", "id": 10957879225, "lat": 49.5842039, "lon": 12.5766287, "tags": {"information": "board", "name": "\u010cESK\u00c1 REPUBLIKA", "tourism": "information"}}, {"type": "node", "id": 10957883265, "lat": 49.5843095, "lon": 12.57657, "tags": {"board_type": "warning", "information": "board", "inscription": "POZOR St\u00e1tn\u00ed hranice", "inscription:de": "Achtung Staatsgrenze CZ", "inscription:en": "Border CZ - DE", "tourism": "information"}}, {"type": "node", "id": 10957883266, "lat": 49.581047, "lon": 12.5742553, "tags": {"board_type": "warning", "information": "board", "inscription": "POZOR St\u00e1tn\u00ed hranice", "tourism": "information"}}, {"type": "node", "id": 10957909565, "lat": 49.5786802, "lon": 12.5742907, "tags": {"board_type": "warning", "information": "board", "inscription": "POZOR St\u00e1tn\u00ed hranice", "tourism": "information"}}, {"type": "node", "id": 10958218556, "lat": 49.5747884, "lon": 12.5737255, "tags": {"board_type": "warning", "information": "board", "inscription": "POZOR St\u00e1tn\u00ed hranice", "tourism": "information"}}, {"type": "node", "id": 10958289085, "lat": 49.5617648, "lon": 12.5744904, "tags": {"board_type": "warning", "information": "board", "inscription": "POZOR St\u00e1tn\u00ed hranice", "tourism": "information"}}, {"type": "node", "id": 10958289086, "lat": 49.5583743, "lon": 12.5752991, "tags": {"board_type": "warning", "information": "board", "inscription": "POZOR St\u00e1tn\u00ed hranice", "tourism": "information"}}, {"type": "node", "id": 10958383432, "lat": 49.5693152, "lon": 12.5708206, "tags": {"board_type": "warning", "information": "board", "inscription": "POZOR St\u00e1tn\u00ed hranice", "tourism": "information"}}, {"type": "node", "id": 10958455625, "lat": 49.567239, "lon": 12.5724845, "tags": {"board_type": "warning", "information": "board", "inscription": "POZOR St\u00e1tn\u00ed hranice", "tourism": "information"}}, {"type": "node", "id": 10958461508, "lat": 49.565316, "lon": 12.5737111, "tags": {"board_type": "warning", "information": "board", "inscription": "POZOR St\u00e1tn\u00ed hranice", "tourism": "information"}}, {"type": "node", "id": 10958479031, "lat": 49.5566252, "lon": 12.5789455, "tags": {"board_type": "warning", "information": "board", "inscription": "POZOR St\u00e1tn\u00ed hranice", "tourism": "information"}}, {"type": "node", "id": 10958479032, "lat": 49.552689, "lon": 12.5816056, "tags": {"board_type": "warning", "information": "board", "inscription": "POZOR St\u00e1tn\u00ed hranice", "tourism": "information"}}, {"type": "node", "id": 10976458919, "lat": 49.6910741, "lon": 12.4644181, "tags": {"information": "guidepost", "tourism": "information"}}, {"type": "node", "id": 11030487087, "lat": 49.7206614, "lon": 12.4302449, "tags": {"name": "Hrani\u010dn\u00ed z\u00e1taras", "start_date": "1938", "tourism": "attraction"}}, {"type": "node", "id": 11030528422, "lat": 49.7425981, "lon": 12.4104251}, {"type": "node", "id": 11030528423, "lat": 49.7424375, "lon": 12.4101748}, {"type": "node", "id": 11030528424, "lat": 49.7422466, "lon": 12.409851}, {"type": "node", "id": 11093065612, "lat": 49.7189753, "lon": 12.430908, "tags": {"board_type": "warning", "information": "board", "inscription": "POZOR St\u00e1tn\u00ed hranice", "tourism": "information"}}, {"type": "node", "id": 11331866725, "lat": 49.7341285, "lon": 12.4574768, "tags": {"abandoned": "village", "abandoned:place": "village", "access": "yes", "archaeological_site": "settlement", "historic": "place", "historic:civilization": "modern", "historic:place": "village", "name": "Nov\u00e1 Kn\u00ed\u017eec\u00ed Hu\u0165", "name:cs": "Zanikl\u00e1 ves Nov\u00e1 Kn\u00ed\u017eec\u00ed Hu\u0165", "ruins": "remnants", "ruins:place": "village", "ruins:village": "yes", "tourism": "attraction", "village:end_date": "1948", "wheelchair": "yes"}}, {"type": "node", "id": 11503408784, "lat": 49.7195084, "lon": 12.5075418, "tags": {"abandoned": "village", "abandoned:place": "village", "access": "yes", "archaeological_site": "settlement", "historic": "place", "historic:civilization": "modern", "historic:place": "village", "name": "Zanikl\u00e1 ves Kollerova Hu\u0165 (Kollerh\u00fctte)", "name:cs": "Kollerova Hu\u0165", "name:de": "Kollerh\u00fctte", "place": "locality", "ruins": "remnants", "ruins:place": "village", "ruins:village": "remnants", "tourism": "attraction", "village:end_date": "1948"}}, {"type": "node", "id": 11509549392, "lat": 49.7068769, "lon": 12.4769419}, {"type": "node", "id": 11509549401, "lat": 49.7068361, "lon": 12.4769744}, {"type": "node", "id": 11509549402, "lat": 49.7092462, "lon": 12.478222}, {"type": "node", "id": 11509549403, "lat": 49.7092275, "lon": 12.478041}, {"type": "node", "id": 11509549404, "lat": 49.7091456, "lon": 12.4777443}, {"type": "node", "id": 11509549405, "lat": 49.7082353, "lon": 12.4779361}, {"type": "node", "id": 11509549406, "lat": 49.7081862, "lon": 12.4775959}, {"type": "node", "id": 11509549407, "lat": 49.707973, "lon": 12.4775554}, {"type": "node", "id": 11509549408, "lat": 49.7079087, "lon": 12.4774143}, {"type": "node", "id": 11509549409, "lat": 49.7079396, "lon": 12.4773665}, {"type": "node", "id": 11509549410, "lat": 49.7079923, "lon": 12.4770703}, {"type": "node", "id": 11509549411, "lat": 49.7079537, "lon": 12.4770047}, {"type": "node", "id": 11509549412, "lat": 49.7079255, "lon": 12.4769629}, {"type": "node", "id": 11509549413, "lat": 49.7078149, "lon": 12.4770286}, {"type": "node", "id": 11509549414, "lat": 49.7076979, "lon": 12.4771836}, {"type": "node", "id": 11509549415, "lat": 49.707496, "lon": 12.4772075}, {"type": "node", "id": 11509549416, "lat": 49.7074639, "lon": 12.4772453}, {"type": "node", "id": 11509549417, "lat": 49.7073387, "lon": 12.4768896}, {"type": "node", "id": 11509549418, "lat": 49.7073938, "lon": 12.4768666}, {"type": "node", "id": 11509549419, "lat": 49.7073854, "lon": 12.4766034}, {"type": "node", "id": 11509549420, "lat": 49.7073147, "lon": 12.4766034}, {"type": "node", "id": 11509549421, "lat": 49.707201, "lon": 12.4766798}, {"type": "node", "id": 11509549422, "lat": 49.7069092, "lon": 12.4769175}, {"type": "node", "id": 11509549423, "lat": 49.7067222, "lon": 12.4770729}, {"type": "node", "id": 11509549424, "lat": 49.7063362, "lon": 12.4770007}, {"type": "node", "id": 11509549425, "lat": 49.7054296, "lon": 12.4767203}, {"type": "node", "id": 11509549426, "lat": 49.7055565, "lon": 12.4765147}, {"type": "node", "id": 11509549427, "lat": 49.7053288, "lon": 12.4763247}, {"type": "node", "id": 11509549428, "lat": 49.7053147, "lon": 12.476359}, {"type": "node", "id": 11509549429, "lat": 49.705079, "lon": 12.4761315}, {"type": "node", "id": 11509549430, "lat": 49.7050891, "lon": 12.4760754}, {"type": "node", "id": 11509549431, "lat": 49.7049279, "lon": 12.4757733}, {"type": "node", "id": 11509549432, "lat": 49.7049279, "lon": 12.4756923}, {"type": "node", "id": 11509549433, "lat": 49.7049762, "lon": 12.4756829}, {"type": "node", "id": 11509549434, "lat": 49.7049762, "lon": 12.4755894}, {"type": "node", "id": 11509549435, "lat": 49.7049259, "lon": 12.4755863}, {"type": "node", "id": 11509549436, "lat": 49.7049158, "lon": 12.4754804}, {"type": "node", "id": 11509549437, "lat": 49.7048936, "lon": 12.4754773}, {"type": "node", "id": 11509549438, "lat": 49.7048896, "lon": 12.4753589}, {"type": "node", "id": 11509549439, "lat": 49.7050729, "lon": 12.4752623}, {"type": "node", "id": 11509549440, "lat": 49.7050125, "lon": 12.4749446}, {"type": "node", "id": 11509549441, "lat": 49.7051011, "lon": 12.4748947}, {"type": "node", "id": 11509549442, "lat": 49.7049641, "lon": 12.4744679}, {"type": "node", "id": 11509549443, "lat": 49.7050077, "lon": 12.4744303}, {"type": "node", "id": 11509549444, "lat": 49.7049883, "lon": 12.4743829}, {"type": "node", "id": 11509549445, "lat": 49.7050203, "lon": 12.4743557}, {"type": "node", "id": 11509549446, "lat": 49.7049698, "lon": 12.4742191}, {"type": "node", "id": 11509549447, "lat": 49.7049378, "lon": 12.4742448}, {"type": "node", "id": 11509549448, "lat": 49.7049103, "lon": 12.47418}, {"type": "node", "id": 11509549449, "lat": 49.7049766, "lon": 12.4740854}, {"type": "node", "id": 11509549450, "lat": 49.7050672, "lon": 12.4740249}, {"type": "node", "id": 11509549451, "lat": 49.7050443, "lon": 12.4738687}, {"type": "node", "id": 11509549452, "lat": 49.7050977, "lon": 12.4737862}, {"type": "node", "id": 11509549453, "lat": 49.7050947, "lon": 12.4736279}, {"type": "node", "id": 11509549454, "lat": 49.7050216, "lon": 12.47333}, {"type": "node", "id": 11509549455, "lat": 49.7049215, "lon": 12.4730667}, {"type": "node", "id": 11509549456, "lat": 49.704802, "lon": 12.4729097}, {"type": "node", "id": 11509549457, "lat": 49.7047513, "lon": 12.472688}, {"type": "node", "id": 11509549458, "lat": 49.7045936, "lon": 12.472634}, {"type": "node", "id": 11509549459, "lat": 49.7045796, "lon": 12.4727076}, {"type": "node", "id": 11509549460, "lat": 49.7045542, "lon": 12.4728421}, {"type": "node", "id": 11509549461, "lat": 49.7045263, "lon": 12.4728256}, {"type": "node", "id": 11509549462, "lat": 49.7045247, "lon": 12.4727964}, {"type": "node", "id": 11509549463, "lat": 49.7044968, "lon": 12.4727799}, {"type": "node", "id": 11509549464, "lat": 49.7045033, "lon": 12.4727355}, {"type": "node", "id": 11509549465, "lat": 49.7044533, "lon": 12.4727076}, {"type": "node", "id": 11509549466, "lat": 49.7044639, "lon": 12.4726061}, {"type": "node", "id": 11509549467, "lat": 49.7043564, "lon": 12.4725642}, {"type": "node", "id": 11509549468, "lat": 49.7043032, "lon": 12.4725412}, {"type": "node", "id": 11509549469, "lat": 49.7042921, "lon": 12.4728236}, {"type": "node", "id": 11509549470, "lat": 49.704353, "lon": 12.4734877}, {"type": "node", "id": 11509549471, "lat": 49.7042723, "lon": 12.473514}, {"type": "node", "id": 11509549472, "lat": 49.704238, "lon": 12.4734563}, {"type": "node", "id": 11509549473, "lat": 49.7041454, "lon": 12.4734863}, {"type": "node", "id": 11509549474, "lat": 49.7040737, "lon": 12.4736549}, {"type": "node", "id": 11509549475, "lat": 49.7039229, "lon": 12.4736803}, {"type": "node", "id": 11509549476, "lat": 49.703859, "lon": 12.4736294}, {"type": "node", "id": 11509549477, "lat": 49.7038759, "lon": 12.4735027}, {"type": "node", "id": 11509549478, "lat": 49.7037749, "lon": 12.4734743}, {"type": "node", "id": 11509549479, "lat": 49.7037014, "lon": 12.473388}, {"type": "node", "id": 11509549480, "lat": 49.7035898, "lon": 12.473376}, {"type": "node", "id": 11509549481, "lat": 49.7035877, "lon": 12.4734699}, {"type": "node", "id": 11509549482, "lat": 49.7035283, "lon": 12.4734317}, {"type": "node", "id": 11509549483, "lat": 49.7034789, "lon": 12.4734229}, {"type": "node", "id": 11509549484, "lat": 49.7034711, "lon": 12.4735835}, {"type": "node", "id": 11509549485, "lat": 49.7035615, "lon": 12.4737812}, {"type": "node", "id": 11509549486, "lat": 49.7036188, "lon": 12.4737823}, {"type": "node", "id": 11509549487, "lat": 49.7036202, "lon": 12.4738326}, {"type": "node", "id": 11509549488, "lat": 49.703587, "lon": 12.4738326}, {"type": "node", "id": 11509549489, "lat": 49.7035912, "lon": 12.4739101}, {"type": "node", "id": 11509549490, "lat": 49.7036152, "lon": 12.4739079}, {"type": "node", "id": 11509549491, "lat": 49.7036223, "lon": 12.4739374}, {"type": "node", "id": 11509549492, "lat": 49.7036951, "lon": 12.4739353}, {"type": "node", "id": 11509549493, "lat": 49.7037113, "lon": 12.4740641}, {"type": "node", "id": 11509549494, "lat": 49.7037622, "lon": 12.473944}, {"type": "node", "id": 11509549495, "lat": 49.7040753, "lon": 12.4741906}, {"type": "node", "id": 11509549496, "lat": 49.704273, "lon": 12.4747378}, {"type": "node", "id": 11509549497, "lat": 49.7040753, "lon": 12.4750704}, {"type": "node", "id": 11509549498, "lat": 49.7041759, "lon": 12.4752126}, {"type": "node", "id": 11509549499, "lat": 49.7043598, "lon": 12.4758482}, {"type": "node", "id": 11509549500, "lat": 49.7042509, "lon": 12.4760996}, {"type": "node", "id": 11509549501, "lat": 49.7042218, "lon": 12.4762232}, {"type": "node", "id": 11509549502, "lat": 49.704473, "lon": 12.4766981}, {"type": "node", "id": 11509549503, "lat": 49.7045179, "lon": 12.4767136}, {"type": "node", "id": 11509549504, "lat": 49.704721, "lon": 12.4769621}, {"type": "node", "id": 11509549505, "lat": 49.7047647, "lon": 12.4768627}, {"type": "node", "id": 11509549506, "lat": 49.704784, "lon": 12.4768845}, {"type": "node", "id": 11509549507, "lat": 49.7048573, "lon": 12.4767295}, {"type": "node", "id": 11509549508, "lat": 49.7050026, "lon": 12.4773398}, {"type": "node", "id": 11509549509, "lat": 49.7051119, "lon": 12.4774983}, {"type": "node", "id": 11509549510, "lat": 49.7053073, "lon": 12.4777631}, {"type": "node", "id": 11509549511, "lat": 49.7053759, "lon": 12.4777631}, {"type": "node", "id": 11509549512, "lat": 49.7056881, "lon": 12.477545}, {"type": "node", "id": 11509549513, "lat": 49.7058654, "lon": 12.47757}, {"type": "node", "id": 11509549514, "lat": 49.7061898, "lon": 12.4775637}, {"type": "node", "id": 11509549515, "lat": 49.7064255, "lon": 12.4775793}, {"type": "node", "id": 11509549516, "lat": 49.7064538, "lon": 12.4775139}, {"type": "node", "id": 11509549517, "lat": 49.7066512, "lon": 12.4776198}, {"type": "node", "id": 11509549518, "lat": 49.706891, "lon": 12.4773924}, {"type": "node", "id": 11509549519, "lat": 49.7070602, "lon": 12.4774049}, {"type": "node", "id": 11509549520, "lat": 49.7075014, "lon": 12.4775232}, {"type": "node", "id": 11509549521, "lat": 49.7074712, "lon": 12.4776915}, {"type": "node", "id": 11509549522, "lat": 49.7070864, "lon": 12.4781152}, {"type": "node", "id": 11509549523, "lat": 49.7071206, "lon": 12.4781806}, {"type": "node", "id": 11509549524, "lat": 49.7074228, "lon": 12.4782865}, {"type": "node", "id": 11509549525, "lat": 49.7075075, "lon": 12.4782616}, {"type": "node", "id": 11509549526, "lat": 49.7079164, "lon": 12.4783675}, {"type": "node", "id": 11509549527, "lat": 49.7078741, "lon": 12.4788722}, {"type": "node", "id": 11509549528, "lat": 49.7083617, "lon": 12.4786822}, {"type": "node", "id": 11509549529, "lat": 49.7084785, "lon": 12.4785949}, {"type": "node", "id": 11509549530, "lat": 49.7087263, "lon": 12.4784952}, {"type": "node", "id": 11509549531, "lat": 49.7089479, "lon": 12.4784859}, {"type": "node", "id": 11509549532, "lat": 49.7091534, "lon": 12.4784672}, {"type": "node", "id": 11509549533, "lat": 49.7091837, "lon": 12.4783688}, {"type": "node", "id": 11509549534, "lat": 49.7092001, "lon": 12.4783777}, {"type": "node", "id": 11509549543, "lat": 49.7078923, "lon": 12.4611639}, {"type": "node", "id": 11509549544, "lat": 49.7077466, "lon": 12.4610807}, {"type": "node", "id": 11509549545, "lat": 49.7075575, "lon": 12.4611773}, {"type": "node", "id": 11509549546, "lat": 49.7074239, "lon": 12.4611639}, {"type": "node", "id": 11509549547, "lat": 49.7074066, "lon": 12.4615662}, {"type": "node", "id": 11509549548, "lat": 49.7072973, "lon": 12.4616601}, {"type": "node", "id": 11509549549, "lat": 49.7071117, "lon": 12.4619256}, {"type": "node", "id": 11509549550, "lat": 49.7070319, "lon": 12.4621161}, {"type": "node", "id": 11509549551, "lat": 49.7070371, "lon": 12.462387}, {"type": "node", "id": 11509549552, "lat": 49.7073927, "lon": 12.463543}, {"type": "node", "id": 11509549553, "lat": 49.7075714, "lon": 12.4634116}, {"type": "node", "id": 11509549554, "lat": 49.7076408, "lon": 12.4633472}, {"type": "node", "id": 11509549555, "lat": 49.7077084, "lon": 12.4631755}, {"type": "node", "id": 11509549556, "lat": 49.7078819, "lon": 12.4631594}, {"type": "node", "id": 11509549557, "lat": 49.7079131, "lon": 12.4627356}, {"type": "node", "id": 11509549558, "lat": 49.7078159, "lon": 12.4627088}, {"type": "node", "id": 11509549559, "lat": 49.7078038, "lon": 12.4624191}, {"type": "node", "id": 11509549560, "lat": 49.7080484, "lon": 12.4624513}, {"type": "node", "id": 11509549561, "lat": 49.708464, "lon": 12.4623447}, {"type": "node", "id": 11509549562, "lat": 49.7085264, "lon": 12.4620745}, {"type": "node", "id": 11509549563, "lat": 49.7084706, "lon": 12.4619222}, {"type": "node", "id": 11509549564, "lat": 49.7083615, "lon": 12.4618347}, {"type": "node", "id": 11509549565, "lat": 49.7082868, "lon": 12.4617383}, {"type": "node", "id": 11509549566, "lat": 49.7080525, "lon": 12.4615781}, {"type": "node", "id": 11509549567, "lat": 49.7079363, "lon": 12.4615379}, {"type": "node", "id": 11509549568, "lat": 49.7078062, "lon": 12.4615271}, {"type": "node", "id": 11509549569, "lat": 49.7041062, "lon": 12.4466153}, {"type": "node", "id": 11509549570, "lat": 49.7041486, "lon": 12.4466713}, {"type": "node", "id": 11509549571, "lat": 49.7042574, "lon": 12.4467492}, {"type": "node", "id": 11509549572, "lat": 49.7042735, "lon": 12.4468053}, {"type": "node", "id": 11509549573, "lat": 49.7044246, "lon": 12.4467212}, {"type": "node", "id": 11509549574, "lat": 49.7046644, "lon": 12.4470172}, {"type": "node", "id": 11509549575, "lat": 49.7047087, "lon": 12.4470047}, {"type": "node", "id": 11509549576, "lat": 49.7046676, "lon": 12.446383}, {"type": "node", "id": 11509549577, "lat": 49.7047812, "lon": 12.4463505}, {"type": "node", "id": 11509549578, "lat": 49.7048598, "lon": 12.4463972}, {"type": "node", "id": 11509549579, "lat": 49.7048417, "lon": 12.4460202}, {"type": "node", "id": 11509549580, "lat": 49.7049021, "lon": 12.4458333}, {"type": "node", "id": 11509549581, "lat": 49.7046079, "lon": 12.4457025}, {"type": "node", "id": 11509549582, "lat": 49.7045642, "lon": 12.4456644}, {"type": "node", "id": 11509549583, "lat": 49.7045023, "lon": 12.4457911}, {"type": "node", "id": 11509549584, "lat": 49.7045061, "lon": 12.4459002}, {"type": "node", "id": 11509549585, "lat": 49.7169809, "lon": 12.4479932}, {"type": "node", "id": 11509549586, "lat": 49.7170251, "lon": 12.448003}, {"type": "node", "id": 11509549587, "lat": 49.7170567, "lon": 12.4478761}, {"type": "node", "id": 11509549588, "lat": 49.7170346, "lon": 12.4477442}, {"type": "node", "id": 11509549589, "lat": 49.7169967, "lon": 12.4471291}, {"type": "node", "id": 11509549590, "lat": 49.716902, "lon": 12.4471243}, {"type": "node", "id": 11509549591, "lat": 49.7168831, "lon": 12.4470315}, {"type": "node", "id": 11509549592, "lat": 49.7168925, "lon": 12.4465287}, {"type": "node", "id": 11509549593, "lat": 49.7168736, "lon": 12.4464652}, {"type": "node", "id": 11509549594, "lat": 49.7163749, "lon": 12.4466507}, {"type": "node", "id": 11509549595, "lat": 49.7162455, "lon": 12.4462065}, {"type": "node", "id": 11509549596, "lat": 49.7161413, "lon": 12.4460356}, {"type": "node", "id": 11509549597, "lat": 49.7161129, "lon": 12.4456451}, {"type": "node", "id": 11509549598, "lat": 49.715933, "lon": 12.4457134}, {"type": "node", "id": 11509549599, "lat": 49.7158383, "lon": 12.445689}, {"type": "node", "id": 11509549600, "lat": 49.7156047, "lon": 12.445152}, {"type": "node", "id": 11509549601, "lat": 49.7155479, "lon": 12.4452155}, {"type": "node", "id": 11509549602, "lat": 49.7153932, "lon": 12.4450641}, {"type": "node", "id": 11509549603, "lat": 49.7152165, "lon": 12.4449762}, {"type": "node", "id": 11509549604, "lat": 49.7152101, "lon": 12.4445125}, {"type": "node", "id": 11509549605, "lat": 49.7152165, "lon": 12.4444002}, {"type": "node", "id": 11509549606, "lat": 49.7152512, "lon": 12.4439852}, {"type": "node", "id": 11509549607, "lat": 49.7152733, "lon": 12.4436679}, {"type": "node", "id": 11509549608, "lat": 49.7152449, "lon": 12.443541}, {"type": "node", "id": 11509549609, "lat": 49.714986, "lon": 12.4437607}, {"type": "node", "id": 11509549610, "lat": 49.7148692, "lon": 12.4430967}, {"type": "node", "id": 11509549611, "lat": 49.7146199, "lon": 12.4432383}, {"type": "node", "id": 11509549612, "lat": 49.7145473, "lon": 12.4428966}, {"type": "node", "id": 11509549613, "lat": 49.7145504, "lon": 12.4425109}, {"type": "node", "id": 11509549614, "lat": 49.7144399, "lon": 12.4423449}, {"type": "node", "id": 11509549615, "lat": 49.7142663, "lon": 12.4422473}, {"type": "node", "id": 11509549616, "lat": 49.7136003, "lon": 12.444117}, {"type": "node", "id": 11509549617, "lat": 49.7136066, "lon": 12.4442537}, {"type": "node", "id": 11509549618, "lat": 49.7133762, "lon": 12.4445418}, {"type": "node", "id": 11509549619, "lat": 49.7133888, "lon": 12.4447322}, {"type": "node", "id": 11509549620, "lat": 49.713635, "lon": 12.4452057}, {"type": "node", "id": 11509549621, "lat": 49.7138654, "lon": 12.4449274}, {"type": "node", "id": 11509549622, "lat": 49.7140201, "lon": 12.4451715}, {"type": "node", "id": 11509549623, "lat": 49.7141716, "lon": 12.4451959}, {"type": "node", "id": 11509549624, "lat": 49.7143326, "lon": 12.4454937}, {"type": "node", "id": 11509549625, "lat": 49.7143516, "lon": 12.4455181}, {"type": "node", "id": 11509549626, "lat": 49.7143737, "lon": 12.4455669}, {"type": "node", "id": 11509549627, "lat": 49.713957, "lon": 12.4464701}, {"type": "node", "id": 11509549628, "lat": 49.7138812, "lon": 12.4468558}, {"type": "node", "id": 11509549629, "lat": 49.7138939, "lon": 12.4469485}, {"type": "node", "id": 11509549630, "lat": 49.7140391, "lon": 12.4470266}, {"type": "node", "id": 11509549631, "lat": 49.7141811, "lon": 12.4470022}, {"type": "node", "id": 11509549632, "lat": 49.7141828, "lon": 12.446958}, {"type": "node", "id": 11509549633, "lat": 49.7142784, "lon": 12.4469142}, {"type": "node", "id": 11509549634, "lat": 49.7142769, "lon": 12.4468911}, {"type": "node", "id": 11509549635, "lat": 49.7143306, "lon": 12.4468703}, {"type": "node", "id": 11509549636, "lat": 49.7143486, "lon": 12.4469904}, {"type": "node", "id": 11509549637, "lat": 49.7146113, "lon": 12.4467433}, {"type": "node", "id": 11509549638, "lat": 49.7144814, "lon": 12.4463461}, {"type": "node", "id": 11509549639, "lat": 49.7147039, "lon": 12.4461452}, {"type": "node", "id": 11509549640, "lat": 49.7149607, "lon": 12.4457826}, {"type": "node", "id": 11509549641, "lat": 49.7150548, "lon": 12.4457272}, {"type": "node", "id": 11509549642, "lat": 49.7153191, "lon": 12.4456233}, {"type": "node", "id": 11509549643, "lat": 49.715564, "lon": 12.4459189}, {"type": "node", "id": 11509549644, "lat": 49.7158387, "lon": 12.4464408}, {"type": "node", "id": 11509549645, "lat": 49.7160074, "lon": 12.4466763}, {"type": "node", "id": 11509549646, "lat": 49.7161985, "lon": 12.4468356}, {"type": "node", "id": 11509549647, "lat": 49.7163359, "lon": 12.4470111}, {"type": "node", "id": 11509549648, "lat": 49.7165464, "lon": 12.447189}, {"type": "node", "id": 11509549649, "lat": 49.7164718, "lon": 12.4473044}, {"type": "node", "id": 11509549650, "lat": 49.716533, "lon": 12.4474661}, {"type": "node", "id": 11509549651, "lat": 49.716527, "lon": 12.4477039}, {"type": "node", "id": 11509549652, "lat": 49.7165808, "lon": 12.4478125}, {"type": "node", "id": 11509549653, "lat": 49.7165285, "lon": 12.447921}, {"type": "node", "id": 11509549654, "lat": 49.7165748, "lon": 12.4480157}, {"type": "node", "id": 11509549655, "lat": 49.7166942, "lon": 12.4478448}, {"type": "node", "id": 11509549656, "lat": 49.7167243, "lon": 12.4478931}, {"type": "node", "id": 11509549829, "lat": 49.6946873, "lon": 12.5118651}, {"type": "node", "id": 11509549830, "lat": 49.6944433, "lon": 12.5116951}, {"type": "node", "id": 11509549831, "lat": 49.6941994, "lon": 12.5114323}, {"type": "node", "id": 11509549832, "lat": 49.6940794, "lon": 12.5113489}, {"type": "node", "id": 11509549833, "lat": 49.6940634, "lon": 12.5115127}, {"type": "node", "id": 11509549834, "lat": 49.69363, "lon": 12.5114812}, {"type": "node", "id": 11509549835, "lat": 49.6934146, "lon": 12.5114252}, {"type": "node", "id": 11509549836, "lat": 49.6931335, "lon": 12.5115189}, {"type": "node", "id": 11509549837, "lat": 49.6928834, "lon": 12.5116691}, {"type": "node", "id": 11509549838, "lat": 49.6927947, "lon": 12.5116744}, {"type": "node", "id": 11509549839, "lat": 49.6927413, "lon": 12.5117916}, {"type": "node", "id": 11509549840, "lat": 49.6927448, "lon": 12.5119246}, {"type": "node", "id": 11509549841, "lat": 49.6929066, "lon": 12.5119273}, {"type": "node", "id": 11509549842, "lat": 49.6931373, "lon": 12.5118368}, {"type": "node", "id": 11509549843, "lat": 49.6933525, "lon": 12.512087}, {"type": "node", "id": 11509549844, "lat": 49.6934608, "lon": 12.5124216}, {"type": "node", "id": 11509549845, "lat": 49.6937774, "lon": 12.5125566}, {"type": "node", "id": 11509549846, "lat": 49.6938707, "lon": 12.5132181}, {"type": "node", "id": 11509549847, "lat": 49.6940602, "lon": 12.5137077}, {"type": "node", "id": 11509549848, "lat": 49.6942021, "lon": 12.5143491}, {"type": "node", "id": 11509549849, "lat": 49.6944023, "lon": 12.5146867}, {"type": "node", "id": 11509549850, "lat": 49.6944132, "lon": 12.5150355}, {"type": "node", "id": 11509549851, "lat": 49.6939801, "lon": 12.5163465}, {"type": "node", "id": 11509549852, "lat": 49.6938018, "lon": 12.5171961}, {"type": "node", "id": 11509549853, "lat": 49.6940274, "lon": 12.517106}, {"type": "node", "id": 11509549854, "lat": 49.6943004, "lon": 12.5168528}, {"type": "node", "id": 11509549855, "lat": 49.6945843, "lon": 12.5160258}, {"type": "node", "id": 11509549856, "lat": 49.6946425, "lon": 12.5157557}, {"type": "node", "id": 11509549857, "lat": 49.6949737, "lon": 12.5148498}, {"type": "node", "id": 11509549858, "lat": 49.6954686, "lon": 12.514659}, {"type": "node", "id": 11509549859, "lat": 49.6955851, "lon": 12.5145637}, {"type": "node", "id": 11509549860, "lat": 49.6958554, "lon": 12.5143425}, {"type": "node", "id": 11509549861, "lat": 49.696046, "lon": 12.5135174}, {"type": "node", "id": 11509549862, "lat": 49.6961493, "lon": 12.513432}, {"type": "node", "id": 11509549863, "lat": 49.6961165, "lon": 12.5133363}, {"type": "node", "id": 11509549864, "lat": 49.6961092, "lon": 12.5127061}, {"type": "node", "id": 11509549865, "lat": 49.6960619, "lon": 12.5127399}, {"type": "node", "id": 11509549866, "lat": 49.6960001, "lon": 12.5126049}, {"type": "node", "id": 11509549867, "lat": 49.6959054, "lon": 12.5126611}, {"type": "node", "id": 11509549868, "lat": 49.6957417, "lon": 12.5127061}, {"type": "node", "id": 11509549869, "lat": 49.6952867, "lon": 12.5126555}, {"type": "node", "id": 11509549870, "lat": 49.6950793, "lon": 12.5126161}, {"type": "node", "id": 11509549871, "lat": 49.6962735, "lon": 12.5138473}, {"type": "node", "id": 11509549872, "lat": 49.6958247, "lon": 12.5142897}, {"type": "node", "id": 11509549873, "lat": 49.6951561, "lon": 12.5150596}, {"type": "node", "id": 11509549881, "lat": 49.7051966, "lon": 12.5578426, "tags": {"abandoned": "village", "abandoned:place": "village", "access": "yes", "archaeological_site": "settlement", "historic": "yes", "historic:civilization": "modern", "historic:place": "village", "name": "Zanikl\u00e1 ves \u017debr\u00e1ck\u00fd \u017d\u010f\u00e1r", "name:cs": "\u017debr\u00e1ck\u00fd \u017d\u010f\u00e1r", "name:de": "Petlarnbrand", "ruins": "village", "ruins:place": "village", "ruins:village": "ruins", "tourism": "attraction", "village:end_date": "1948"}}, {"type": "node", "id": 11509549882, "lat": 49.75162, "lon": 12.4191594, "tags": {"abandoned": "village", "abandoned:place": "village", "access": "yes", "archaeological_site": "settlement", "historic": "archaeological_site", "historic:civilization": "modern", "historic:place": "village", "name": "Zanikl\u00e1 ves Skl\u00e1\u0159e - Lesn\u00e1", "name:cs": "Skl\u00e1\u0159e", "name:de": "Neuwindischgratz", "ruins": "remnants", "ruins:place": "village", "ruins:village": "yes", "tourism": "attraction", "village:end_date": "1948", "wikipedia": "cs:Skl\u00e1\u0159e (Lesn\u00e1)"}}, {"type": "node", "id": 11509549883, "lat": 49.7052674, "lon": 12.505008, "tags": {"abandoned": "village", "abandoned:place": "village", "access": "yes", "archaeological_site": "settlement", "historic": "yes", "historic:civilization": "modern", "historic:place": "village", "name": "Zanikl\u00e1 ves Nov\u00e1 Hu\u0165", "name:cs": "Nov\u00e1 Hu\u0165", "name:de": "Neuh\u00fctte", "ruins": "village", "ruins:place": "village", "ruins:village": "remnants", "tourism": "attraction", "village:end_date": "1948"}}, {"type": "node", "id": 11509550091, "lat": 49.7471586, "lon": 12.4387705, "tags": {"abandoned": "village", "abandoned:place": "village", "access": "yes", "archaeological_site": "settlement", "historic": "ruins", "historic:civilization": "modern", "historic:place": "village", "name": "Zanikl\u00e1 ves Zlat\u00fd potok", "place": "locality", "ruins": "village", "ruins:place": "village", "ruins:village": "ruins", "tourism": "attraction", "village:end_date": "1948"}}, {"type": "node", "id": 11554157172, "lat": 49.6002052, "lon": 12.4317307}, {"type": "node", "id": 11554157173, "lat": 49.6002192, "lon": 12.431783}, {"type": "node", "id": 11554157174, "lat": 49.6002451, "lon": 12.4317665}, {"type": "node", "id": 11554157175, "lat": 49.6002312, "lon": 12.4317142}, {"type": "node", "id": 11753787544, "lat": 49.6576528, "lon": 12.5311706, "tags": {"board_type": "history", "information": "board", "name": "Bitva na Krvav\u00e9m poli 1621", "tourism": "information"}}, {"type": "node", "id": 11799926847, "lat": 49.619031, "lon": 12.4942291}, {"type": "node", "id": 11799926848, "lat": 49.6190006, "lon": 12.4941982}, {"type": "node", "id": 11799926849, "lat": 49.6190134, "lon": 12.4941681}, {"type": "node", "id": 11799926850, "lat": 49.6190439, "lon": 12.494199}, {"type": "node", "id": 11900647165, "lat": 49.6975628, "lon": 12.5849992, "tags": {"board_type": "nature", "information": "board", "name": "Soukrom\u00e1 p\u0159\u00edrodn\u00ed rezervace Kate\u0159insk\u00fd potok", "tourism": "information"}}, {"type": "node", "id": 11939106597, "lat": 49.716543, "lon": 12.4571654, "tags": {"board_type": "history", "description": "Nau\u010dn\u00e1 stezka skl\u00e1\u0159stv\u00ed v okol\u00ed Lesn\u00e9", "information": "board", "name": "Nen\u00ed les jako les, V\u00fdrobky m\u00edstn\u00edch skl\u00e1\u0159\u016f", "ref": "11", "tourism": "information"}}, {"type": "node", "id": 11945014791, "lat": 49.6364494, "lon": 12.5923611, "tags": {"end_date": "1952", "name": "Zanikl\u00e1 tov\u00e1rna na d\u0159ev\u011bn\u00e9 domky", "start_date": "1930", "tourism": "attraction"}}, {"type": "node", "id": 12048757457, "lat": 49.6473263, "lon": 12.503223}, {"type": "node", "id": 12048757459, "lat": 49.6473103, "lon": 12.5033094}, {"type": "node", "id": 12048757462, "lat": 49.6473004, "lon": 12.5032308}, {"type": "node", "id": 12158453677, "lat": 49.7516947, "lon": 12.5316781, "tags": {"board_type": "nature", "information": "board", "name": "CHKO \u010cesk\u00fd les", "tourism": "information"}}, {"type": "node", "id": 12158453683, "lat": 49.750096, "lon": 12.4558692, "tags": {"board_type": "nature", "description": "Skl\u00e1\u0159stv\u00ed v okol\u00ed Lesn\u00e9", "information": "board", "name": "Vegetace \u010cesk\u00e9ho lesa", "ref": "8", "tourism": "information"}}, {"type": "node", "id": 12158453684, "lat": 49.7455791, "lon": 12.4440311, "tags": {"bicycle": "yes", "information": "guidepost", "name": "Pod Ml\u00fdnsk\u00fdm vrchem", "operator": "cz:K\u010cT", "tourism": "information"}}, {"type": "node", "id": 12158453685, "lat": 49.7475845, "lon": 12.4371355, "tags": {"bicycle": "yes", "information": "guidepost", "name": "Zlat\u00fd potok", "operator": "cz:K\u010cT", "tourism": "information"}}, {"type": "node", "id": 12158453687, "lat": 49.7422268, "lon": 12.4500379, "tags": {"board_type": "history", "description": "Skl\u00e1\u0159stv\u00ed v okol\u00ed Lesn\u00e9", "information": "board", "name": "Skl\u00e1rna na Zlat\u00e9m potoce", "ref": "5", "tourism": "information"}}, {"type": "node", "id": 12158453688, "lat": 49.7421372, "lon": 12.4503818, "tags": {"bicycle": "yes", "information": "guidepost", "name": "U Kamenn\u00e9 h\u00e1jenky", "operator": "cz:K\u010cT", "tourism": "information"}}, {"type": "node", "id": 12158453689, "lat": 49.7348058, "lon": 12.4547518, "tags": {"bicycle": "yes", "information": "guidepost", "name": "Nov\u00e1 Kn\u00ed\u017eec\u00ed hu\u0165", "operator": "cz:K\u010cT", "tourism": "information"}}, {"type": "node", "id": 12158453690, "lat": 49.7348025, "lon": 12.4548166, "tags": {"board_type": "history", "information": "board", "name": "Zanikl\u00e1 obec Nov\u00e1 Kn\u00ed\u017eec\u00ed hu\u0165", "tourism": "information"}}, {"type": "node", "id": 12158453691, "lat": 49.734883, "lon": 12.4547887, "tags": {"board_type": "history", "description": "Skl\u00e1\u0159stv\u00ed v okol\u00ed Lesn\u00e9", "information": "board", "name": "Nov\u00e1 Kn\u00ed\u017eec\u00ed hu\u0165", "ref": "5", "tourism": "information"}}, {"type": "node", "id": 12158453692, "lat": 49.7333733, "lon": 12.458995, "tags": {"board_type": "history", "description": "Skl\u00e1\u0159stv\u00ed v okol\u00ed Lesn\u00e9", "information": "board", "name": "Skl\u00e1\u0159i - lid\u00e9 z les\u016f", "ref": "4", "tourism": "information"}}, {"type": "node", "id": 12158453693, "lat": 49.7312591, "lon": 12.4648545, "tags": {"board_type": "history", "description": "Skl\u00e1\u0159stv\u00ed v okol\u00ed Lesn\u00e9", "information": "board", "name": "Kor\u00e1lky", "ref": "3", "tourism": "information"}},