{"version": 0.6, "generator": "Overpass API 0.7.62.8 e802775f", "osm3s": {"timestamp_osm_base": "2026-01-04T12:16:29Z", "copyright": "The data included in this document is from www.openstreetmap.org. The data is made available under ODbL."}, "elements": [{"type": "node", "id": 49910338, "lat": 49.3207905, "lon": 13.1793921, "tags": {"internet_access": "no", "name": "Petrovice nad \u00dahlavou", "network": "Integrovan\u00e1 doprava Plze\u0148sk\u00e9ho kraje", "network:short": "IDPK", "network:wikidata": "Q12021682", "public_transport": "station", "railway": "halt", "train": "yes", "wikidata": "Q19401238"}}, {"type": "node", "id": 213423280, "lat": 49.6229073, "lon": 13.2919848, "tags": {"name": "Chlum\u010dany u Dob\u0159an", "network": "Integrovan\u00e1 doprava Plze\u0148sk\u00e9ho kraje", "network:short": "IDPK", "network:wikidata": "Q12021682", "official_name": "Chlum\u010dany u Dob\u0159an", "operator": "Spr\u00e1va \u017eeleznic", "operator:short": "S\u017d", "operator:wikidata": "Q1848025", "public_transport": "station", "railway": "station", "railway:ref": "753350", "train": "yes", "uic_ref": "5475335", "wikidata": "Q56324876"}}, {"type": "node", "id": 213423855, "lat": 49.4499771, "lon": 13.2868366, "tags": {"name": "Deht\u00edn", "railway": "halt", "wikidata": "Q19400554"}}, {"type": "node", "id": 213792824, "lat": 49.6361109, "lon": 13.1224884, "tags": {"name": "Hradec u Stoda", "railway": "halt", "wikidata": "Q66888498"}}, {"type": "node", "id": 213793054, "lat": 49.680519, "lon": 13.2157321, "tags": {"name": "Zb\u016fch", "railway": "halt", "wikidata": "Q18431800"}}, {"type": "node", "id": 213925187, "lat": 49.3719922, "lon": 13.0877408, "tags": {"name": "Dob\u0159\u00edkov na \u0160umav\u011b", "public_transport": "station", "railway": "station", "train": "yes", "wikidata": "Q19400568", "wikimedia_commons": "File:Dobrikov railway station.jpg"}}, {"type": "node", "id": 213925452, "lat": 49.3276327, "lon": 13.1578425, "tags": {"name": "\u00daborsko", "railway": "halt", "wikidata": "Q19401543"}}, {"type": "node", "id": 213925478, "lat": 49.3355032, "lon": 13.1779131, "tags": {"name": "Dubov\u00e1 Lhota", "railway": "halt", "wikidata": "Q19400601"}}, {"type": "node", "id": 226286117, "lat": 49.6575931, "lon": 13.5373648, "tags": {"name": "\u0160\u0165\u00e1hlavice", "network": "Integrovan\u00e1 doprava Plze\u0148sk\u00e9ho kraje", "network:short": "IDPK", "network:wikidata": "Q12021682", "official_name": "\u0160\u0165\u00e1hlavice z", "operator": "Spr\u00e1va \u017eeleznic", "operator:short": "S\u017d", "operator:wikidata": "Q1848025", "public_transport": "station", "railway": "halt", "railway:ref": "763953", "train": "yes", "uic_ref": "5476395", "wikidata": "Q66888510"}}, {"type": "node", "id": 226286219, "lat": 49.6641435, "lon": 13.5689457, "tags": {"name": "Kornatice rybn\u00edk", "network": "Integrovan\u00e1 doprava Plze\u0148sk\u00e9ho kraje", "network:short": "IDPK", "network:wikidata": "Q12021682", "official_name": "Kornatice rybn\u00edk z", "operator": "Spr\u00e1va \u017eeleznic", "operator:short": "S\u017d", "operator:wikidata": "Q1848025", "public_transport": "station", "railway": "halt", "railway:ref": "763854", "train": "yes", "uic_ref": "5476385", "wikidata": "Q66888512", "wikipedia": "cs:Kornatice rybn\u00edk"}}, {"type": "node", "id": 226286556, "lat": 49.6551302, "lon": 13.6230924, "tags": {"name": "Me\u0161no", "network": "Integrovan\u00e1 doprava Plze\u0148sk\u00e9ho kraje", "network:short": "IDPK", "network:wikidata": "Q12021682", "official_name": "Me\u0161no z", "operator": "Spr\u00e1va \u017eeleznic", "operator:short": "S\u017d", "operator:wikidata": "Q1848025", "public_transport": "station", "railway": "halt", "railway:ref": "763557", "train": "yes", "uic_ref": "5476355", "wikidata": "Q66888513"}}, {"type": "node", "id": 226286839, "lat": 49.670593, "lon": 13.665473, "tags": {"name": "P\u0159\u00edkosice zast\u00e1vka", "network": "Integrovan\u00e1 doprava Plze\u0148sk\u00e9ho kraje", "network:short": "IDPK", "network:wikidata": "Q12021682", "official_name": "P\u0159\u00edkosice zast\u00e1vka z", "operator": "Spr\u00e1va \u017eeleznic", "operator:short": "S\u017d", "operator:wikidata": "Q1848025", "public_transport": "station", "railway": "halt", "railway:ref": "763359", "train": "yes", "uic_ref": "5476335", "wikidata": "Q66888515"}}, {"type": "node", "id": 226287373, "lat": 49.4974472, "lon": 13.6088119, "tags": {"internet_access": "wlan", "name": "Nepomuk", "name:de": "Pomuk", "operator": "cz:S\u017d", "public_transport": "station", "railway": "station", "railway:ref": "739250", "train": "yes", "uic_ref": "5473925", "wikidata": "Q15886935"}}, {"type": "node", "id": 226347028, "lat": 49.3912301, "lon": 13.620494, "tags": {"name": "Pa\u010dejov", "operator": "cz:S\u017dDC", "railway": "station", "railway:ref": "738955", "wikidata": "Q15886975", "wikipedia": "cs:Pa\u010dejov (n\u00e1dra\u017e\u00ed)"}}, {"type": "node", "id": 226347147, "lat": 49.4383921, "lon": 13.6105286, "tags": {"name": "Nekvasovy", "operator": "cz:S\u017dDC", "railway": "halt", "railway:ref": "739052", "wikidata": "Q16581741"}}, {"type": "node", "id": 226384360, "lat": 49.3493988, "lon": 13.2998057, "tags": {"name": "Vrhave\u010d", "railway": "halt", "wikidata": "Q18430813"}}, {"type": "node", "id": 300524849, "lat": 49.352428, "lon": 13.203653, "tags": {"name": "Janovice nad \u00dahlavou", "name:cs": "Janovice nad \u00dahlavou", "name:de": "Janowitz an der Angel", "operator": "cz:S\u017dDC", "public_transport": "station", "railway": "station", "railway:ref": "737650", "wheelchair": "yes", "wikidata": "Q18180276"}}, {"type": "node", "id": 307395788, "lat": 49.6813028, "lon": 13.3237956, "tags": {"name": "Dob\u0159any zast\u00e1vka", "network": "Integrovan\u00e1 doprava Plze\u0148sk\u00e9ho kraje", "network:short": "IDPK", "network:wikidata": "Q12021682", "official_name": "Dob\u0159any zast\u00e1vka z", "operator": "Spr\u00e1va \u017eeleznic", "operator:short": "S\u017d", "operator:wikidata": "Q1848025", "public_transport": "station", "railway": "halt", "railway:ref": "769356", "train": "yes", "uic_ref": "5476935", "wikidata": "Q18180187"}}, {"type": "node", "id": 307395903, "lat": 49.6564766, "lon": 13.3032717, "tags": {"name": "Dob\u0159any", "name:cs": "Dob\u0159any", "name:de": "Dobrzan", "network": "Integrovan\u00e1 doprava Plze\u0148sk\u00e9ho kraje", "network:short": "IDPK", "network:wikidata": "Q12021682", "official_name": "Dob\u0159any", "operator": "Spr\u00e1va \u017eeleznic", "operator:short": "S\u017d", "operator:wikidata": "Q1848025", "public_transport": "station", "railway": "station", "railway:ref": "753251", "train": "yes", "uic_ref": "5475325", "wikidata": "Q18180186"}}, {"type": "node", "id": 307396448, "lat": 49.6007603, "lon": 13.2990707, "tags": {"name": "P\u0159e\u0161tice-Zast\u00e1vka", "network": "Integrovan\u00e1 doprava Plze\u0148sk\u00e9ho kraje", "network:short": "IDPK", "network:wikidata": "Q12021682", "official_name": "P\u0159e\u0161tice-Zast\u00e1vka z", "operator": "Spr\u00e1va \u017eeleznic", "operator:short": "S\u017d", "operator:wikidata": "Q1848025", "public_transport": "station", "railway": "halt", "railway:ref": "753459", "toilets": "no", "train": "yes", "uic_ref": "5475345", "wheelchair": "limited", "wikidata": "Q18433528"}}, {"type": "node", "id": 307396996, "lat": 49.5480702, "lon": 13.3145559, "tags": {"name": "Lu\u017eany", "operator": "cz:S\u017dDC", "railway": "station", "railway:ref": "753657", "wikidata": "Q18431701"}}, {"type": "node", "id": 307397654, "lat": 49.5272345, "lon": 13.2999472, "tags": {"name": "Borovy", "railway": "halt", "railway:ref": "753756", "wikidata": "Q18423528"}}, {"type": "node", "id": 307398182, "lat": 49.4958195, "lon": 13.3049584, "tags": {"name": "\u010cerven\u00e9 Po\u0159\u00ed\u010d\u00ed", "operator": "cz:S\u017dDC", "public_transport": "station", "railway": "halt", "railway:ref": "753855", "wikidata": "Q19400500"}}, {"type": "node", "id": 307400251, "lat": 49.4294812, "lon": 13.3093695, "tags": {"name": "To\u010dn\u00edk", "operator": "cz:S\u017dDC", "railway": "station", "railway:ref": "754150", "source": "Bing", "wheelchair": "yes", "wikidata": "Q18180548"}}, {"type": "node", "id": 307401382, "lat": 49.3804049, "lon": 13.2363169, "tags": {"name": "Bezd\u011bkov u Klatov", "operator": "cz:S\u017dDC", "railway": "halt", "railway:ref": "737551", "wikidata": "Q18534518"}}, {"type": "node", "id": 435238670, "lat": 49.6064769, "lon": 13.5170085, "tags": {"name": "Zdemyslice", "operator": "cz:S\u017dDC", "railway": "halt", "railway:ref": "739656", "wikidata": "Q16619830", "wikipedia": "cs:Zdemyslice (\u017eelezni\u010dn\u00ed zast\u00e1vka)"}}, {"type": "node", "id": 435248084, "lat": 49.5812151, "lon": 13.5313423, "tags": {"name": "Blovice", "operator": "cz:S\u017dDC", "public_transport": "station", "railway": "station", "railway:ref": "739557", "source": "survey", "wheelchair": "limited", "wikidata": "Q15886718"}}, {"type": "node", "id": 443518101, "lat": 49.5507871, "lon": 13.5739456, "tags": {"name": "\u017dd\u00edrec u Plzn\u011b", "operator": "cz:S\u017dDC", "railway": "station", "railway:ref": "739458", "wikidata": "Q16622440"}}, {"type": "node", "id": 443518104, "lat": 49.524667, "lon": 13.591767, "tags": {"name": "Srby", "operator": "cz:S\u017dDC", "railway": "halt", "railway:ref": "739359", "wikidata": "Q16605554"}}, {"type": "node", "id": 443518112, "lat": 49.4620248, "lon": 13.6083546, "tags": {"name": "Mile\u010d", "operator": "cz:S\u017dDC", "railway": "halt", "railway:ref": "739151", "wikidata": "Q16577343"}}, {"type": "node", "id": 443518181, "lat": 49.370103, "lon": 13.6655244, "tags": {"name": "Jetenovice", "operator": "cz:S\u017dDC", "railway": "halt", "railway:ref": "738856", "wikidata": "Q16563023"}}, {"type": "node", "id": 478738717, "lat": 49.6570097, "lon": 13.1982551, "tags": {"name": "Chot\u011b\u0161ov u Stoda", "railway": "halt", "wikidata": "Q18613949"}}, {"type": "node", "id": 706355311, "lat": 49.4629314, "lon": 13.665999, "tags": {"name": "Kotou\u0148", "operator": "cz:S\u017dDC", "railway": "halt", "railway:ref": "746636", "wikidata": "Q66888526"}}, {"type": "node", "id": 706355425, "lat": 49.4634077, "lon": 13.691348, "tags": {"name": "\u017divotice", "operator": "cz:S\u017dDC", "railway": "halt", "railway:ref": "746735", "wikidata": "Q66888528"}}, {"type": "node", "id": 706369838, "lat": 49.4819195, "lon": 13.6144241, "tags": {"name": "T\u0159eb\u010dice", "operator": "cz:S\u017d", "railway": "halt", "railway:ref": "746438", "wikidata": "Q66888529"}}, {"type": "node", "id": 706369961, "lat": 49.4690656, "lon": 13.6304832, "tags": {"name": "\u017delvice", "operator": "cz:S\u017dDC", "railway": "halt", "railway:ref": "746537", "wikidata": "Q66888531"}}, {"type": "node", "id": 877284901, "lat": 49.7135627, "lon": 13.6534587, "tags": {"name": "Hr\u00e1dek u Rokycan", "network": "Integrovan\u00e1 doprava Plze\u0148sk\u00e9ho kraje", "network:short": "IDPK", "network:wikidata": "Q12021682", "official_name": "Hr\u00e1dek u Rokycan z", "operator": "Spr\u00e1va \u017eeleznic", "operator:short": "S\u017d", "operator:wikidata": "Q1848025", "public_transport": "station", "railway": "halt", "railway:ref": "763052", "train": "yes", "uic_ref": "5476305", "wikidata": "Q56324857"}}, {"type": "node", "id": 877284908, "lat": 49.6448448, "lon": 13.6098814, "tags": {"name": "Lipnice", "network": "Integrovan\u00e1 doprava Plze\u0148sk\u00e9ho kraje", "network:short": "IDPK", "network:wikidata": "Q12021682", "official_name": "Lipnice z", "operator": "Spr\u00e1va \u017eeleznic", "operator:short": "S\u017d", "operator:wikidata": "Q1848025", "public_transport": "station", "railway": "halt", "railway:ref": "763656", "train": "yes", "uic_ref": "5476365", "wikidata": "Q66888534"}}, {"type": "node", "id": 877284913, "lat": 49.7171437, "lon": 13.6376366, "tags": {"name": "Nov\u00e1 Hu\u0165", "network": "Integrovan\u00e1 doprava Plze\u0148sk\u00e9ho kraje", "network:short": "IDPK", "network:wikidata": "Q12021682", "official_name": "Nov\u00e1 Hu\u0165 z", "operator": "Spr\u00e1va \u017eeleznic", "operator:short": "S\u017d", "operator:wikidata": "Q1848025", "public_transport": "station", "railway": "halt", "railway:ref": "762955", "railway:ref:parent": "732057", "train": "yes", "uic_ref": "5476295", "wikidata": "Q66888536"}}, {"type": "node", "id": 877284916, "lat": 49.6553706, "lon": 13.588687, "tags": {"name": "Kornatice", "network": "Integrovan\u00e1 doprava Plze\u0148sk\u00e9ho kraje", "network:short": "IDPK", "network:wikidata": "Q12021682", "official_name": "Kornatice z", "operator": "Spr\u00e1va \u017eeleznic", "operator:short": "S\u017d", "operator:wikidata": "Q1848025", "public_transport": "station", "railway": "halt", "railway:ref": "763755", "train": "yes", "uic_ref": "5476375", "wikidata": "Q66888538"}}, {"type": "node", "id": 877284917, "lat": 49.7002156, "lon": 13.6664705, "tags": {"name": "Miro\u0161ov", "network": "Integrovan\u00e1 doprava Plze\u0148sk\u00e9ho kraje", "network:short": "IDPK", "network:wikidata": "Q12021682", "official_name": "Miro\u0161ov", "operator": "Spr\u00e1va \u017eeleznic", "operator:short": "S\u017d", "operator:wikidata": "Q1848025", "public_transport": "station", "railway": "station", "railway:ref": "763151", "train": "yes", "uic_ref": "5476315", "wikidata": "Q18180409", "wikipedia": "cs:Miro\u0161ov (n\u00e1dra\u017e\u00ed)"}}, {"type": "node", "id": 889076141, "lat": 49.3463847, "lon": 13.1354786, "tags": {"addr:city": "Pocinovice", "addr:postcode": "34509", "internet_access": "no", "name": "Pocinovice", "operator": "Spr\u00e1va \u017eeleznic s.p.", "public_transport": "station", "railway": "station", "train": "yes", "wikidata": "Q18180463"}}, {"type": "node", "id": 889078558, "lat": 49.3657967, "lon": 13.1154691, "tags": {"name": "Lou\u010dim", "railway": "halt", "wikidata": "Q18431669"}}, {"type": "node", "id": 889080282, "lat": 49.3650774, "lon": 13.0675591, "tags": {"name": "Chodsk\u00e1 Lhota", "railway": "halt", "wikidata": "Q19400513"}}, {"type": "node", "id": 913890153, "lat": 49.5973247, "lon": 13.1014134, "tags": {"name": "Hol\u00fd\u0161ov", "name:cs": "Hol\u00fd\u0161ov", "name:de": "Holeischen", "railway": "station", "wheelchair": "yes", "wikidata": "Q66827560"}}, {"type": "node", "id": 948377477, "lat": 49.5476106, "lon": 13.0718102, "tags": {"name": "Sta\u0148kov", "name:cs": "Sta\u0148kov", "name:de": "Stankau", "railway": "station", "wikidata": "Q18180520"}}, {"type": "node", "id": 948702974, "lat": 49.5804104, "lon": 13.0931775, "tags": {"name": "Doln\u00ed Kamenice", "railway": "halt", "wikidata": "Q66888542"}}, {"type": "node", "id": 966246360, "lat": 49.3864396, "lon": 13.2940842, "tags": {"name": "Klatovy m\u011bsto", "name:cs": "Klatovy m\u011bsto", "name:de": "Klattau Stadt", "public_transport": "station", "railway": "halt", "train": "yes", "wikidata": "Q18180325"}}, {"type": "node", "id": 966246393, "lat": 49.3260882, "lon": 13.2994591, "tags": {"name": "Nezna\u0161ovy", "railway": "halt", "wikidata": "Q19401026"}}, {"type": "node", "id": 966246408, "lat": 49.3647971, "lon": 13.3060442, "tags": {"name": "Luby u Klatov", "railway": "station", "wikidata": "Q18180394"}}, {"type": "node", "id": 996381044, "lat": 49.4014745, "lon": 13.2741198, "tags": {"name": "Klatovy", "name:cs": "Klatovy", "name:de": "Klattau", "network": "Integrovan\u00e1 doprava Plze\u0148sk\u00e9ho kraje", "network:short": "IDPK", "network:wikidata": "Q12021682", "operator": "cz:S\u017dDC", "public_transport": "station", "railway": "station", "railway:ref": "737452", "train": "yes", "wheelchair": "limited", "wikidata": "Q18180324"}}, {"type": "node", "id": 1456170500, "lat": 49.6914421, "lon": 13.4650644}, {"type": "node", "id": 1559493457, "lat": 49.6913298, "lon": 13.465351}, {"type": "node", "id": 1559493463, "lat": 49.6913631, "lon": 13.4650507}, {"type": "node", "id": 1559493469, "lat": 49.691389, "lon": 13.4652986}, {"type": "node", "id": 1559493489, "lat": 49.6914113, "lon": 13.4650159}, {"type": "node", "id": 1559493490, "lat": 49.6914082, "lon": 13.4650585}, {"type": "node", "id": 1559493491, "lat": 49.6914112, "lon": 13.465365}, {"type": "node", "id": 1559493492, "lat": 49.6914157, "lon": 13.4653032}, {"type": "node", "id": 1559493514, "lat": 49.6914265, "lon": 13.4652777}, {"type": "node", "id": 1960737123, "lat": 49.6898341, "lon": 13.6629939, "tags": {"name": "Miro\u0161ov m\u011bsto", "network": "Integrovan\u00e1 doprava Plze\u0148sk\u00e9ho kraje", "network:short": "IDPK", "network:wikidata": "Q12021682", "note": "Z hlediska S\u017d se nejedn\u00e1 o zast\u00e1vku, ale kolejovou skupinu", "official_name": "Miro\u0161ov m\u011bsto", "operator": "Spr\u00e1va \u017eeleznic", "operator:short": "S\u017d", "operator:wikidata": "Q1848025", "public_transport": "station", "railway": "halt", "railway:ref": "763250", "railway:ref:parent": "763151", "train": "yes", "uic_ref": "5476325", "wikidata": "Q66888563"}}, {"type": "node", "id": 2384735188, "lat": 49.4137243, "lon": 13.6129497, "tags": {"name": "Kov\u010d\u00edn", "operator": "cz:S\u017dDC", "platforms": "2", "railway": "halt", "railway:ref": "738963", "wikidata": "Q16568101"}}, {"type": "node", "id": 2784266455, "lat": 49.3987513, "lon": 13.2888295}, {"type": "node", "id": 2784266457, "lat": 49.3987316, "lon": 13.2888533}, {"type": "node", "id": 4817950733, "lat": 49.6397228, "lon": 13.1551987, "tags": {"name": "Stod", "name:cs": "Stod", "name:de": "Staab", "public_transport": "station", "railway": "station", "wheelchair": "limited", "wikidata": "Q18180527"}}, {"type": "node", "id": 5602253913, "lat": 49.6630375, "lon": 13.6514361, "tags": {"name": "P\u0159\u00edkosice", "network": "Integrovan\u00e1 doprava Plze\u0148sk\u00e9ho kraje", "network:short": "IDPK", "network:wikidata": "Q12021682", "official_name": "P\u0159\u00edkosice", "operator": "Spr\u00e1va \u017eeleznic", "operator:short": "S\u017d", "operator:wikidata": "Q1848025", "public_transport": "station", "railway": "station", "railway:ref": "763458", "train": "yes", "uic_ref": "5476345", "wikidata": "Q66888565"}}, {"type": "node", "id": 5650947004, "lat": 49.6693924, "lon": 13.5033793, "tags": {"name": "\u0160\u0165\u00e1hlavy", "name:cs": "\u0160\u0165\u00e1hlavy", "name:de": "Stiahlau", "network": "Integrovan\u00e1 doprava Plze\u0148sk\u00e9ho kraje", "network:short": "IDPK", "network:wikidata": "Q12021682", "official_name": "\u0160\u0165\u00e1hlavy z", "operator": "Spr\u00e1va \u017eeleznic", "operator:short": "S\u017d", "operator:wikidata": "Q1848025", "public_transport": "station", "railway": "halt", "railway:ref": "739755", "train": "yes", "uic_ref": "5473975", "wikidata": "Q16622152"}}, {"type": "node", "id": 5673497190, "lat": 49.6424858, "lon": 13.5167867, "tags": {"name": "Nezv\u011bstice", "network": "Integrovan\u00e1 doprava Plze\u0148sk\u00e9ho kraje", "network:short": "IDPK", "network:wikidata": "Q12021682", "official_name": "Nezv\u011bstice", "operator": "Spr\u00e1va \u017eeleznic", "operator:short": "S\u017d", "operator:wikidata": "Q1848025", "public_transport": "station", "railway": "station", "railway:ref": "764050", "train": "yes", "uic_ref": "5476405", "wheelchair": "limited", "wikidata": "Q15886938"}}, {"type": "node", "id": 5673497191, "lat": 49.6953595, "lon": 13.4780657, "tags": {"name": "Star\u00fd Plzenec", "network": "Integrovan\u00e1 doprava Plze\u0148sk\u00e9ho kraje", "network:short": "IDPK", "network:wikidata": "Q12021682", "official_name": "Star\u00fd Plzenec", "operator": "Spr\u00e1va \u017eeleznic", "operator:short": "S\u017d", "operator:wikidata": "Q1848025", "public_transport": "station", "railway": "station", "railway:ref": "739854", "train": "yes", "uic_ref": "5473985", "wikidata": "Q15887079"}}, {"type": "node", "id": 5674299854, "lat": 49.5751808, "lon": 13.3228273, "tags": {"name": "P\u0159e\u0161tice", "name:cs": "P\u0159e\u0161tice", "name:de": "Pschestitz", "network": "Integrovan\u00e1 doprava Plze\u0148sk\u00e9ho kraje", "network:short": "IDPK", "network:wikidata": "Q12021682", "official_name": "P\u0159e\u0161tice", "operator": "Spr\u00e1va \u017eeleznic", "operator:short": "S\u017d", "operator:wikidata": "Q1848025", "public_transport": "station", "railway": "station", "railway:ref": "753558", "train": "yes", "uic_ref": "5475355", "wikidata": "Q18180474"}}, {"type": "node", "id": 5674304402, "lat": 49.4737402, "lon": 13.2907478, "tags": {"name": "\u0160vihov u Klatov", "name:cs": "\u0160vihov u Klatov", "name:de": "Schwihau bei Klattau", "operator": "cz:S\u017dDC", "railway": "station", "railway:ref": "753954", "uic_ref": "5475395", "wikidata": "Q29944731", "wikipedia": "cs:\u0160vihov u Klatov (n\u00e1dra\u017e\u00ed)"}}, {"type": "node", "id": 6172661973, "lat": 49.6398808, "lon": 13.1562634, "tags": {"amenity": "bus_station", "bus": "yes", "name": "Stod, \u017eel.st.", "public_transport": "station", "shelter": "yes", "source": "survey", "wheelchair": "yes"}}, {"type": "node", "id": 7098010470, "lat": 49.5748586, "lon": 13.3228594}, {"type": "node", "id": 7098010471, "lat": 49.5743271, "lon": 13.3230135}, {"type": "node", "id": 7098010472, "lat": 49.5742986, "lon": 13.3232536}, {"type": "node", "id": 7098010473, "lat": 49.5748194, "lon": 13.3230968}, {"type": "node", "id": 7228471219, "lat": 49.708982, "lon": 13.1703507, "tags": {"name": "DIOSS", "railway": "halt", "train": "yes"}}, {"type": "node", "id": 7660374425, "lat": 49.691391, "lon": 13.4652715}, {"type": "node", "id": 7674025670, "lat": 49.6913662, "lon": 13.4650081}, {"type": "node", "id": 7674025671, "lat": 49.6913292, "lon": 13.4650449}, {"type": "node", "id": 7674025672, "lat": 49.6913136, "lon": 13.4652581}, {"type": "node", "id": 7674025673, "lat": 49.6913363, "lon": 13.465262}, {"type": "node", "id": 7903290191, "lat": 49.4015933, "lon": 13.2759327, "tags": {"barrier": "gate"}}, {"type": "node", "id": 7903290194, "lat": 49.4015617, "lon": 13.2757662}, {"type": "node", "id": 8065465853, "lat": 49.3989334, "lon": 13.2885982}, {"type": "node", "id": 8065465854, "lat": 49.3990046, "lon": 13.288507}, {"type": "node", "id": 8065465861, "lat": 49.3986402, "lon": 13.2889429}, {"type": "node", "id": 8065465862, "lat": 49.3986777, "lon": 13.2889093}, {"type": "node", "id": 8065465864, "lat": 49.3989827, "lon": 13.2884574}, {"type": "node", "id": 8065465866, "lat": 49.3988239, "lon": 13.2886586}, {"type": "node", "id": 8065465867, "lat": 49.3986149, "lon": 13.2889107}, {"type": "node", "id": 9545664919, "lat": 49.5744649, "lon": 13.3229039}, {"type": "node", "id": 9545664920, "lat": 49.5748504, "lon": 13.3227921}, {"type": "node", "id": 9545664921, "lat": 49.5744731, "lon": 13.3229712}, {"type": "node", "id": 9545664922, "lat": 49.5742185, "lon": 13.3230626}, {"type": "node", "id": 9545664923, "lat": 49.5740489, "lon": 13.3232269}, {"type": "node", "id": 9545664924, "lat": 49.5741772, "lon": 13.3230874}, {"type": "node", "id": 9545664925, "lat": 49.5741815, "lon": 13.3232906}, {"type": "node", "id": 10053889166, "lat": 49.5748528, "lon": 13.3228946}, {"type": "node", "id": 10576820627, "lat": 49.7085416, "lon": 13.1989831, "tags": {"addr:country": "CZ", "alt_name": "B\u00fdval\u00e1 \u017eelezni\u010dn\u00ed zast\u00e1vka N\u00fd\u0159any-zast\u00e1vka", "check_date": "2024", "disused:public_transport": "station", "disused:railway": "halt", "image": "https://d34-a.sdn.cz/d_34/c_img_QL_x/jxI9FE.jpeg?fl=rot,270,0|res,2200,2200,1", "name": "N\u00fd\u0159any-zast\u00e1vka", "railway": "halt", "train": "no"}}, {"type": "node", "id": 10576820628, "lat": 49.7077535, "lon": 13.1876561, "tags": {"name": "Na Humboldtce", "railway": "halt", "train": "yes"}}, {"type": "node", "id": 10922416087, "lat": 49.3989782, "lon": 13.2884634, "tags": {"bus": "yes", "local_ref": "4", "name": "Klatovy, Tylovo n\u00e1b\u0159.", "public_transport": "stop_position"}}, {"type": "node", "id": 10922416088, "lat": 49.398899, "lon": 13.2885648, "tags": {"bus": "yes", "local_ref": "3", "public_transport": "stop_position"}}, {"type": "node", "id": 10922416089, "lat": 49.3988039, "lon": 13.2886827, "tags": {"bus": "yes", "local_ref": "2", "public_transport": "stop_position"}}, {"type": "node", "id": 10922416090, "lat": 49.3987203, "lon": 13.2887836, "tags": {"bus": "yes", "local_ref": "1", "public_transport": "stop_position"}}, {"type": "node", "id": 12632835183, "lat": 49.3989054, "lon": 13.2886328}, {"type": "node", "id": 12632835191, "lat": 49.3988964, "lon": 13.2886439}, {"type": "node", "id": 13142230245, "lat": 49.4013708, "lon": 13.274763}, {"type": "node", "id": 13142230247, "lat": 49.4019817, "lon": 13.2779742}, {"type": "node", "id": 13373443364, "lat": 49.400965, "lon": 13.2749453}, {"type": "node", "id": 13373443365, "lat": 49.4015759, "lon": 13.2781565}, {"type": "way", "id": 142503540, "nodes": [1559493489, 1559493490, 1456170500, 1559493514, 7660374425, 1559493469, 1559493492, 1559493491, 1559493457, 7674025673, 7674025672, 7674025671, 1559493463, 7674025670, 1559493489], "tags": {"addr:city": "Star\u00fd Plzenec", "addr:conscriptionnumber": "838", "addr:country": "CZ", "addr:housenumber": "838", "addr:place": "Star\u00fd Plzenec", "addr:postcode": "33202", "addr:street": "Andrej\u0161ky", "building": "civic", "building:ruian:type": "15", "name": "Plzeneck\u00e1 \u017eeleznice", "public_transport": "station", "railway": "station", "ref:ruian:addr": "1084674", "ref:ruian:building": "1082442", "source": "cuzk:ruian", "source_1": "http://www.plzeneckazeleznice.cz/", "train": "yes"}}, {"type": "way", "id": 759820326, "nodes": [7098010470, 9545664920, 9545664919, 9545664921, 7098010471, 9545664922, 9545664924, 9545664923, 9545664925, 7098010472, 7098010473, 10053889166, 7098010470], "tags": {"amenity": "bus_station", "bus": "yes", "name": "P\u0159e\u0161tice,,\u017eel.st.", "public_transport": "station"}}, {"type": "way", "id": 888140670, "nodes": [8065465853, 8065465854, 8065465864, 10922416087, 10922416088, 8065465866, 10922416089, 10922416090, 8065465867, 8065465861, 8065465862, 2784266457, 2784266455, 12632835191, 12632835183, 8065465853], "tags": {"amenity": "bus_station", "bus": "yes", "name": "Klatovy,Tylovo n\u00e1b\u0159.", "public_transport": "station"}}, {"type": "way", "id": 1458225786, "nodes": [7903290194, 7903290191, 13142230247, 13373443365, 13373443364, 13142230245, 7903290194], "tags": {"amenity": "bus_station", "bus": "yes", "name": "Klatovy, Termin\u00e1l-n\u00e1dra\u017e\u00ed", "public_transport": "station"}}]}