{"version": 0.6, "generator": "Overpass API 0.7.62.8 e802775f", "osm3s": {"timestamp_osm_base": "2026-01-05T16:47:45Z", "copyright": "The data included in this document is from www.openstreetmap.org. The data is made available under ODbL."}, "elements": [{"type": "node", "id": 253852019, "lat": 49.5067226, "lon": 14.5885458, "tags": {"hiking": "yes", "information": "guidepost", "name": "Kamenn\u00e1 Lhota", "operator": "cz:K\u010cT", "ref": "1280/6,5", "tourism": "information"}}, {"type": "node", "id": 614885515, "lat": 49.5431832, "lon": 14.5023869, "tags": {"ele": "723", "name": "Javorov\u00e1 sk\u00e1la", "natural": "peak", "source": "uhul:wms;cs.wikipedia.org", "wikidata": "Q12024293", "wikipedia": "cs:Javorov\u00e1 sk\u00e1la"}}, {"type": "node", "id": 720610771, "lat": 49.3595228, "lon": 14.5850857, "tags": {"ele": "498", "hiking": "yes", "information": "guidepost", "name": "Mal\u0161ice(\u017est)", "operator": "cz:K\u010cT", "ref": "TA026", "tourism": "information"}}, {"type": "node", "id": 1502900182, "lat": 49.4965032, "lon": 14.4431925, "tags": {"hiking": "yes", "information": "guidepost", "name": "Kloko\u010dov", "operator": "cz:K\u010cT", "ref": "MI075;1292/2,5", "tourism": "information"}}, {"type": "node", "id": 1502900184, "lat": 49.4815932, "lon": 14.4418185, "tags": {"ele": "460", "hiking": "yes", "information": "guidepost", "name": "Vlksice", "operator": "cz:K\u010cT", "ref": "MI276", "tourism": "information"}}, {"type": "node", "id": 1502900190, "lat": 49.4954046, "lon": 14.416976, "tags": {"ele": "575", "hiking": "yes", "information": "guidepost", "name": "Zr\u016fbek (rozc.)", "operator": "cz:K\u010cT", "ref": "MI074", "tourism": "information"}}, {"type": "node", "id": 1519320787, "lat": 49.4156344, "lon": 14.4272493, "tags": {"ele": "425", "hiking": "yes", "information": "guidepost", "name": "Farka (ryb.) t\u00e9\u017e Tovary\u0161", "operator": "cz:K\u010cT", "ref": "MI273", "tourism": "information"}}, {"type": "node", "id": 1519320790, "lat": 49.402567, "lon": 14.444023, "tags": {"hiking": "yes", "information": "guidepost", "name": "H\u00e1nov", "operator": "cz:K\u010cT", "ref": "MI272", "tourism": "information"}}, {"type": "node", "id": 1519320803, "lat": 49.4279737, "lon": 14.417574, "tags": {"ele": "440", "hiking": "yes", "information": "guidepost", "name": "Sepekov (n\u00e1m.)", "operator": "cz:K\u010cT", "ref": "MI104", "tourism": "information"}}, {"type": "node", "id": 1519321937, "lat": 49.4799449, "lon": 14.418533, "tags": {"ele": "570", "hiking": "yes", "information": "guidepost", "name": "P\u0159e\u0161t\u011bnice", "operator": "cz:K\u010cT", "ref": "MI097", "tourism": "information"}}, {"type": "node", "id": 1520184295, "lat": 49.3624611, "lon": 14.5786842, "tags": {"ele": "502", "hiking": "yes", "information": "guidepost", "name": "Mal\u0161ice(n\u00e1m.)", "operator": "cz:K\u010cT", "ref": "TA027", "tourism": "information"}}, {"type": "node", "id": 1520184925, "lat": 49.3617723, "lon": 14.5328747, "tags": {"ele": "465", "hiking": "yes", "information": "guidepost", "name": "Dob\u0159ejice", "operator": "cz:K\u010cT", "ref": "TA285", "tourism": "information"}}, {"type": "node", "id": 1528679926, "lat": 49.4903155, "lon": 14.5953591, "tags": {"ele": "605", "hiking": "yes", "information": "guidepost", "name": "Pikov", "operator": "cz:K\u010cT", "ref": "TA280", "tourism": "information"}}, {"type": "node", "id": 1528679932, "lat": 49.4463804, "lon": 14.5998443, "tags": {"ele": "495", "hiking": "yes", "information": "guidepost", "name": "Balkova Lhota \u017est", "operator": "cz:K\u010cT", "ref": "TA277", "source": "survey", "tourism": "information"}}, {"type": "node", "id": 1543372612, "lat": 49.521766, "lon": 14.5342316, "tags": {"ele": "640", "hiking": "yes", "information": "guidepost", "name": "Brtn\u00fd (bus)", "operator": "cz:K\u010cT", "ref": "TA168", "source": "survey", "tourism": "information"}}, {"type": "node", "id": 1543372628, "lat": 49.5267123, "lon": 14.5725901, "tags": {"ele": "641", "hiking": "yes", "information": "guidepost", "name": "Libenice", "operator": "cz:K\u010cT", "ref": "BN306", "source": "survey", "tourism": "information"}}, {"type": "node", "id": 1543372642, "lat": 49.513444, "lon": 14.5403872, "tags": {"hiking": "yes", "information": "guidepost", "name": "Stru\u017einec", "operator": "cz:K\u010cT", "ref": "TA167", "tourism": "information"}}, {"type": "node", "id": 1543372650, "lat": 49.5016223, "lon": 14.5313117, "tags": {"ele": "598", "hiking": "yes", "information": "guidepost", "name": "Velk\u00e1 Kaplice (ryb.)", "operator": "cz:K\u010cT", "ref": "TA166", "tourism": "information"}}, {"type": "node", "id": 1543372767, "lat": 49.4858045, "lon": 14.5280595, "tags": {"ele": "490", "hiking": "yes", "information": "guidepost", "name": "Jistebnice", "operator": "cz:K\u010cT", "ref": "TA165", "ski": "yes", "source": "survey", "tourism": "information"}}, {"type": "node", "id": 1543373780, "lat": 49.5318902, "lon": 14.5188787, "tags": {"ele": "647", "hiking": "yes", "information": "guidepost", "name": "Cunkov", "operator": "cz:K\u010cT", "ref": "BN174", "source": "survey", "tourism": "information"}}, {"type": "node", "id": 1556386398, "lat": 49.3787015, "lon": 14.4966767, "tags": {"ele": "450", "hiking": "yes", "information": "guidepost", "name": "St\u00e1dlec", "operator": "cz:K\u010cT", "ref": "6305/9", "source": "survey", "tourism": "information"}}, {"type": "node", "id": 1556386401, "lat": 49.3831749, "lon": 14.457606, "tags": {"hiking": "yes", "information": "guidepost", "name": "U Srl\u00edna", "operator": "cz:K\u010cT", "ref": "TA289", "tourism": "information"}}, {"type": "node", "id": 1564375352, "lat": 49.4751705, "lon": 14.5737061, "tags": {"hiking": "yes", "information": "guidepost", "name": "U Bej\u0161ova (rozc.)", "operator": "cz:K\u010cT", "ref": "TA200", "source": "survey", "tourism": "information"}}, {"type": "node", "id": 1826096552, "lat": 49.367743, "lon": 14.513464, "tags": {"ele": "370", "hiking": "yes", "information": "guidepost", "name": "\u0158et\u011bzov\u00fd most", "operator": "cz:K\u010cT", "ref": "TA142", "tourism": "information"}}, {"type": "node", "id": 3525534015, "lat": 49.5501039, "lon": 14.4314521, "tags": {"ele": "657", "hiking": "yes", "information": "guidepost", "name": "U V\u00e1clava", "operator": "cz:K\u010cT", "ref": "PB208", "tourism": "information"}}, {"type": "node", "id": 4088815421, "lat": 49.5236748, "lon": 14.4276357, "tags": {"ele": "665", "hiking": "yes", "information": "guidepost", "name": "Chy\u0161ky (Bus)", "tourism": "information"}}, {"type": "node", "id": 4088815422, "lat": 49.5118381, "lon": 14.4200786, "tags": {"ele": "560", "hiking": "yes", "information": "guidepost", "name": "Podch\u00fd\u0161sk\u00e1 Lhota", "operator": "cz:K\u010cT", "ref": "MI099", "tourism": "information"}}, {"type": "node", "id": 4112795258, "lat": 49.4480151, "lon": 14.5355899, "tags": {"ele": "508", "hiking": "yes", "information": "guidepost", "name": "Pada\u0159ov (\u017est)", "operator": "cz:K\u010cT", "ref": "TA162", "tourism": "information"}}, {"type": "node", "id": 4112858205, "lat": 49.4474374, "lon": 14.4927008, "tags": {"ele": "512", "hiking": "yes", "information": "guidepost", "name": "Bo\u017eejovice (\u017est)", "operator": "cz:K\u010cT", "ref": "MI107", "tourism": "information"}}, {"type": "node", "id": 4295702407, "lat": 49.4523791, "lon": 14.525578, "tags": {"hiking": "yes", "information": "guidepost", "name": "Pada\u0159ov", "operator": "cz:K\u010cT", "ref": "TA163", "tourism": "information"}}, {"type": "node", "id": 4295702408, "lat": 49.477986, "lon": 14.5204811, "tags": {"ele": "630", "hiking": "yes", "information": "guidepost", "name": "Sv. Magdalena (rozc.)", "operator": "cz:K\u010cT", "ref": "TA164", "tourism": "information"}}, {"type": "node", "id": 4295702409, "lat": 49.4777987, "lon": 14.5182887, "tags": {"ele": "636", "hiking": "yes", "information": "guidepost", "name": "Sv. Magdalena (vyhl.)", "operator": "cz:K\u010cT", "ref": "TA001", "tourism": "information"}}, {"type": "node", "id": 4295732682, "lat": 49.5030382, "lon": 14.4788, "tags": {"ele": "540", "hiking": "yes", "information": "guidepost", "name": "Nad\u011bjkov (n\u00e1m.)", "operator": "cz:K\u010cT", "ref": "9198/0;6305/33,5;3307/0;TA194", "tourism": "information"}}, {"type": "node", "id": 4295732683, "lat": 49.4958098, "lon": 14.4856049, "tags": {"ele": "535", "hiking": "yes", "information": "guidepost", "name": "Pet\u0159\u00edkovice", "operator": "cz:K\u010cT", "ref": "TA195", "tourism": "information"}}, {"type": "node", "id": 4295732684, "lat": 49.4954617, "lon": 14.5039159, "tags": {"ele": "587", "hiking": "yes", "information": "guidepost", "name": "Zbel\u00edtov", "operator": "cz:K\u010cT", "ref": "TA197", "tourism": "information"}}, {"type": "node", "id": 4298920741, "lat": 49.5023777, "lon": 14.4576315, "tags": {"ele": "585", "hiking": "yes", "information": "guidepost", "name": "\u0160ichova Vesec", "operator": "cz:K\u010cT", "ref": "MI277", "tourism": "information"}}, {"type": "node", "id": 4298931481, "lat": 49.4595821, "lon": 14.432487, "tags": {"hiking": "yes", "information": "guidepost", "name": "Be\u010dov", "operator": "cz:K\u010cT", "ref": "MI275", "tourism": "information"}}, {"type": "node", "id": 4298944731, "lat": 49.4405576, "lon": 14.420111, "tags": {"bicycle": "yes", "ele": "460", "hiking": "yes", "information": "guidepost", "name": "Sepekov (\u017est.)", "operator": "cz:K\u010cT", "ref": "MI274", "tourism": "information"}}, {"type": "node", "id": 4298970235, "lat": 49.4272731, "lon": 14.4392554, "tags": {"ele": "426", "hiking": "yes", "information": "guidepost", "name": "Chobot (ryb.)", "operator": "cz:K\u010cT", "ref": "MI105", "tourism": "information"}}, {"type": "node", "id": 4298970236, "lat": 49.4349438, "lon": 14.4725101, "tags": {"ele": "524", "hiking": "yes", "information": "guidepost", "name": "Hodu\u0161\u00edn", "operator": "cz:K\u010cT", "ref": "0105/11", "tourism": "information"}}, {"type": "node", "id": 4307160469, "lat": 49.377069, "lon": 14.4757753, "tags": {"information": "board", "name": "Rataje", "tourism": "information"}}, {"type": "node", "id": 4307271240, "lat": 49.419911, "lon": 14.421012, "tags": {"information": "board", "tourism": "information"}}, {"type": "node", "id": 4307271247, "lat": 49.4280239, "lon": 14.4176019, "tags": {"information": "map", "tourism": "information"}}, {"type": "node", "id": 4308463531, "lat": 49.3671427, "lon": 14.5156176, "tags": {"information": "board", "tourism": "information"}}, {"type": "node", "id": 4308463539, "lat": 49.3674871, "lon": 14.5135917, "tags": {"information": "board", "name": "\u0159et\u011bzov\u00fd most", "tourism": "information"}}, {"type": "node", "id": 4308463540, "lat": 49.3670834, "lon": 14.5153192, "tags": {"information": "board", "name": "\u0159et\u011bzov\u00fd most", "tourism": "information"}}, {"type": "node", "id": 4308463541, "lat": 49.3674793, "lon": 14.5141155}, {"type": "node", "id": 4308463542, "lat": 49.367407, "lon": 14.5140727}, {"type": "node", "id": 4308463543, "lat": 49.3673907, "lon": 14.5141377}, {"type": "node", "id": 4308463544, "lat": 49.3674629, "lon": 14.5141806}, {"type": "node", "id": 4308463545, "lat": 49.3675291, "lon": 14.5137574}, {"type": "node", "id": 4308463546, "lat": 49.3671888, "lon": 14.5152706}, {"type": "node", "id": 4308463547, "lat": 49.3671166, "lon": 14.5152277}, {"type": "node", "id": 4308463548, "lat": 49.3670965, "lon": 14.5153075}, {"type": "node", "id": 4308463549, "lat": 49.3671688, "lon": 14.5153503}, {"type": "node", "id": 4308533819, "lat": 49.3976856, "lon": 14.5831242, "tags": {"ele": "375", "hiking": "yes", "information": "guidepost", "name": "Breda", "operator": "cz:K\u010cT", "ref": "TA138", "tourism": "information"}}, {"type": "node", "id": 4308533820, "lat": 49.3884755, "lon": 14.5837136, "tags": {"ele": "440", "hiking": "yes", "information": "guidepost", "name": "Obr\u00e1zek", "operator": "cz:K\u010cT", "ref": "TA205", "tourism": "information"}}, {"type": "node", "id": 4308533821, "lat": 49.3960673, "lon": 14.5999511, "tags": {"ele": "466", "hiking": "yes", "information": "guidepost", "name": "Dra\u017ei\u010dky", "operator": "cz:K\u010cT", "ref": "TA262", "tourism": "information"}}, {"type": "node", "id": 4308533868, "lat": 49.3931525, "lon": 14.5597889, "tags": {"ele": "372", "hiking": "yes", "information": "guidepost", "name": "P\u0159\u00edb\u011bnice - podhrad\u00ed", "operator": "cz:K\u010cT", "ref": "TA139", "tourism": "information"}}, {"type": "node", "id": 4308533871, "lat": 49.3914827, "lon": 14.5637756, "tags": {"ele": "427", "hiking": "yes", "information": "guidepost", "name": "P\u0159\u00edb\u011bnice (u hradu)", "operator": "cz:K\u010cT", "ref": "TA031", "tourism": "information"}}, {"type": "node", "id": 4308533873, "lat": 49.3853528, "lon": 14.5454165, "tags": {"ele": "380", "hiking": "yes", "information": "guidepost", "name": "Bej\u0161ovc\u016fv ml\u00fdn", "operator": "cz:K\u010cT", "ref": "TA140", "tourism": "information"}}, {"type": "node", "id": 4308533878, "lat": 49.3778398, "lon": 14.5296986, "tags": {"hiking": "yes", "information": "guidepost", "name": "Suchomel\u016fm ml\u00fdn", "operator": "cz:K\u010cT", "ref": "TA144", "tourism": "information"}}, {"type": "node", "id": 4423316136, "lat": 49.5381556, "lon": 14.5094618, "tags": {"ele": "710", "hiking": "yes", "information": "guidepost", "name": "Ounuz", "operator": "cz:K\u010cT", "ref": "BN170", "source": "survey", "tourism": "information"}}, {"type": "node", "id": 4423316143, "lat": 49.5504098, "lon": 14.4951157, "tags": {"hiking": "yes", "information": "guidepost", "name": "pod Javorovou sk\u00e1lou", "operator": "cz:K\u010cT", "ref": "BN168", "source": "survey", "tourism": "information"}}, {"type": "node", "id": 4500786687, "lat": 49.5514929, "lon": 14.4118547, "tags": {"hiking": "yes", "information": "guidepost", "name": "Mezn\u00fd", "operator": "cz:K\u010cT", "ref": "PB210", "tourism": "information"}}, {"type": "node", "id": 4734119529, "lat": 49.3828035, "lon": 14.5534595, "tags": {"board_type": "notice", "information": "board", "tourism": "information"}}, {"type": "node", "id": 4799698300, "lat": 49.5228352, "lon": 14.569172, "tags": {"amenity": "shelter", "shelter_type": "public_transport"}}, {"type": "node", "id": 4799698302, "lat": 49.5227335, "lon": 14.5692502, "tags": {"board_type": "nature", "information": "board", "name": "Vz\u00e1cn\u00e9 bohatstv\u00ed vlhk\u00e9 louky", "tourism": "information"}}, {"type": "node", "id": 4799698306, "lat": 49.5267378, "lon": 14.5727849, "tags": {"information": "map", "map_size": "region", "tourism": "information"}}, {"type": "node", "id": 4799771164, "lat": 49.3835643, "lon": 14.5548485}, {"type": "node", "id": 4799771165, "lat": 49.3835633, "lon": 14.5549804}, {"type": "node", "id": 4799771166, "lat": 49.3836055, "lon": 14.5549812}, {"type": "node", "id": 4799771167, "lat": 49.3836065, "lon": 14.5548493}, {"type": "node", "id": 4801876146, "lat": 49.3775007, "lon": 14.5733833, "tags": {"ele": "518", "hiking": "yes", "information": "guidepost", "name": "Karol\u00edn (ran\u010d)", "operator": "cz:K\u010cT", "ref": "TA019", "tourism": "information"}}, {"type": "node", "id": 4801922322, "lat": 49.3801622, "lon": 14.5948011, "tags": {"ele": "510", "hiking": "yes", "information": "guidepost", "name": "\u010cerven\u00fd dv\u016fr", "operator": "cz:K\u010cT", "ref": "TA009", "tourism": "information"}}, {"type": "node", "id": 4802939241, "lat": 49.3872675, "lon": 14.5754077, "tags": {"ele": "491", "hiking": "yes", "information": "guidepost", "name": "P\u0159\u00edb\u011bnice (h\u00e1j.)", "operator": "cz:K\u010cT", "ref": "TA029", "tourism": "information"}}, {"type": "node", "id": 4802939242, "lat": 49.3894891, "lon": 14.5671746, "tags": {"ele": "450", "hiking": "yes", "information": "guidepost", "name": "Nad P\u0159\u00edb\u011bnicemi", "operator": "cz:K\u010cT", "ref": "TA030", "tourism": "information"}}, {"type": "node", "id": 4805253137, "lat": 49.5008928, "lon": 14.4146953, "tags": {"ele": "585", "hiking": "yes", "information": "guidepost", "name": "Rohozov", "operator": "cz:K\u010cT", "ref": "MI098", "tourism": "information"}}, {"type": "node", "id": 4805349648, "lat": 49.5369383, "lon": 14.433616, "tags": {"ele": "675", "hiking": "yes", "information": "guidepost", "name": "Vil\u00edn", "operator": "cz:K\u010cT", "ref": "MI195", "tourism": "information"}}, {"type": "node", "id": 4805349649, "lat": 49.53333, "lon": 14.4326447, "tags": {"ele": "660", "hiking": "yes", "information": "guidepost", "name": "Nov\u00e1 Ves", "operator": "cz:K\u010cT", "ref": "MI194", "tourism": "information"}}, {"type": "node", "id": 4876413181, "lat": 49.4792124, "lon": 14.4735646, "tags": {"ele": "585", "hiking": "yes", "information": "guidepost", "name": "Brtec", "operator": "cz:K\u010cT", "ref": "TA353", "tourism": "information"}}, {"type": "node", "id": 4876413182, "lat": 49.4901378, "lon": 14.4656575, "tags": {"ele": "490", "hiking": "yes", "information": "guidepost", "name": "Modl\u00edkov", "operator": "cz:K\u010cT", "ref": "TA355", "tourism": "information"}}, {"type": "node", "id": 4876413192, "lat": 49.4973624, "lon": 14.5011762, "tags": {"ele": "580", "hiking": "yes", "information": "guidepost", "name": "Hodkov", "operator": "cz:K\u010cT", "ref": "TA196", "tourism": "information"}}, {"type": "node", "id": 4876413956, "lat": 49.5441726, "lon": 14.4263919, "tags": {"ele": "625", "hiking": "yes", "information": "guidepost", "name": "Kozlovy - rozc.", "operator": "cz:K\u010cT", "ref": "MI196", "tourism": "information"}}, {"type": "node", "id": 4877256317, "lat": 49.5070074, "lon": 14.4515544, "tags": {"ele": "580", "hiking": "yes", "information": "guidepost", "name": "Mozolov hotel", "operator": "cz:K\u010cT", "ref": "TA354", "tourism": "information"}}, {"type": "node", "id": 4877259093, "lat": 49.5204063, "lon": 14.5081061, "tags": {"ele": "600", "hiking": "yes", "information": "guidepost", "name": "Starcova Lhota", "operator": "cz:K\u010cT", "ref": "TA338", "tourism": "information"}}, {"type": "node", "id": 4877260018, "lat": 49.5439281, "lon": 14.5159596, "tags": {"hiking": "yes", "information": "guidepost", "name": "Mon\u00ednec hotel", "operator": "cz:K\u010cT", "ref": "BN172", "tourism": "information"}}, {"type": "node", "id": 4877260020, "lat": 49.5423199, "lon": 14.511381, "tags": {"ele": "684", "hiking": "yes", "information": "guidepost", "name": "Mon\u00ednec horn\u00ed st.", "operator": "cz:K\u010cT", "ref": "BN169", "tourism": "information"}}, {"type": "node", "id": 4877260627, "lat": 49.5318692, "lon": 14.4990241, "tags": {"ele": "680", "hiking": "yes", "information": "guidepost", "name": "Businy", "operator": "cz:K\u010cT", "ref": "TA339", "tourism": "information"}}, {"type": "node", "id": 5094145551, "lat": 49.3689287, "lon": 14.5847414, "tags": {"ele": "524", "name": "Travnat\u00e1 cesta", "natural": "peak"}}, {"type": "node", "id": 5094159278, "lat": 49.4942812, "lon": 14.5872114, "tags": {"ele": "680", "name": "Dehetn\u00edk", "natural": "peak"}}, {"type": "node", "id": 5094165290, "lat": 49.5034641, "lon": 14.557768, "tags": {"ele": "660", "name": "V Pahrbc\u00edch", "natural": "peak"}}, {"type": "node", "id": 5094180172, "lat": 49.4911265, "lon": 14.5392583, "tags": {"ele": "632", "name": "\u0160ibeni\u010dn\u00ed vrch", "natural": "peak"}}, {"type": "node", "id": 5094187207, "lat": 49.4778273, "lon": 14.5186243, "tags": {"ele": "635.3", "natural": "peak"}}, {"type": "node", "id": 5094190694, "lat": 49.4734935, "lon": 14.4870436, "tags": {"ele": "610", "natural": "peak"}}, {"type": "node", "id": 5094191566, "lat": 49.478424, "lon": 14.4807863, "tags": {"ele": "627", "name": "Pahrbek", "natural": "peak"}}, {"type": "node", "id": 5094192719, "lat": 49.4683095, "lon": 14.4817942, "tags": {"ele": "594", "name": "V Ho\u0159e", "natural": "peak"}}, {"type": "node", "id": 5094194731, "lat": 49.4394664, "lon": 14.485452, "tags": {"ele": "529", "name": "U Pr\u00e1che\u0148sk\u00e9ho", "natural": "peak"}}, {"type": "node", "id": 5094195859, "lat": 49.4482036, "lon": 14.4764979, "tags": {"ele": "528", "name": "Na Pansk\u00e9m vrchu", "natural": "peak"}}, {"type": "node", "id": 5094197662, "lat": 49.4036172, "lon": 14.4690179, "tags": {"ele": "473", "name": "Na H\u016frk\u00e1ch", "natural": "peak"}}, {"type": "node", "id": 5094198238, "lat": 49.4209552, "lon": 14.4484265, "tags": {"ele": "540", "name": "Chlum", "natural": "peak"}}, {"type": "node", "id": 5094200727, "lat": 49.4336286, "lon": 14.4264634, "tags": {"ele": "478", "name": "Pokloni\u0161t\u011b", "natural": "peak"}}, {"type": "node", "id": 5094203515, "lat": 49.463563, "lon": 14.4247386, "tags": {"ele": "587", "name": "Vitanka", "natural": "peak"}}, {"type": "node", "id": 5144983757, "lat": 49.5014257, "lon": 14.4787486, "tags": {"horse": "yes", "information": "guidepost", "name": "Nad\u011bjkov", "operator": "cz:K\u010cT", "ref": "TA008", "tourism": "information"}}, {"type": "node", "id": 5325956811, "lat": 49.4988458, "lon": 14.5834091, "tags": {"ele": "673", "name": "Lys\u00fd vrch", "natural": "peak"}}, {"type": "node", "id": 5325998702, "lat": 49.4867582, "lon": 14.5966423, "tags": {"ele": "658", "name": "Bukovec", "natural": "peak"}}, {"type": "node", "id": 5924009320, "lat": 49.4996534, "lon": 14.5597011, "tags": {"hiking": "yes", "information": "guidepost", "name": "K\u0159ivo\u0161\u00edn", "operator": "cz:K\u010cT", "ref": "TA079", "tourism": "information"}}, {"type": "node", "id": 5924014792, "lat": 49.5043377, "lon": 14.5492667, "tags": {"hiking": "yes", "information": "guidepost", "name": "Nehon\u00edn", "operator": "cz:K\u010cT", "ref": "TA078", "tourism": "information"}}, {"type": "node", "id": 5924017856, "lat": 49.5069587, "lon": 14.5722485, "tags": {"hiking": "yes", "information": "guidepost", "name": "Smrkov", "operator": "cz:K\u010cT", "ref": "TA081", "tourism": "information"}}, {"type": "node", "id": 5926615490, "lat": 49.5168325, "lon": 14.5765403, "tags": {"information": "guidepost", "operator": "Sychrov", "ref": "none", "ski": "yes", "tourism": "information"}}, {"type": "node", "id": 5926615664, "lat": 49.4748779, "lon": 14.5250095, "tags": {"tourism": "viewpoint"}}, {"type": "node", "id": 6578977555, "lat": 49.5413871, "lon": 14.4142263, "tags": {"information": "guidepost", "name": "Rad\u00edkovy", "operator": "cz:K\u010cT", "tourism": "information"}}, {"type": "node", "id": 6578977579, "lat": 49.5423332, "lon": 14.5115243, "tags": {"board_type": "nature", "information": "board", "name": "Jehli\u0161t\u011b", "tourism": "information"}}, {"type": "node", "id": 6578977580, "lat": 49.5426106, "lon": 14.5112189, "tags": {"information": "board", "tourism": "information"}}, {"type": "node", "id": 6722554005, "lat": 49.5421746, "lon": 14.4155274, "tags": {"hiking": "yes", "information": "guidepost", "operator": "local", "ref": "none", "tourism": "information"}}, {"type": "node", "id": 6832849646, "lat": 49.3602436, "lon": 14.4163061, "tags": {"amenity": "shelter", "bench": "yes", "shelter_type": "public_transport"}}, {"type": "node", "id": 6832849649, "lat": 49.3729879, "lon": 14.5038684, "tags": {"board_type": "information", "information": "board", "name": "St\u00e1dleck\u00fd most", "tourism": "information"}}, {"type": "node", "id": 7527073520, "lat": 49.524411, "lon": 14.5431698, "tags": {"bicycle": "yes", "hiking": "yes", "information": "guidepost", "name": "Ostr\u00fd", "operator": "cz:K\u010cT", "ref": "BN307", "tourism": "information"}}, {"type": "node", "id": 7533235135, "lat": 49.4762845, "lon": 14.5591646, "tags": {"ele": "582", "hiking": "yes", "information": "guidepost", "name": "Pazderna", "operator": "cz:K\u010cT", "ref": "TA199", "tourism": "information"}}, {"type": "node", "id": 7678016789, "lat": 49.3932656, "lon": 14.559727, "tags": {"board_type": "information", "information": "board", "name": "Stezka \u00fadol\u00edm Lu\u017enice - P\u0159\u00edb\u011bnice", "tourism": "information"}}, {"type": "node", "id": 7678016791, "lat": 49.384061, "lon": 14.5442115, "tags": {"board_type": "information", "information": "board", "name": "Stezka \u00fadol\u00edm Lu\u017enice Toulavou - Be\u010dice - Lu\u017ei\u010danka", "tourism": "information"}}, {"type": "node", "id": 7710736602, "lat": 49.5345488, "lon": 14.5163435, "tags": {"tourism": "viewpoint"}}, {"type": "node", "id": 7722107957, "lat": 49.4663661, "lon": 14.5662014, "tags": {"information": "map", "map_size": "region", "map_type": "topo", "tourism": "information"}}, {"type": "node", "id": 7722267324, "lat": 49.3621483, "lon": 14.580562, "tags": {"information": "map", "map_size": "region", "map_type": "topo", "tourism": "information"}}, {"type": "node", "id": 7732148125, "lat": 49.3987235, "lon": 14.4793689, "tags": {"information": "map", "map_size": "region", "map_type": "topo", "tourism": "information"}}, {"type": "node", "id": 7734795472, "lat": 49.485783, "lon": 14.5281104, "tags": {"board_type": "history", "information": "board", "name": "Jistebnicko", "tourism": "information"}}, {"type": "node", "id": 8487575259, "lat": 49.367053, "lon": 14.5156373}, {"type": "node", "id": 8487575260, "lat": 49.3675641, "lon": 14.5137781}, {"type": "node", "id": 8487575261, "lat": 49.3674919, "lon": 14.5137353}, {"type": "node", "id": 8487575262, "lat": 49.367091, "lon": 14.5156598}, {"type": "node", "id": 8487575263, "lat": 49.3670187, "lon": 14.515617}, {"type": "node", "id": 9356378566, "lat": 49.4771689, "lon": 14.5268632, "tags": {"information": "guidepost", "operator": "local", "ref": "none", "ski": "yes", "tourism": "information"}}, {"type": "node", "id": 9356378567, "lat": 49.4916601, "lon": 14.5271141, "tags": {"board_type": "history", "information": "board", "name": "Lesopark - m\u011bstsk\u00e9 sady v Jistebnici", "tourism": "information"}}, {"type": "node", "id": 9356378568, "lat": 49.4857501, "lon": 14.5279624, "tags": {"information": "board", "name": "\u010certovo b\u0159emeno", "tourism": "information"}}, {"type": "node", "id": 9356378569, "lat": 49.5013228, "lon": 14.536264, "tags": {"board_type": "history", "description": "NS Jistebnick\u00fdmi sady", "information": "board", "name": "Na hr\u00e1zi Velk\u00e9 Kaplice", "ref": "6", "tourism": "information"}}, {"type": "node", "id": 9613094669, "lat": 49.3670741, "lon": 14.5153965}, {"type": "node", "id": 9823533424, "lat": 49.507635, "lon": 14.5999623, "tags": {"board_type": "nature", "description": "V\u010del\u00ed nau\u010dn\u00e1 stezka sv. Ambro\u017ee v Borot\u00edn\u011b", "information": "board", "name": "Voda, H2O molekula \u017eivota", "ref": "4", "tourism": "information"}}, {"type": "node", "id": 9823533425, "lat": 49.5074226, "lon": 14.5961804, "tags": {"board_type": "nature", "description": "V\u010del\u00ed nau\u010dn\u00e1 stezka sv. Ambro\u017ee v Borot\u00edn\u011b", "information": "board", "name": "Dendrofon", "ref": "5", "tourism": "information"}}, {"type": "node", "id": 9823533426, "lat": 49.5072683, "lon": 14.5935917, "tags": {"board_type": "nature", "description": "V\u010del\u00ed nau\u010dn\u00e1 stezka sv. Ambro\u017ee v Borot\u00edn\u011b", "information": "board", "name": "Strom jako d\u016fm", "ref": "6", "tourism": "information"}}, {"type": "node", "id": 9823533427, "lat": 49.5067636, "lon": 14.5909012, "tags": {"board_type": "nature", "description": "V\u010del\u00ed nau\u010dn\u00e1 stezka sv. Ambro\u017ee v Borot\u00edn\u011b", "information": "board", "name": "V\u011b\u017e pozn\u00e1n\u00ed", "ref": "7", "tourism": "information"}}, {"type": "node", "id": 9823533436, "lat": 49.4833838, "lon": 14.523281, "tags": {"board_type": "history", "information": "board", "name": "K\u0159\u00ed\u017eov\u00e1 cesta z Jistebnice ke kapli sv. M\u00e1\u0159\u00ed Magdal\u00e9ny", "tourism": "information"}}, {"type": "node", "id": 9823533444, "lat": 49.4777484, "lon": 14.5181976, "tags": {"tourism": "viewpoint"}}, {"type": "node", "id": 10148002028, "lat": 49.3529978, "lon": 14.4528512, "tags": {"board_type": "history", "information": "board", "name": "Tvrzi\u0161t\u011b - valy ratajsk\u00e9", "ref": "2", "tourism": "information"}}, {"type": "node", "id": 10148194360, "lat": 49.3658699, "lon": 14.4705719, "tags": {"amenity": "shelter", "shelter_type": "picnic_shelter"}}, {"type": "node", "id": 10148194371, "lat": 49.3978707, "lon": 14.4564021, "tags": {"amenity": "shelter", "shelter_type": "picnic_shelter"}}, {"type": "node", "id": 11034535547, "lat": 49.4284432, "lon": 14.5845635}, {"type": "node", "id": 11034535548, "lat": 49.4284333, "lon": 14.5845551}, {"type": "node", "id": 11034535549, "lat": 49.428422, "lon": 14.5845573}, {"type": "node", "id": 11034535550, "lat": 49.4284137, "lon": 14.5845692}, {"type": "node", "id": 11034535551, "lat": 49.4284116, "lon": 14.5845864}, {"type": "node", "id": 11034535552, "lat": 49.4284164, "lon": 14.5846022}, {"type": "node", "id": 11034535553, "lat": 49.4284264, "lon": 14.5846106}, {"type": "node", "id": 11034535554, "lat": 49.4284376, "lon": 14.5846084}, {"type": "node", "id": 11034535555, "lat": 49.4284459, "lon": 14.5845965}, {"type": "node", "id": 11034535556, "lat": 49.428448, "lon": 14.5845793}, {"type": "node", "id": 11291600784, "lat": 49.3923326, "lon": 14.5995453, "tags": {"ele": "478", "hiking": "yes", "information": "guidepost", "name": "Dra\u017ei\u010dky (rozc.)", "operator": "cz:K\u010cT", "ref": "TA004", "tourism": "information"}}, {"type": "node", "id": 11305459745, "lat": 49.3687063, "lon": 14.518389, "tags": {"ele": "370", "hiking": "yes", "information": "guidepost", "name": "U \u0159et\u011bzov\u00e9ho mostu", "operator": "cz:K\u010cT", "ref": "TA049", "tourism": "information"}}, {"type": "node", "id": 11519031947, "lat": 49.5024597, "lon": 14.4785228, "tags": {"information": "board", "name": "Prokop Chocholou\u0161ek a Anton\u00edn \u010cechoslav Fikar", "tourism": "information"}}, {"type": "node", "id": 11821709815, "lat": 49.5499982, "lon": 14.5217907, "tags": {"hiking": "yes", "information": "guidepost", "name": "Mon\u00ednec", "operator": "cz:K\u010cT", "tourism": "information"}}, {"type": "node", "id": 12036174663, "lat": 49.361167, "lon": 14.5336251, "tags": {"amenity": "shelter", "bench": "yes", "bin": "yes", "lit": "no", "lockable": "no", "shelter_type": "public_transport"}}, {"type": "node", "id": 12331572356, "lat": 49.4323703, "lon": 14.4844899, "tags": {"amenity": "shelter", "shelter_type": "public_transport"}}, {"type": "node", "id": 12437590239, "lat": 49.3675497, "lon": 14.5141393, "tags": {"board_type": "nature", "information": "board", "name": "St\u00e1dleck\u00fd most - cyklotrasy T\u00e1borska", "tourism": "information"}}, {"type": "node", "id": 13039024820, "lat": 49.4927815, "lon": 14.5293109, "tags": {"board_type": "history", "information": "board", "name": "D\u0159ev\u011bn\u00e9 potrub\u00ed", "tourism": "information"}}, {"type": "node", "id": 13039044702, "lat": 49.4920541, "lon": 14.52898, "tags": {"amenity": "shelter", "shelter_type": "picnic_shelter"}}, {"type": "node", "id": 13039188626, "lat": 49.4928119, "lon": 14.529314, "tags": {"name": "D\u0159ev\u011bn\u00e9 potrub\u00ed", "tourism": "attraction"}}, {"type": "node", "id": 13099911898, "lat": 49.53691, "lon": 14.5092495, "tags": {"ele": "702", "information": "guidepost", "name": "Ounuz", "operator": "local", "ref": "none", "ski": "yes", "tourism": "information"}}, {"type": "node", "id": 13099911899, "lat": 49.4891399, "lon": 14.5275776, "tags": {"hiking": "yes", "information": "guidepost", "operator": "cz:K\u010cT", "ref": "TA165", "source": "survey", "tourism": "information"}}, {"type": "node", "id": 13099911900, "lat": 49.5307792, "lon": 14.5198297, "tags": {"ele": "648", "information": "guidepost", "name": "Cunkov", "operator": "local", "ref": "A/5", "ski": "yes", "tourism": "information"}}, {"type": "node", "id": 13099985801, "lat": 49.4917978, "lon": 14.5272075, "tags": {"information": "guidepost", "operator": "local", "ref": "none", "ski": "yes", "tourism": "information"}}, {"type": "node", "id": 13099985802, "lat": 49.4896583, "lon": 14.5274177, "tags": {"information": "guidepost", "operator": "local", "ref": "none", "ski": "yes", "tourism": "information"}}, {"type": "way", "id": 487523118, "nodes": [4799771167, 4799771166, 4799771165, 4799771164, 4799771167], "tags": {"amenity": "shelter", "building": "yes", "shelter_type": "picnic_shelter"}}, {"type": "way", "id": 913698327, "nodes": [4308463543, 4308463547, 4308463548, 9613094669, 8487575263, 8487575259, 8487575262, 4308463549, 4308463546, 4308463544, 4308463541, 8487575260, 4308463545, 8487575261, 4308463542, 4308463543], "tags": {"bridge:structure": "suspension", "layer": "1", "man_made": "bridge", "name": "St\u00e1dleck\u00fd \u0159et\u011bzov\u00fd most", "ref": "13711-3", "tourism": "attraction", "wikidata": "Q12056807"}}, {"type": "way", "id": 1188325256, "nodes": [11034535556, 11034535555, 11034535554, 11034535553, 11034535552, 11034535551, 11034535550, 11034535549, 11034535548, 11034535547, 11034535556], "tags": {"amenity": "shelter"}}]}