{"version": 0.6, "generator": "Overpass API 0.7.62.8 e802775f", "osm3s": {"timestamp_osm_base": "2026-01-04T12:13:26Z", "copyright": "The data included in this document is from www.openstreetmap.org. The data is made available under ODbL."}, "elements": [{"type": "node", "id": 299209135, "lat": 49.1908687, "lon": 13.0596583, "tags": {"bus": "yes", "highway": "bus_stop", "name": "Lohberg, Th\u00fcrnstein", "public_transport": "stop_position", "public_transport:version": "2", "ref:IFOPT": "de:09372:1850"}}, {"type": "node", "id": 316847614, "lat": 49.0364598, "lon": 12.996772, "tags": {"bus": "yes", "highway": "bus_stop", "name": "Teisnach Michl-Kaiser-Weg", "public_transport": "stop_position"}}, {"type": "node", "id": 319803241, "lat": 49.0803374, "lon": 12.8857594, "tags": {"bus": "yes", "highway": "bus_stop", "name": "Viechtach, Stadtplatz", "public_transport": "stop_position", "ref:IFOPT": "de:09276:5056:0:1"}}, {"type": "node", "id": 364920625, "lat": 49.1782611, "lon": 12.8533993, "tags": {"bench": "yes", "bin": "no", "bus": "yes", "highway": "bus_stop", "public_transport": "platform", "shelter": "yes", "tactile_paving": "no"}}, {"type": "node", "id": 365232075, "lat": 49.1775013, "lon": 12.8625323, "tags": {"bench": "yes", "bus": "yes", "highway": "bus_stop", "name": "Jahnplatz", "public_transport": "platform", "shelter": "yes", "tactile_paving": "no"}}, {"type": "node", "id": 373269312, "lat": 49.0568756, "lon": 12.9616946, "tags": {"bus": "yes", "highway": "bus_stop", "name": "Hinterberg, Abzw.", "public_transport": "stop_position"}}, {"type": "node", "id": 417458450, "lat": 49.1799984, "lon": 12.861545, "tags": {"bus": "yes", "fixme": "Nur ungef\u00e4hre Position - bitte korrigieren", "highway": "bus_stop", "name": "Bad K\u00f6tzting, Schulzentrum", "public_transport": "stop_position"}}, {"type": "node", "id": 433999683, "lat": 49.1306971, "lon": 12.8642241, "tags": {"bus": "yes", "highway": "bus_stop", "name": "H\u00f6llensteinsee", "public_transport": "platform", "ref:IFOPT": "de:09276:10228:0:1", "surface": "unpaved", "wheelchair": "no"}}, {"type": "node", "id": 472578015, "lat": 49.0221587, "lon": 12.9873547, "tags": {"bus": "yes", "highway": "bus_stop", "name": "Furthof Metzgerei Wirrer", "public_transport": "stop_position"}}, {"type": "node", "id": 559710868, "lat": 49.041659, "lon": 12.9884414, "tags": {"bus": "yes", "highway": "bus_stop", "kerb": "raised", "kerb:height": "0.09", "name": "Kammersdorf Genobank", "platform:width": "1.3", "public_transport": "platform", "ref:IFOPT": "de:09276:7950:0:1"}}, {"type": "node", "id": 600073275, "lat": 49.0532773, "lon": 13.0342775, "tags": {"bus": "yes", "highway": "bus_stop", "name": "Auerkiel, Abzw.", "public_transport": "stop_position", "source": "Bing"}}, {"type": "node", "id": 764620643, "lat": 49.1491579, "lon": 12.9352069, "tags": {"highway": "bus_stop", "name": "Kieslau Lebensmittel Zach", "note": "Nur ungef\u00e4hre Position - bitte korrigieren", "public_transport": "stop_position"}}, {"type": "node", "id": 847557685, "lat": 49.2990212, "lon": 12.9171946, "tags": {"bench": "yes", "bus": "yes", "covered": "yes", "highway": "bus_stop", "kerb": "raised", "kerb:height": "0.03", "name": "Eschlkam, Gh Post", "passenger_information_display": "yes", "platform:width": "2.5", "public_transport": "platform", "ref:IFOPT": "de:09372:1355:0:1", "route_ref": "6080/590", "shelter": "yes"}}, {"type": "node", "id": 919422334, "lat": 49.0101541, "lon": 12.982895, "tags": {"bus": "yes", "highway": "bus_stop", "name": "B\u00fcchsen, Gh.", "public_transport": "stop_position"}}, {"type": "node", "id": 1015044013, "lat": 49.0020427, "lon": 12.9810428, "tags": {"bus": "yes", "highway": "bus_stop", "name": "Pr\u00fcnst (B11)", "public_transport": "stop_position", "source": "Bing"}}, {"type": "node", "id": 1016364188, "lat": 48.9701382, "lon": 13.0533489, "tags": {"bus": "yes", "highway": "bus_stop", "name": "Triefenried, Bahnhof", "public_transport": "stop_position", "source": "Bing"}}, {"type": "node", "id": 1016364611, "lat": 48.9770289, "lon": 13.06728, "tags": {"bus": "yes", "highway": "bus_stop", "name": "March, Post", "public_transport": "stop_position", "source": "Bing"}}, {"type": "node", "id": 1037157281, "lat": 49.0156206, "lon": 13.0257154, "tags": {"bench": "no", "bin": "no", "bus": "yes", "highway": "bus_stop", "kerb": "raised", "kerb:height": "0.10", "name": "Hofstatt", "note": "Linie 6195: http://www.bahn.de/ostbayernbus/view/static/kursbuch/6195.pdf", "operator": "RBO", "platform:width": "1.2", "public_transport": "platform", "ref:IFOPT": "de:09276:5099:0:2", "shelter": "no", "tactile_paving": "no", "wheelchair": "no"}}, {"type": "node", "id": 1037157329, "lat": 49.0139111, "lon": 13.0287951, "tags": {"bench": "yes", "bus": "yes", "highway": "bus_stop", "kerb": "raised", "kerb:height": "0.09", "name": "Kaikenried", "note": "Linie 6195: http://www.bahn.de/ostbayernbus/view/static/kursbuch/6195.pdf", "operator": "RBO", "platform:width": "1.3", "public_transport": "platform", "ref:IFOPT": "de:09276:5098:0:2", "shelter": "yes", "wheelchair": "yes"}}, {"type": "node", "id": 1037157365, "lat": 49.0156473, "lon": 13.0261094, "tags": {"bench": "no", "bin": "no", "bus": "yes", "highway": "bus_stop", "kerb": "raised", "kerb:height": "0.11", "name": "Hofstatt", "note": "Linie 6195: http://www.bahn.de/ostbayernbus/view/static/kursbuch/6195.pdf", "operator": "RBO", "platform:width": "1.4", "public_transport": "platform", "ref:IFOPT": "de:09276:5099:0:1", "shelter": "no", "tactile_paving": "no"}}, {"type": "node", "id": 1037157392, "lat": 49.0140136, "lon": 13.0284211, "tags": {"bench": "yes", "bus": "yes", "highway": "bus_stop", "kerb": "raised", "kerb:height": "0.10", "name": "Kaikenried", "note": "Linie 6195: http://www.bahn.de/ostbayernbus/view/static/kursbuch/6195.pdf", "operator": "RBO", "platform:width": "1.2", "public_transport": "platform", "ref:IFOPT": "de:09276:5098:0:1", "wheelchair": "yes"}}, {"type": "node", "id": 1147457555, "lat": 48.9580433, "lon": 12.9828035, "tags": {"bench": "yes", "bus": "yes", "highway": "bus_stop", "name": "Gotteszell Bhf", "public_transport": "stop_position", "shelter": "yes"}}, {"type": "node", "id": 1156026870, "lat": 49.1012148, "lon": 13.0410872, "tags": {"highway": "bus_stop", "name": "Oberried"}}, {"type": "node", "id": 1290613507, "lat": 49.093275, "lon": 13.0428371, "tags": {"bench": "yes", "bus": "yes", "highway": "bus_stop", "name": "Unterried, K\u00f6ppelwirt", "operator": "RBO Regionalbus Ostbayern GmbH", "public_transport": "stop_position", "ref:IFOPT": "de:09276:5077:0:2", "shelter": "yes"}}, {"type": "node", "id": 1343595872, "lat": 49.1661708, "lon": 12.8065755, "tags": {"bench": "yes", "bus": "yes", "highway": "bus_stop", "name": "Blaibach, Ortsmitte", "platform:width": "2", "public_transport": "platform", "ref:IFOPT": "de:09372:51339", "shelter": "yes"}}, {"type": "node", "id": 1366831693, "lat": 49.1557072, "lon": 12.9236444, "tags": {"highway": "bus_stop", "name": "Himmelreich, Abzweig", "note": "Nur ungef\u00e4hre Position - bitte korrigieren", "public_transport": "stop_position"}}, {"type": "node", "id": 1391317213, "lat": 49.0347819, "lon": 12.9587984, "tags": {"alt_name": "Fernsdorf, Post", "bus": "yes", "highway": "bus_stop", "name": "Fernsdorf B85", "public_transport": "stop_position"}}, {"type": "node", "id": 1401608641, "lat": 48.9482567, "lon": 12.9787258, "tags": {"bench": "yes", "bin": "no", "bus": "yes", "covered": "yes", "highway": "bus_stop", "lit": "no", "name": "Grub, Abzw.", "public_transport": "platform", "shelter": "yes", "tactile_paving": "no"}}, {"type": "node", "id": 1401608642, "lat": 48.9483222, "lon": 12.97898, "tags": {"bench": "no", "bin": "no", "bus": "yes", "covered": "yes", "highway": "bus_stop", "lit": "no", "name": "Grub, Abzw.", "public_transport": "platform", "shelter": "yes", "tactile_paving": "no"}}, {"type": "node", "id": 1681267465, "lat": 49.3038955, "lon": 12.8502803, "tags": {"bus": "yes", "highway": "bus_stop", "name": "Furth i. Wald, K\u00f6tztinger Stra\u00dfe", "public_transport": "platform"}}, {"type": "node", "id": 1683342004, "lat": 49.2627451, "lon": 12.9689717, "tags": {"bus": "yes", "highway": "bus_stop", "name": "Neukirchen Hl. Bl., Schule", "public_transport": "stop_position", "public_transport:version": "2"}}, {"type": "node", "id": 1684070705, "lat": 49.2363264, "lon": 12.9845051, "tags": {"bus": "yes", "highway": "bus_stop", "name": "Mais, Metzgerei Maurer", "public_transport": "stop_position", "public_transport:version": "2"}}, {"type": "node", "id": 1695352499, "lat": 48.9850834, "lon": 13.0694614, "tags": {"bus": "yes", "highway": "bus_stop", "name": "March, Abzw.", "public_transport": "stop_position"}}, {"type": "node", "id": 1747579006, "lat": 49.1772983, "lon": 12.8613334, "tags": {"bench": "yes", "bus": "yes", "highway": "bus_stop", "kerb": "raised", "kerb:height": "0.1", "name": "Jahnplatz", "platform:width": "6", "public_transport": "platform", "ref:IFOPT": "de:09372:1759:0:1", "shelter": "yes", "tactile_paving": "no"}}, {"type": "node", "id": 1796997015, "lat": 49.1611498, "lon": 12.808091, "tags": {"bench": "yes", "bus": "yes", "highway": "bus_stop", "kerb": "raised", "kerb:height": "0.13", "name": "Kreuzbach", "platform:width": "4.7", "public_transport": "platform", "ref:IFOPT": "de:09372:1102:0:1", "shelter": "yes", "tactile_paving": "no"}}, {"type": "node", "id": 1796997016, "lat": 49.1611757, "lon": 12.8078896, "tags": {"bench": "no", "bus": "yes", "highway": "bus_stop", "kerb": "raised", "kerb:height": "0.13", "name": "Kreuzbach", "platform:width": "2", "public_transport": "platform", "ref:IFOPT": "de:09372:1102:0:2", "shelter": "no", "tactile_paving": "no"}}, {"type": "node", "id": 1811682334, "lat": 49.2827747, "lon": 12.8660417, "tags": {"bench": "yes", "bin": "no", "bus": "yes", "highway": "bus_stop", "kerb": "raised", "kerb:height": "0.08", "lit": "no", "name": "Furth im Wald, Waldsiedlung", "platform:width": "2.2", "public_transport": "platform", "ref:IFOPT": "de:09372:1465:0:2", "shelter": "yes", "tactile_paving": "no"}}, {"type": "node", "id": 1878319433, "lat": 49.1958386, "lon": 12.9864534, "tags": {"bench": "yes", "bus": "yes", "highway": "bus_stop", "kerb": "raised", "kerb:height": "0.10", "name": "Arrach, Siedlung", "platform:width": "1.4", "public_transport": "platform", "ref:IFOPT": "de:09372:1055:0:1", "shelter": "yes", "wheelchair": "no"}}, {"type": "node", "id": 1981277257, "lat": 49.1734575, "lon": 12.8568231, "tags": {"bench": "yes", "bin": "yes", "bus": "yes", "highway": "bus_stop", "kerb": "raised", "kerb:height": "0.12", "lit": "yes", "name": "Bad K\u00f6tzting Gro\u00dfparkplatz", "passenger_information_display": "yes", "platform:width": "1", "public_transport": "platform", "ref:IFOPT": "de:09372:1707:0:1", "route_ref": "610;611;615;620;650;690", "shelter": "yes", "tactile_paving": "no"}}, {"type": "node", "id": 2141739053, "lat": 49.0468303, "lon": 13.0169441, "tags": {"bus": "yes", "highway": "bus_stop", "name": "Gstaudach", "public_transport": "stop_position"}}, {"type": "node", "id": 2148759119, "lat": 49.004425, "lon": 13.0381912, "tags": {"bus": "yes", "highway": "bus_stop", "name": "Triendlm\u00fchle", "public_transport": "stop_position"}}, {"type": "node", "id": 2264833141, "lat": 49.2496923, "lon": 12.8412428, "tags": {"bench": "yes", "bin": "no", "bus": "yes", "highway": "bus_stop", "lit": "no", "name": "Arnschwang, Kalkofen Abzw.", "platform:width": "2.5", "public_transport": "platform", "ref:IFOPT": "de:09372:1008:0:2", "shelter": "yes", "tactile_paving": "no"}}, {"type": "node", "id": 2264841426, "lat": 49.2404393, "lon": 12.8429708, "tags": {"bus": "yes", "highway": "bus_stop", "kerb": "raised", "kerb:height": "0.08", "name": "Rimbach, Zettisch", "platform:width": "1.4", "public_transport": "platform", "ref:IFOPT": "de:09372:2256:0:2", "surface": "unpaved", "wheelchair": "no"}}, {"type": "node", "id": 2272039752, "lat": 49.0541352, "lon": 12.9544671, "tags": {"bench": "yes", "bus": "yes", "highway": "bus_stop", "kerb": "raised", "kerb:height": "0.11", "name": "Seigersdorf", "platform:width": "2.1", "public_transport": "platform", "ref:IFOPT": "de:09276:7946:0:2", "shelter": "yes", "tactile_paving": "no"}}, {"type": "node", "id": 2293913102, "lat": 49.0438001, "lon": 12.9873102, "tags": {"bench": "no", "bin": "no", "bus": "yes", "highway": "bus_stop", "kerb": "raised", "kerb:height": "0.13", "name": "Kammersdorf Genobank", "platform:width": "0.9", "public_transport": "platform", "ref:IFOPT": "de:09276:7952:0:2", "shelter": "no", "tactile_paving": "no"}}, {"type": "node", "id": 2293913111, "lat": 49.0441559, "lon": 12.9844874, "tags": {"bench": "no", "bus": "yes", "highway": "bus_stop", "kerb": "raised", "kerb:height": "0.15", "name": "Kammersdorf Gh. Gierl", "platform:width": "1.1", "public_transport": "platform", "ref:IFOPT": "de:09276:5104:0:2", "tactile_paving": "no"}}, {"type": "node", "id": 2293913116, "lat": 49.0444746, "lon": 12.9837005, "tags": {"bench": "no", "bin": "no", "bus": "yes", "highway": "bus_stop", "kerb": "raised", "kerb:height": "0.08", "name": "Kammersdorf Gh. Gierl", "platform:width": "1.2", "public_transport": "platform", "ref:IFOPT": "de:09276:5104:0:1", "shelter": "yes", "tactile_paving": "no"}}, {"type": "node", "id": 2293913123, "lat": 49.0440291, "lon": 12.9870364, "tags": {"bench": "no", "bin": "no", "bus": "yes", "highway": "bus_stop", "kerb": "raised", "kerb:height": "0.11", "name": "Kammersdorf Kreuzung", "platform:width": "1.4", "public_transport": "platform", "ref:IFOPT": "de:09276:7952:0:1", "shelter": "yes", "tactile_paving": "no"}}, {"type": "node", "id": 2306558388, "lat": 49.119346, "lon": 12.9995211, "tags": {"bus": "yes", "highway": "bus_stop", "name": "Exenbach", "public_transport": "stop_position", "ref:IFOPT": "de:09276:5071"}}, {"type": "node", "id": 2498177507, "lat": 49.2210957, "lon": 12.8451157, "tags": {"bus": "yes", "highway": "bus_stop", "name": "Rimbach, Kettersdorf", "public_transport": "platform", "ref:IFOPT": "de:09372:2271:0:1", "shelter": "yes", "surface": "unpaved", "wheelchair": "no"}}, {"type": "node", "id": 2581503750, "lat": 49.2157055, "lon": 12.7600208, "tags": {"bench": "yes", "bus": "yes", "highway": "bus_stop", "kerb": "raised", "kerb:height": "0.06", "name": "Runding, Schule", "platform:width": "1.35", "public_transport": "platform", "ref:IFOPT": "de:09372:52572:0:2", "shelter": "yes"}}, {"type": "node", "id": 2581503753, "lat": 49.220145, "lon": 12.7430961, "tags": {"highway": "bus_stop"}}, {"type": "node", "id": 2581503765, "lat": 49.2128198, "lon": 12.7683947, "tags": {"highway": "bus_stop"}}, {"type": "node", "id": 2581526978, "lat": 49.2230565, "lon": 12.7594898, "tags": {"bus": "yes", "highway": "bus_stop", "name": "Runding, Garten", "platform:width": "1", "public_transport": "platform", "ref:IFOPT": "de:09372:52574:0:1", "surface": "unpaved", "wheelchair": "no"}}, {"type": "node", "id": 2581526983, "lat": 49.2164831, "lon": 12.7563467, "tags": {"bus": "yes", "highway": "bus_stop", "kerb": "raised", "kerb:height": "0.1", "name": "Runding, Siedlung", "platform:width": "1.45", "public_transport": "platform", "ref:IFOPT": "de:09372:52571:0:1"}}, {"type": "node", "id": 2581571436, "lat": 49.2027299, "lon": 12.776275, "tags": {"highway": "bus_stop"}}, {"type": "node", "id": 2616079690, "lat": 49.2659628, "lon": 12.9674886, "tags": {"bus": "yes", "highway": "bus_stop", "name": "Neukirchen Hl. Bl., Klost. Schm.", "public_transport": "stop_position", "public_transport:version": "2"}}, {"type": "node", "id": 2617042491, "lat": 49.2571414, "lon": 12.9709614, "tags": {"bus": "yes", "highway": "bus_stop", "name": "Neukirchen Hl. Bl., Walching", "public_transport": "stop_position", "public_transport:version": "2"}}, {"type": "node", "id": 2810355712, "lat": 49.1128392, "lon": 13.0037704, "tags": {"bench": "no", "bus": "yes", "highway": "bus_stop", "name": "Trautmannsried", "public_transport": "stop_position", "shelter": "no", "tactile_paving": "no"}}, {"type": "node", "id": 2907768085, "lat": 49.1923412, "lon": 12.8698201, "tags": {"bench": "no", "bin": "no", "bus": "yes", "check_date:shelter": "2023-11-13", "highway": "bus_stop", "kerb": "raised", "kerb:height": "0.23", "name": "Fe\u00dfmannsdorf", "operator": "RBO", "platform:width": "1.6", "public_transport": "platform", "ref:IFOPT": "de:09372:1605:0:2", "shelter": "no", "tactile_paving": "no"}}, {"type": "node", "id": 2907768086, "lat": 49.1924866, "lon": 12.8699366, "tags": {"bench": "no", "bin": "no", "bus": "yes", "check_date:shelter": "2023-11-13", "highway": "bus_stop", "name": "Fe\u00dfmannsdorf", "operator": "RBO", "public_transport": "platform", "ref:IFOPT": "de:09372:1605:0:1", "shelter": "no", "surface": "unpaved", "tactile_paving": "no", "wheelchair": "no"}}, {"type": "node", "id": 2907779005, "lat": 49.1842997, "lon": 12.8692617, "tags": {"bench": "yes", "bin": "no", "bus": "yes", "highway": "bus_stop", "lit": "no", "name": "Sperlhammer", "operator": "RBO", "platform:width": "1", "public_transport": "platform", "ref:IFOPT": "de:09372:1700:0:2", "shelter": "no", "surface": "unpaved", "tactile_paving": "no", "wheelchair": "no"}}, {"type": "node", "id": 2907779006, "lat": 49.1841722, "lon": 12.8694036, "tags": {"bench": "yes", "bin": "no", "highway": "bus_stop", "lit": "no", "name": "Sperlhammer", "operator": "RBO", "shelter": "yes", "tactile_paving": "no"}}, {"type": "node", "id": 2907779007, "lat": 49.1805058, "lon": 12.8711652, "tags": {"bench": "yes", "bus": "yes", "highway": "bus_stop", "kerb": "raised", "kerb:height": "0.1", "name": "Beckendorf", "operator": "RBO", "platform:width": "1.25", "public_transport": "platform", "ref:IFOPT": "de:09372:1701:0:2", "shelter": "yes"}}, {"type": "node", "id": 2907779008, "lat": 49.1804626, "lon": 12.8708753, "tags": {"bus": "yes", "highway": "bus_stop", "kerb": "raised", "kerb:height": "0.1", "name": "Beckendorf", "operator": "RBO", "platform:width": "1.5", "public_transport": "platform", "ref:IFOPT": "de:09372:1701:0:1", "shelter": "no"}}, {"type": "node", "id": 2907779009, "lat": 49.1767382, "lon": 12.8671418, "tags": {"bus": "yes", "highway": "bus_stop", "kerb": "raised", "kerb:height": "0.13", "name": "Zellerthal", "operator": "RBO", "platform:width": "2.3", "public_transport": "platform", "ref:IFOPT": "de:09372:1728:3:1", "shelter": "no"}}, {"type": "node", "id": 2907779010, "lat": 49.1754836, "lon": 12.8660148, "tags": {"bus": "yes", "highway": "bus_stop", "kerb": "raised", "kerb:height": "0.12", "name": "Zellerthal", "operator": "RBO", "platform:width": "1.35", "public_transport": "platform", "ref:IFOPT": "de:09372:1728:3:2", "shelter": "no"}}, {"type": "node", "id": 3146480432, "lat": 49.2162393, "lon": 13.0304249, "tags": {"bus": "yes", "highway": "bus_stop", "name": "Buchetb\u00fchl, Liebl", "public_transport": "stop_position", "public_transport:version": "2"}}, {"type": "node", "id": 3376614305, "lat": 49.1640239, "lon": 12.9899155, "tags": {"bench": "no", "bus": "yes", "covered": "no", "highway": "bus_stop", "name": "Eck", "operator": "RBO Regionalbus Ostbayern GmbH", "public_transport": "stop_position", "shelter": "no"}}, {"type": "node", "id": 3376614306, "lat": 49.1289999, "lon": 12.9983376, "tags": {"bus": "yes", "highway": "bus_stop", "name": "Gasthaus Vogl", "public_transport": "stop_position"}}, {"type": "node", "id": 3381806737, "lat": 49.1932824, "lon": 13.0538292, "tags": {"bus": "yes", "highway": "bus_stop", "kerb": "raised", "kerb:height": "0.08", "name": "Lam, Abzw. Bahnhof", "platform:width": "1.2", "public_transport": "stop_position", "public_transport:version": "2", "ref:IFOPT": "de:09372:1801"}}, {"type": "node", "id": 3414671822, "lat": 49.1293557, "lon": 12.9968786, "tags": {"bench": "yes", "bin": "no", "bus": "yes", "highway": "bus_stop", "kerb": "raised", "kerb:height": "0.11", "lit": "no", "name": "Arnbruck, Dorfplatz", "platform:width": "1.3", "public_transport": "platform", "ref:IFOPT": "de:09276:5070:0:2", "shelter": "yes", "tactile_paving": "no", "wheelchair": "yes"}}, {"type": "node", "id": 3414671824, "lat": 49.1284333, "lon": 12.9979278, "tags": {"bus": "yes", "highway": "bus_stop", "name": "Arnbruck Post", "public_transport": "stop_position"}}, {"type": "node", "id": 3421891824, "lat": 49.0490654, "lon": 12.9790516, "tags": {"bench": "yes", "bus": "yes", "highway": "bus_stop", "name": "Geiersthal Kirche", "public_transport": "platform", "ref:IFOPT": "de:09276:5105:0:2", "wheelchair": "yes"}}, {"type": "node", "id": 3425337588, "lat": 49.0803879, "lon": 12.8856837, "tags": {"bench": "yes", "bus": "yes", "highway": "bus_stop", "kerb": "raised", "kerb:height": "0.08", "name": "Viechtach, Stadtplatz", "operator": "RBO Regionalbus Ostbayern GmbH", "platform:width": "1.7", "public_transport": "platform", "ref:IFOPT": "de:09276:5056:0:1", "shelter": "yes"}}, {"type": "node", "id": 3433947049, "lat": 49.0407983, "lon": 12.9929709, "tags": {"bus": "yes", "bus_routes": "4142", "highway": "bus_stop", "name": "Teisnach Busbahnhof", "public_transport": "stop_position", "shelter": "yes", "tactile_paving": "no"}}, {"type": "node", "id": 3434006604, "lat": 49.055697, "lon": 12.9155215, "tags": {"bus": "yes", "highway": "bus_stop", "name": "Eging, Abzw.", "public_transport": "stop_position", "ref:IFOPT": "de:09276:5114"}}, {"type": "node", "id": 3434006611, "lat": 49.0791188, "lon": 12.877433, "tags": {"bus": "yes", "highway": "bus_stop", "name": "Viechtach, Lidl", "public_transport": "stop_position"}}, {"type": "node", "id": 3437618191, "lat": 49.0988763, "lon": 13.0380141, "tags": {"bench": "yes", "bus": "yes", "highway": "bus_stop", "kerb": "no", "name": "Oberried b. Drachselsried", "platform:width": "3.8", "public_transport": "platform", "ref:IFOPT": "de:09276:5076:0:2", "shelter": "yes"}}, {"type": "node", "id": 3437626111, "lat": 49.0899438, "lon": 13.0437343, "tags": {"bus": "yes", "highway": "bus_stop", "kerb": "raised", "kerb:height": "0.05", "name": "Haberb\u00fchl", "platform:width": "1.4", "public_transport": "platform", "ref:IFOPT": "de:09276:5078:0:2"}}, {"type": "node", "id": 3437643512, "lat": 49.049244, "lon": 12.9929413, "tags": {"bus": "yes", "highway": "bus_stop", "name": "Eisberg", "public_transport": "stop_position"}}, {"type": "node", "id": 3437651434, "lat": 49.0468233, "lon": 12.9891212, "tags": {"bus": "yes", "highway": "bus_stop", "name": "Viertlweggrub", "public_transport": "stop_position", "ref:IFOPT": "de:09276:10313"}}, {"type": "node", "id": 3438237846, "lat": 49.0478686, "lon": 12.9473005, "tags": {"bus": "yes", "highway": "bus_stop", "name": "Irlach, Abzw.", "public_transport": "stop_position", "wheelchair": "no"}}, {"type": "node", "id": 3445119174, "lat": 49.1295166, "lon": 12.9971846, "tags": {"bench": "yes", "bin": "yes", "bus": "yes", "highway": "bus_stop", "lit": "yes", "name": "Arnbruck, Dorfplatz", "public_transport": "platform", "ref:IFOPT": "de:09276:5070:0:1", "shelter": "yes", "surface": "unpaved", "tactile_paving": "no", "wheelchair": "no"}}, {"type": "node", "id": 3445139851, "lat": 49.07657, "lon": 12.9920585, "tags": {"bus": "yes", "highway": "bus_stop", "name": "Asbach, Abzw.", "public_transport": "stop_position"}}, {"type": "node", "id": 3445154379, "lat": 49.0680051, "lon": 12.8925159, "tags": {"bench": "yes", "bin": "no", "bus": "yes", "highway": "bus_stop", "kerb": "raised", "kerb:height": "0.11", "name": "Schlatzendorf, Bundesstra\u00dfe", "platform:width": "1.4", "public_transport": "platform", "ref:IFOPT": "de:09276:5115:0:1", "shelter": "yes"}}, {"type": "node", "id": 3445154380, "lat": 49.0683165, "lon": 12.8920645, "tags": {"bus": "yes", "highway": "bus_stop", "name": "Schlatzendorf, Bundesstra\u00dfe", "public_transport": "stop_position"}}, {"type": "node", "id": 3445165168, "lat": 49.0443112, "lon": 12.9368044, "tags": {"bus": "yes", "highway": "bus_stop", "name": "Ayrhof, Abzw. B85", "public_transport": "stop_position"}}, {"type": "node", "id": 3445173431, "lat": 49.0540326, "lon": 12.9543935, "tags": {"bus": "yes", "highway": "bus_stop", "name": "Seigersdorf", "public_transport": "platform", "ref:IFOPT": "de:09276:7946:0:1", "shelter": "no", "surface": "unpaved", "tactile_paving": "no", "wheelchair": "no"}}, {"type": "node", "id": 3445181720, "lat": 49.0568802, "lon": 12.9685356, "tags": {"bench": "yes", "bus": "yes", "highway": "bus_stop", "name": "Altnu\u00dfberg", "platform:width": "1.80", "public_transport": "platform", "ref:IFOPT": "de:09276:7948:0:2", "shelter": "yes"}}, {"type": "node", "id": 3445181722, "lat": 49.0569104, "lon": 12.9686841, "tags": {"bus": "yes", "highway": "bus_stop", "name": "Altnu\u00dfberg", "public_transport": "platform", "ref:IFOPT": "de:09276:7948:0:1", "surface": "unpaved", "wheelchair": "no"}}, {"type": "node", "id": 3445191384, "lat": 49.0476024, "lon": 12.9767643, "tags": {"bus": "yes", "highway": "bus_stop", "name": "Geiersthal Kreisverkehr (S\u00fcd)", "public_transport": "stop_position"}}, {"type": "node", "id": 3445191387, "lat": 49.0482724, "lon": 12.9762745, "tags": {"bus": "yes", "highway": "bus_stop", "name": "Geiersthal Kreisverkehr (Nord)", "public_transport": "stop_position"}}, {"type": "node", "id": 3445205387, "lat": 49.0322845, "lon": 12.9917146, "tags": {"bus": "yes", "highway": "bus_stop", "name": "Berging, Staatsstra\u00dfe", "public_transport": "stop_position"}}, {"type": "node", "id": 3445205388, "lat": 49.0324324, "lon": 12.9917643, "tags": {"bench": "no", "bin": "no", "bus": "yes", "highway": "bus_stop", "kerb": "raised", "kerb:height": "0.14", "lit": "yes", "name": "Berging, Staatsstra\u00dfe", "platform:width": "1.3", "public_transport": "platform", "ref:IFOPT": "de:09276:5107:0:2", "shelter": "yes", "tactile_paving": "no"}}, {"type": "node", "id": 3445205475, "lat": 49.0270977, "lon": 12.9856771, "tags": {"bus": "yes", "highway": "bus_stop", "name": "Unterberging", "public_transport": "stop_position", "ref:IFOPT": "de:09276:3340:0:2"}}, {"type": "node", "id": 3445243934, "lat": 49.0101499, "lon": 12.9830247, "tags": {"bench": "yes", "bin": "no", "bus": "yes", "highway": "bus_stop", "kerb": "raised", "kerb:height": "0.11", "name": "B\u00fcchsen, Gh.", "network": "Regionalbus Ostbayern", "network:wikidata": "Q2138285", "platform:width": "1", "public_transport": "platform", "ref:IFOPT": "de:09276:2786:0:2", "shelter": "yes", "tactile_paving": "no"}}, {"type": "node", "id": 3445243935, "lat": 49.0106053, "lon": 12.9828651, "tags": {"bus": "yes", "highway": "bus_stop", "name": "B\u00fcchsen, Gh.", "public_transport": "stop_position"}}, {"type": "node", "id": 3445243936, "lat": 49.0106114, "lon": 12.9827429, "tags": {"bench": "yes", "bin": "no", "bus": "yes", "highway": "bus_stop", "kerb": "raised", "kerb:height": "0.09", "name": "B\u00fcchsen, Gh.", "network": "Regionalbus Ostbayern", "network:wikidata": "Q2138285", "platform:width": "1", "public_transport": "platform", "ref:IFOPT": "de:09276:2786:0:1", "shelter": "yes", "tactile_paving": "no"}}, {"type": "node", "id": 3445265234, "lat": 48.9833776, "lon": 12.9808859, "tags": {"bench": "yes", "bin": "yes", "bus": "yes", "highway": "bus_stop", "kerb": "raised", "kerb:height": "0.07", "lit": "no", "name": "Ruhmannsfelden, B11 (S\u00fcd)", "passenger_information_display": "yes", "platform:width": "1.3", "public_transport": "platform", "ref:IFOPT": "de:09276:5288:0:1", "shelter": "yes", "tactile_paving": "no"}}, {"type": "node", "id": 3445265235, "lat": 48.9840334, "lon": 12.9811436, "tags": {"bench": "yes", "bin": "yes", "bus": "yes", "highway": "bus_stop", "kerb": "raised", "kerb:height": "0.08", "lit": "no", "name": "Ruhmannsfelden, B11 (Nord)", "passenger_information_display": "yes", "platform:width": "2.8", "public_transport": "platform", "ref:IFOPT": "de:09276:5288:0:2", "shelter": "yes", "tactile_paving": "no"}}, {"type": "node", "id": 3445265238, "lat": 48.9945308, "lon": 12.9809824, "tags": {"bench": "yes", "bin": "no", "bus": "yes", "highway": "bus_stop", "lit": "no", "name": "Bullenhof (B11)", "platform:width": "1.6", "public_transport": "platform", "ref:IFOPT": "de:09276:2788:0:1", "shelter": "yes", "surface": "unpaved", "tactile_paving": "no", "wheelchair": "no"}}, {"type": "node", "id": 3465154387, "lat": 49.046203, "lon": 12.9420686, "tags": {"bus": "yes", "highway": "bus_stop", "name": "Harnberg", "public_transport": "stop_position", "wheelchair": "no"}}, {"type": "node", "id": 3473807557, "lat": 48.9962172, "lon": 13.0547142, "tags": {"bus": "yes", "highway": "bus_stop", "name": "Arnetsried BWH", "public_transport": "stop_position"}}, {"type": "node", "id": 3473811960, "lat": 49.0170888, "lon": 13.0180906, "tags": {"bus": "yes", "highway": "bus_stop", "name": "Aschersdorf", "public_transport": "stop_position"}}, {"type": "node", "id": 3473811961, "lat": 49.0261641, "lon": 13.0046035, "tags": {"bus": "yes", "highway": "bus_stop", "name": "\u00d6d bei Teisnach", "public_transport": "stop_position"}}, {"type": "node", "id": 3473821795, "lat": 49.0305261, "lon": 12.9996185, "tags": {"bus": "yes", "highway": "bus_stop", "name": "Teisnach Fa. Rohde u. Schwarz", "public_transport": "stop_position"}}, {"type": "node", "id": 3473829541, "lat": 49.0438833, "lon": 12.9369357, "tags": {"bus": "yes", "highway": "bus_stop", "name": "Ayhof Bundesstra\u00dfe", "public_transport": "stop_position"}}, {"type": "node", "id": 3473834656, "lat": 49.0719717, "lon": 12.8854115, "tags": {"bus": "yes", "highway": "bus_stop", "name": "Viechtach Schulzentrum", "public_transport": "stop_position", "ref:IFOPT": "de:09276:5055", "wheelchair": "yes"}}, {"type": "node", "id": 3475199427, "lat": 49.0255915, "lon": 12.9717611, "tags": {"bus": "yes", "highway": "bus_stop", "name": "Linden, Gh. Linden", "public_transport": "stop_position"}}, {"type": "node", "id": 3475199428, "lat": 49.0798085, "lon": 12.8762046, "tags": {"alt_name": "Viechtach, Tankstelle Krah", "bus": "yes", "highway": "bus_stop", "name": "Viechtach, Lidl", "public_transport": "stop_position"}}, {"type": "node", "id": 3667690356, "lat": 49.1857766, "lon": 13.06463, "tags": {"bus": "yes", "highway": "bus_stop", "name": "Altschrenkenthal", "public_transport": "stop_position", "public_transport:version": "2", "ref:IFOPT": "de:09372:1851"}}, {"type": "node", "id": 3667690358, "lat": 49.2066141, "lon": 13.0316936, "tags": {"bus": "yes", "highway": "bus_stop", "name": "Engelsh\u00fctt, Feuerwehrhaus", "public_transport": "stop_position", "public_transport:version": "2"}}, {"type": "node", "id": 3667690359, "lat": 49.2020277, "lon": 13.0440335, "tags": {"highway": "bus_stop", "name": "Lam, Bauhof Gro\u00dfparkplatz", "public_transport": "stop_area", "public_transport:version": "2"}}, {"type": "node", "id": 3667690360, "lat": 49.198806, "lon": 13.0484983, "tags": {"bus": "yes", "highway": "bus_stop", "name": "Lam, Marktplatz", "public_transport": "stop_position", "public_transport:version": "2"}}, {"type": "node", "id": 3667690361, "lat": 49.1959852, "lon": 13.0530436, "tags": {"bus": "yes", "highway": "bus_stop", "name": "Lam, Postamt", "public_transport": "stop_position", "public_transport:version": "2", "ref:IFOPT": "de:09372:1804"}}, {"type": "node", "id": 3667793381, "lat": 49.2272033, "lon": 13.0215648, "tags": {"bus": "yes", "highway": "bus_stop", "name": "Absetz, Gh. Tanneneck", "public_transport": "stop_position", "public_transport:version": "2"}}, {"type": "node", "id": 3667793382, "lat": 49.2114044, "lon": 13.0301753, "tags": {"bus": "yes", "highway": "bus_stop", "name": "Buchetb\u00fchl, Ort", "public_transport": "stop_position", "public_transport:version": "2"}}, {"type": "node", "id": 3667793384, "lat": 49.2511577, "lon": 12.9765576, "tags": {"highway": "bus_stop", "name": "Hohenbogen, Sesselbahn, Abzw.", "public_transport": "stop_position", "public_transport:version": "2"}}, {"type": "node", "id": 3667793385, "lat": 49.2309902, "lon": 12.9902428, "tags": {"bus": "yes", "highway": "bus_stop", "name": "Kolmstein, Abzw.", "public_transport": "stop_position", "public_transport:version": "2"}}, {"type": "node", "id": 3667793386, "lat": 49.2305776, "lon": 13.0011526, "tags": {"bus": "yes", "highway": "bus_stop", "name": "Moserh\u00e4usl", "public_transport": "stop_position", "public_transport:version": "2"}}, {"type": "node", "id": 3667793387, "lat": 49.2598514, "lon": 12.9702923, "tags": {"bus": "yes", "highway": "bus_stop", "name": "Neukirchen Hl. Bl., Marktstra\u00dfe", "public_transport": "stop_position", "public_transport:version": "2"}}, {"type": "node", "id": 3667793389, "lat": 49.2733751, "lon": 12.9664883, "tags": {"bus": "yes", "highway": "bus_stop", "name": "Vorderbuchberg, Abzw.", "public_transport": "stop_position", "public_transport:version": "2"}}, {"type": "node", "id": 3691403713, "lat": 49.1724898, "lon": 12.837178, "tags": {"bench": "yes", "bin": "no", "bus": "yes", "highway": "bus_stop", "name": "Bad K\u00f6tzting, Steinbach", "platform:width": "1.3", "public_transport": "platform", "ref:IFOPT": "de:09372:51341:0:1", "shelter": "no", "tactile_paving": "no"}}, {"type": "node", "id": 3691403714, "lat": 49.1783436, "lon": 12.8422995, "tags": {"bus": "yes", "highway": "bus_stop", "name": "Bad K\u00f6tzting, Am Schinderb.", "public_transport": "platform", "ref:IFOPT": "de:09372:1727:0:1", "surface": "unpaved", "wheelchair": "no"}}, {"type": "node", "id": 3691403715, "lat": 49.1779441, "lon": 12.8533118, "tags": {"bench": "no", "bin": "no", "bus": "yes", "highway": "bus_stop", "lit": "no", "name": "K\u00f6tzting, AOK", "public_transport": "platform", "shelter": "yes", "tactile_paving": "no"}}, {"type": "node", "id": 3692818467, "lat": 49.170674, "lon": 12.8649289, "tags": {"bus": "yes", "highway": "bus_stop", "public_transport": "platform", "shelter": "no"}}, {"type": "node", "id": 3692818468, "lat": 49.172278, "lon": 12.8659756, "tags": {"bus": "yes", "highway": "bus_stop", "public_transport": "platform"}}, {"type": "node", "id": 3692818469, "lat": 49.1842475, "lon": 12.8571396, "tags": {"bus": "yes", "highway": "bus_stop", "kerb": "raised", "kerb:height": "0.12", "name": "Bad K\u00f6tzing, Krankenhaus", "platform:width": "1.2", "public_transport": "platform", "ref:IFOPT": "de:09372:1710:0:1", "wheelchair": "no"}}, {"type": "node", "id": 3759337268, "lat": 49.1431591, "lon": 12.9402525, "tags": {"bus": "yes", "fixme": "Nur ungef\u00e4hre Position - bitte korrigieren", "highway": "bus_stop", "name": "Matzelsdorf, Anw. Raab", "public_transport": "stop_position"}}, {"type": "node", "id": 3759337269, "lat": 49.1392244, "lon": 12.9505897, "tags": {"bus": "yes", "highway": "bus_stop", "name": "Niederndorf, Gh. Penzkofer", "public_transport": "stop_position", "ref:IFOPT": "de:09276:5145"}}, {"type": "node", "id": 3759337271, "lat": 49.1339059, "lon": 12.9686752, "tags": {"bus": "yes", "fixme": "Nur ungef\u00e4hre Position - bitte korrigieren", "highway": "bus_stop", "name": "Sindorf, Arnbruck", "public_transport": "stop_position", "ref:IFOPT": "de:09276:5144"}}, {"type": "node", "id": 3759337272, "lat": 49.1311993, "lon": 12.9724952, "tags": {"bus": "yes", "fixme": "Nur ungef\u00e4hre Position - bitte korrigieren", "highway": "bus_stop", "name": "Thalersdorf, Gh. Zellertal", "public_transport": "stop_position"}}, {"type": "node", "id": 3759337273, "lat": 49.1543606, "lon": 12.9294966, "tags": {"bus": "yes", "highway": "bus_stop", "name": "Traidersdorf, Ger\u00e4tehaus", "public_transport": "stop_position"}}, {"type": "node", "id": 3759551902, "lat": 49.1704131, "lon": 12.8658207, "tags": {"bus": "yes", "highway": "bus_stop", "name": "Abzw. Lam, Bad K\u00f6tzting", "public_transport": "stop_position"}}, {"type": "node", "id": 3759551903, "lat": 49.163912, "lon": 12.8777632, "tags": {"bus": "yes", "highway": "bus_stop", "name": "Grub bei Bad K\u00f6tzting, Gh Bergbauer", "public_transport": "stop_position"}}, {"type": "node", "id": 3759551904, "lat": 49.1630019, "lon": 12.8935748, "tags": {"bus": "yes", "highway": "bus_stop", "name": "Hofern, Anw. Fr\u00fcchtl", "public_transport": "stop_position"}}, {"type": "node", "id": 3759551952, "lat": 49.1598398, "lon": 12.9005164, "tags": {"highway": "bus_stop", "name": "W\u00f6lkersdorf, Gh. Gregor", "note": "Nur ungef\u00e4hre Position - bitte korrigieren", "public_transport": "stop_position", "public_transport:version": "2"}}, {"type": "node", "id": 4343183801, "lat": 49.2986817, "lon": 12.80315, "tags": {"bus": "yes", "highway": "bus_stop", "name": "Waradein", "public_transport": "stop_position"}}, {"type": "node", "id": 4460594099, "lat": 49.0177397, "lon": 12.8508625, "tags": {"bench": "no", "bin": "no", "bus": "yes", "highway": "bus_stop", "name": "Waldhof, Abzw.", "public_transport": "platform", "ref:IFOPT": "de:09276:678:0:1", "shelter": "no", "surface": "unpaved", "tactile_paving": "no", "wheelchair": "no"}}, {"type": "node", "id": 4460594100, "lat": 49.0178962, "lon": 12.8508276, "tags": {"bench": "no", "bin": "no", "bus": "yes", "highway": "bus_stop", "name": "Waldhof, Abzw.", "public_transport": "platform", "ref:IFOPT": "de:09276:678:0:2", "shelter": "no", "surface": "unpaved", "tactile_paving": "no", "wheelchair": "no"}}, {"type": "node", "id": 4460594103, "lat": 49.034334, "lon": 12.8621165, "tags": {"bus": "yes", "highway": "bus_stop", "kerb": "raised", "kerb:height": "0.15", "name": "Baierweg, Abzw.", "platform:width": "1.3", "public_transport": "platform", "ref:IFOPT": "de:09276:681:0:1", "shelter": "no", "wheelchair": "no"}}, {"type": "node", "id": 4460594104, "lat": 49.0353012, "lon": 12.8623874, "tags": {"bus": "yes", "highway": "bus_stop", "kerb": "raised", "kerb:height": "0.14", "name": "Baierweg, Abzw.", "platform:width": "1.25", "public_transport": "platform", "ref:IFOPT": "de:09276:681:0:2", "wheelchair": "no"}}, {"type": "node", "id": 4460594105, "lat": 49.048133, "lon": 12.8668808, "tags": {"bus": "yes", "highway": "bus_stop", "kerb": "raised", "kerb:height": "0.13", "name": "Kollnburg, Abzw.", "platform:width": "1.3", "public_transport": "platform", "ref:IFOPT": "de:09276:683:0:1", "wheelchair": "no"}}, {"type": "node", "id": 4460594106, "lat": 49.0484564, "lon": 12.866913, "tags": {"bench": "yes", "bus": "yes", "highway": "bus_stop", "kerb": "raised", "kerb:height": "0.08", "name": "Kollnburg, Abzw.", "platform:width": "1.2", "public_transport": "platform", "ref:IFOPT": "de:09276:683:0:2", "shelter": "yes", "wheelchair": "no"}}, {"type": "node", "id": 4460594107, "lat": 49.0544758, "lon": 12.8749099, "tags": {"bus": "yes", "covered": "no", "highway": "bus_stop", "kerb": "raised", "kerb:height": "0.12", "name": "H\u00f6fen bei Viechtach", "platform:width": "1.2", "public_transport": "platform", "ref:IFOPT": "de:09276:720:0:1", "shelter": "no", "wheelchair": "no"}}, {"type": "node", "id": 4460594108, "lat": 49.0547952, "lon": 12.8749945, "tags": {"bus": "yes", "highway": "bus_stop", "kerb": "raised", "kerb:height": "0.12", "name": "H\u00f6fen bei Viechtach", "platform:width": "1.3", "public_transport": "platform", "ref:IFOPT": "de:09276:720:0:2", "wheelchair": "no"}}, {"type": "node", "id": 4460594109, "lat": 49.0668296, "lon": 12.8770267, "tags": {"bus": "yes", "highway": "bus_stop", "kerb": "raised", "kerb:height": "0.10", "name": "Reichsdorf, Abzw.", "platform:width": "1", "public_transport": "platform", "ref:IFOPT": "de:09276:685:0:1", "wheelchair": "no"}}, {"type": "node", "id": 4460594110, "lat": 49.0672689, "lon": 12.8770777, "tags": {"bus": "yes", "highway": "bus_stop", "kerb": "raised", "kerb:height": "0.12", "name": "Reichsdorf, Abzw.", "platform:width": "2.3", "public_transport": "platform", "ref:IFOPT": "de:09276:685:0:2", "wheelchair": "no"}}, {"type": "node", "id": 4460633517, "lat": 49.0898597, "lon": 12.902911, "tags": {"bus": "yes", "highway": "bus_stop", "name": "Stein", "public_transport": "platform", "ref:IFOPT": "de:09276:10221:0:1", "surface": "unpaved", "wheelchair": "no"}}, {"type": "node", "id": 4460633520, "lat": 49.0962702, "lon": 12.8902316, "tags": {"bus": "yes", "highway": "bus_stop", "name": "Stoaberg b. Viechtach", "public_transport": "platform", "ref:IFOPT": "de:09274:3627:0:1", "surface": "unpaved", "wheelchair": "no"}}, {"type": "node", "id": 4460633521, "lat": 49.1003269, "lon": 12.8865896, "tags": {"bus": "yes", "highway": "bus_stop", "name": "Pirka, Lustacker", "public_transport": "platform", "ref:IFOPT": "de:09276:3628:0:1", "surface": "unpaved", "wheelchair": "no"}}, {"type": "node", "id": 4460633522, "lat": 49.1037761, "lon": 12.8866136, "tags": {"bus": "yes", "highway": "bus_stop", "name": "Pirka, Dorfplatz", "public_transport": "platform", "ref:IFOPT": "de:09276:3629:0:2", "surface": "unpaved", "wheelchair": "no"}}, {"type": "node", "id": 4460904600, "lat": 49.1299232, "lon": 12.8767437, "tags": {"bus": "yes", "highway": "bus_stop", "name": "H\u00f6llensteinsee, Gasthaus Miethaner", "public_transport": "platform", "ref:IFOPT": "de:09276:10227:0:2", "shelter": "no", "surface": "unpaved", "wheelchair": "no"}}, {"type": "node", "id": 4460904601, "lat": 49.1071988, "lon": 12.8838422, "tags": {"highway": "bus_stop"}}, {"type": "node", "id": 4460904604, "lat": 49.1212952, "lon": 12.8874671, "tags": {"bus": "yes", "highway": "bus_stop", "name": "Lammerbach", "public_transport": "platform", "ref:IFOPT": "de:09276:3630:0:2", "shelter": "yes", "surface": "unpaved", "wheelchair": "no"}}, {"type": "node", "id": 4460904605, "lat": 49.123754, "lon": 12.8864216, "tags": {"highway": "bus_stop", "note": "beide Seiten"}}, {"type": "node", "id": 4460964682, "lat": 49.1447458, "lon": 12.8819018, "tags": {"bus": "yes", "highway": "bus_stop", "name": "Wettzell, Feuerwehrhaus", "public_transport": "platform", "ref:IFOPT": "de:09372:1718:0:1", "surface": "unpaved", "wheelchair": "no"}}, {"type": "node", "id": 4460964683, "lat": 49.1468512, "lon": 12.8857212, "tags": {"bus": "yes", "highway": "bus_stop", "name": "Wettzell, Abzw. Kaitersbach", "platform:width": "1", "public_transport": "platform", "ref:IFOPT": "de:09372:1733:0:1", "shelter": "yes"}}, {"type": "node", "id": 4460964686, "lat": 49.151621, "lon": 12.8459768, "tags": {"bench": "no", "bin": "no", "bus": "yes", "highway": "bus_stop", "kerb": "raised", "kerb:height": "0.05", "lit": "no", "name": "Bad K\u00f6tzting, Hafenberg", "note": "nur auf der westlichen Seite der Stra\u00dfe", "platform:width": "1.5", "public_transport": "platform", "ref:IFOPT": "de:09372:1736:0:1", "shelter": "no", "surface": "unpaved", "tactile_paving": "no", "wheelchair": "no"}}, {"type": "node", "id": 4460965192, "lat": 49.158412, "lon": 12.870772, "tags": {"bus": "yes", "highway": "bus_stop", "name": "Bad K\u00f6tzting, Wei\u00dfenholz", "platform:width": "1.2", "public_transport": "platform", "ref:IFOPT": "de:09372:1734:0:1", "surface": "unpaved", "wheelchair": "no"}}, {"type": "node", "id": 4460965198, "lat": 49.1616314, "lon": 12.850947, "tags": {"bench": "no", "bin": "no", "bus": "yes", "highway": "bus_stop", "lit": "no", "name": "Bad K\u00f6tzting, Wei\u00dfenregen Wh", "public_transport": "platform", "ref:IFOPT": "de:09372:1737:0:1", "shelter": "no", "surface": "unpaved", "tactile_paving": "no", "wheelchair": "no"}}, {"type": "node", "id": 4462408916, "lat": 49.1853519, "lon": 12.7392431, "tags": {"bench": "no", "bin": "no", "bus": "yes", "check_date:tactile_paving": "2023-09-10", "highway": "bus_stop", "kerb": "raised", "kerb:height": "0.2", "lit": "no", "name": "Chamerau, Abzw. Staning", "platform:width": "1.6", "public_transport": "platform", "ref:IFOPT": "de:09372:1303:0:1", "shelter": "no", "tactile_paving": "yes"}}, {"type": "node", "id": 4462408917, "lat": 49.1855833, "lon": 12.7389266, "tags": {"bench": "no", "bin": "no", "bus": "yes", "highway": "bus_stop", "kerb": "raised", "kerb:height": "0.2", "lit": "no", "name": "Chamerau, Abzw. Staning", "platform:width": "1.3", "public_transport": "platform", "ref:IFOPT": "de:09372:1303:0:2", "shelter": "no", "tactile_paving": "yes"}}, {"type": "node", "id": 4462408918, "lat": 49.1904451, "lon": 12.7316773, "tags": {"bench": "no", "bin": "no", "highway": "bus_stop", "lit": "no", "name": "Schulbus", "shelter": "no", "tactile_paving": "no"}}, {"type": "node", "id": 4462408919, "lat": 49.1905485, "lon": 12.7313259, "tags": {"bench": "no", "bin": "no", "highway": "bus_stop", "lit": "no", "name": "Schulbus", "shelter": "no", "tactile_paving": "no"}}, {"type": "node", "id": 4462408920, "lat": 49.1999123, "lon": 12.7439669, "tags": {"bench": "no", "bin": "no", "highway": "bus_stop", "shelter": "no", "tactile_paving": "no"}}, {"type": "node", "id": 4502573091, "lat": 49.072646, "lon": 12.9998649}, {"type": "node", "id": 4502573092, "lat": 49.0725476, "lon": 12.9998575}, {"type": "node", "id": 4502573093, "lat": 49.0725487, "lon": 12.9998239}, {"type": "node", "id": 4502573094, "lat": 49.0726471, "lon": 12.9998312}, {"type": "node", "id": 4508094166, "lat": 49.1636587, "lon": 12.7681083}, {"type": "node", "id": 4693850669, "lat": 49.1578362, "lon": 12.7693205, "tags": {"bench": "no", "bin": "no", "bus": "yes", "highway": "bus_stop", "kerb": "raised", "kerb:height": "0.05", "lit": "yes", "name": "Miltach, Kirche", "platform:width": "2.9", "public_transport": "platform", "ref:IFOPT": "de:09372:1950:0:1", "shelter": "no", "tactile_paving": "no"}}, {"type": "node", "id": 4708247327, "lat": 49.2438754, "lon": 12.7305261, "tags": {"bus": "yes", "highway": "bus_stop", "name": "Kothmai\u00dfling, B\u00e4ckerei", "public_transport": "stop_position"}}, {"type": "node", "id": 4708247329, "lat": 49.2445148, "lon": 12.7315296, "tags": {"bus": "yes", "highway": "bus_stop", "name": "Kothmai\u00dfling, B\u00e4ckerei", "public_transport": "stop_position"}}, {"type": "node", "id": 4725573048, "lat": 49.1635438, "lon": 12.8086773, "tags": {"bench": "yes", "bin": "yes", "highway": "bus_stop", "name": "Blaibach(Oberpf)", "ref": "1", "shelter": "yes", "wheelchair": "yes"}}, {"type": "node", "id": 4736397964, "lat": 49.1635916, "lon": 12.7681739}, {"type": "node", "id": 4736398249, "lat": 49.1636025, "lon": 12.7681945}, {"type": "node", "id": 4736398250, "lat": 49.1636532, "lon": 12.7680979}, {"type": "node", "id": 4736398511, "lat": 49.1636641, "lon": 12.7681184}, {"type": "node", "id": 4935485667, "lat": 49.0570813, "lon": 13.0356987, "tags": {"bench": "yes", "bin": "yes", "bus": "yes", "description": "Buslinie 7021 Viechtach <-> B\u00f6brach", "highway": "bus_stop", "kerb": "raised", "kerb:height": "0.02", "lit": "yes", "name": "B\u00f6brach, Rathaus", "platform:width": "3.8", "public_transport": "platform", "ref:IFOPT": "de:09276:5289:0:1", "shelter": "yes", "tactile_paving": "no"}}, {"type": "node", "id": 5062065286, "lat": 49.0549776, "lon": 13.0463196, "tags": {"bus": "yes", "highway": "bus_stop", "name": "Maisried, Abzweigung", "public_transport": "platform", "ref:IFOPT": "de:09276:1769:0:1", "surface": "unpaved", "wheelchair": "no"}}, {"type": "node", "id": 5347657702, "lat": 49.195636, "lon": 13.0023238, "tags": {"bus": "yes", "highway": "bus_stop", "name": "Arrach, Bahnhof", "public_transport": "stop_position", "ref": "1"}}, {"type": "node", "id": 5347657703, "lat": 49.1959583, "lon": 13.0024357, "tags": {"bus": "yes", "highway": "bus_stop", "name": "Arrach, Bahnhof", "public_transport": "stop_position", "ref": "2"}}, {"type": "node", "id": 5347763700, "lat": 49.2036528, "lon": 13.0031428, "tags": {"bus": "yes", "highway": "bus_stop", "kerb": "raised", "kerb:height": "0.1", "name": "Abzw. Ottenzell", "platform:width": "1.2", "public_transport": "platform", "ref:IFOPT": "de:09372:1051:0:1"}}, {"type": "node", "id": 5347763701, "lat": 49.2038807, "lon": 13.0031025, "tags": {"bench": "yes", "bus": "yes", "covered": "yes", "highway": "bus_stop", "kerb": "raised", "kerb:height": "0.08", "name": "Abzw. Ottenzell", "platform:width": "1.1", "public_transport": "platform", "ref:IFOPT": "de:09372:1051:0:2", "shelter": "yes"}}, {"type": "node", "id": 5347767809, "lat": 49.2051148, "lon": 13.0091449, "tags": {"bus": "yes", "covered": "yes", "highway": "bus_stop", "name": "Haib\u00fchl", "public_transport": "platform", "shelter": "yes"}}, {"type": "node", "id": 5347773709, "lat": 49.2413291, "lon": 13.0522755, "tags": {"bus": "yes", "highway": "bus_stop", "kerb": "raised", "kerb:height": "0.08", "name": "Neurittsteig", "platform:width": "1", "public_transport": "platform", "ref:IFOPT": "de:09372:2026:0:2", "wheelchair": "no"}}, {"type": "node", "id": 5347792349, "lat": 49.2495833, "lon": 13.0446345, "tags": {"bench": "yes", "bus": "yes", "covered": "yes", "highway": "bus_stop", "kerb": "raised", "kerb:height": "0.05", "name": "Rittsteig, Dorfplatz", "platform:width": "1.5", "public_transport": "platform", "ref:IFOPT": "de:09372:2031:0:2", "shelter": "yes"}}, {"type": "node", "id": 5353222837, "lat": 49.2797728, "lon": 12.9675365, "tags": {"bus": "yes", "highway": "bus_stop", "kerb": "raised", "kerb:height": "0.1", "name": "Hinterbuchberg, Ort", "platform:width": "1.6", "public_transport": "platform", "ref:IFOPT": "de:09372:2010:0:2"}}, {"type": "node", "id": 5353234921, "lat": 49.2775715, "lon": 12.9525483, "tags": {"bench": "yes", "bus": "yes", "covered": "yes", "highway": "bus_stop", "kerb": "raised", "kerb:height": "0.08", "name": "Hinterbuchberg, Abzw.", "platform:width": "1.4", "public_transport": "platform", "ref:IFOPT": "de:09372:1367:0:1", "shelter": "yes", "wheelchair": "limited"}}, {"type": "node", "id": 5353238074, "lat": 49.2860208, "lon": 12.966654, "tags": {"bench": "no", "bin": "no", "bus": "yes", "highway": "bus_stop", "name": "Hinterbuchberger Stra\u00dfe 35", "platform:width": "1", "public_transport": "platform", "ref:IFOPT": "de:09372:55221:0:1", "shelter": "no", "tactile_paving": "no"}}, {"type": "node", "id": 5353247013, "lat": 49.2942309, "lon": 12.968282, "tags": {"bench": "yes", "bus": "yes", "covered": "yes", "highway": "bus_stop", "kerb": "raised", "kerb:height": "0.12", "name": "Warzenried", "platform:width": "1.3", "public_transport": "platform", "ref:IFOPT": "de:09372:1361:0:1", "shelter": "yes"}}, {"type": "node", "id": 5353247014, "lat": 49.294488, "lon": 12.9684082, "tags": {"bus": "yes", "covered": "yes", "highway": "bus_stop", "kerb": "raised", "kerb:height": "0.1", "name": "Warzenried", "platform:width": "1.45", "public_transport": "platform", "ref:IFOPT": "de:09372:1361:0:2", "shelter": "yes"}}, {"type": "node", "id": 5353247015, "lat": 49.2927492, "lon": 12.9690868, "tags": {"bus": "yes", "highway": "bus_stop", "public_transport": "platform"}}, {"type": "node", "id": 5353260404, "lat": 49.2911065, "lon": 12.9412991, "tags": {"bus": "yes", "highway": "bus_stop", "name": "Stachesried, Ort", "public_transport": "platform", "shelter": "no"}}, {"type": "node", "id": 5353260407, "lat": 49.2898172, "lon": 12.9394966, "tags": {"bench": "no", "bus": "yes", "highway": "bus_stop", "name": "Stachesried, Abzw.", "platform:width": "1", "public_transport": "platform", "ref:IFOPT": "de:09372:55206:0:1", "shelter": "no"}}, {"type": "node", "id": 5353260408, "lat": 49.2899069, "lon": 12.9389032, "tags": {"bus": "yes", "highway": "bus_stop", "kerb": "raised", "kerb:height": "0.1", "name": "Stachesried, Abzw.", "platform:width": "1.1", "public_transport": "platform", "ref:IFOPT": "de:09372:55206:0:2"}}, {"type": "node", "id": 5378218760, "lat": 49.236275, "lon": 12.70744, "tags": {"bench": "yes", "bus": "yes", "covered": "yes", "highway": "bus_stop", "kerb": "raised", "kerb:height": "0.10", "name": "Windischbergerdorf, Blasini", "platform:width": "1.80", "public_transport": "platform", "ref:IFOPT": "de:09372:1274:0:1", "shelter": "yes"}}, {"type": "node", "id": 5378218761, "lat": 49.2367952, "lon": 12.7081722, "tags": {"bench": "yes", "bus": "yes", "highway": "bus_stop", "kerb": "raised", "kerb:height": "0.10", "name": "Windischbergerdorf, Blasini", "platform:width": "1.50", "public_transport": "platform", "ref:IFOPT": "de:09372:1274:0:2", "shelter": "yes"}}, {"type": "node", "id": 5378234166, "lat": 49.2615174, "lon": 12.7634552, "tags": {"bus": "yes", "highway": "bus_stop", "name": "Weiding, Rathaus", "public_transport": "platform"}}, {"type": "node", "id": 5378234167, "lat": 49.261745, "lon": 12.7637529, "tags": {"bus": "yes", "highway": "bus_stop", "name": "Weiding, Rathaus", "public_transport": "platform"}}, {"type": "node", "id": 5378240990, "lat": 49.2732631, "lon": 12.8148168, "tags": {"bench": "yes", "bus": "yes", "highway": "bus_stop", "kerb": "raised", "kerb:height": "0.05", "name": "Arnschwang", "platform:width": "1.5", "public_transport": "platform", "ref:IFOPT": "de:09372:1010:0:1", "shelter": "yes"}}, {"type": "node", "id": 5378240991, "lat": 49.2733209, "lon": 12.814436, "tags": {"bus": "yes", "highway": "bus_stop", "kerb": "raised", "kerb:height": "0.06", "name": "Arnschwang", "platform:width": "1.3", "public_transport": "platform", "ref:IFOPT": "de:09372:1010:0:2"}}, {"type": "node", "id": 5378243392, "lat": 49.3049182, "lon": 12.8321197, "tags": {"bench": "yes", "bus": "yes", "highway": "bus_stop", "kerb": "raised", "kerb:height": "0.1", "name": "Furth im Wald, Grabitz", "platform:width": "1.45", "public_transport": "platform", "ref:IFOPT": "de:09372:51213:0:2", "shelter": "yes", "toilets:wheelchair": "no", "wheelchair": "yes"}}, {"type": "node", "id": 5378243393, "lat": 49.3047665, "lon": 12.8315947, "tags": {"bus": "yes", "highway": "bus_stop", "kerb": "raised", "kerb:height": "0.1", "name": "Furth im Wald, Grabitz", "platform:width": "1.3", "public_transport": "platform", "ref:IFOPT": "de:09372:51213:0:1", "toilets:wheelchair": "no", "wheelchair": "yes"}}, {"type": "node", "id": 5621638167, "lat": 49.3094309, "lon": 12.8385446, "tags": {"bus": "yes", "bus_routes": "keine", "highway": "bus_stop", "name": "Furth im Wald, Bahnhof", "public_transport": "stop_position", "ref": "3"}}, {"type": "node", "id": 5628772572, "lat": 49.0416096, "lon": 12.8647005, "tags": {"bus": "yes", "highway": "bus_stop", "kerb": "raised", "kerb:height": "0.13", "name": "Dornach", "platform:width": "1.3", "public_transport": "platform", "ref:IFOPT": "de:09276:682:0:1"}}, {"type": "node", "id": 5628772573, "lat": 49.042014, "lon": 12.8644913, "tags": {"bus": "yes", "highway": "bus_stop", "kerb": "raised", "kerb:height": "0.11", "name": "Dornach", "platform:width": "1.3", "public_transport": "platform", "ref:IFOPT": "de:09276:682:0:2"}}, {"type": "node", "id": 5628772574, "lat": 49.0210834, "lon": 12.8560799, "tags": {"bus": "yes", "highway": "bus_stop", "kerb": "raised", "kerb:height": "0.15", "name": "Hochstra\u00df", "platform:width": "1.1", "public_transport": "platform", "ref:IFOPT": "de:09276:679:0:1", "shelter": "no", "wheelchair": "no"}}, {"type": "node", "id": 5628772575, "lat": 49.0211292, "lon": 12.8558385, "tags": {"bench": "no", "bin": "no", "bus": "yes", "highway": "bus_stop", "kerb": "raised", "kerb:height": "0.15", "name": "Hochstra\u00df", "platform:width": "1.1", "public_transport": "platform", "ref:IFOPT": "de:09276:679:0:2", "shelter": "no", "wheelchair": "no"}}, {"type": "node", "id": 5633181509, "lat": 49.0472751, "lon": 12.8615905, "tags": {"covered": "yes", "highway": "bus_stop", "name": "Kollnburg, Ort", "public_transport": "platform", "shelter": "yes"}}, {"type": "node", "id": 5633181510, "lat": 49.0472654, "lon": 12.8614202, "tags": {"covered": "yes", "highway": "bus_stop", "name": "Kollnburg, Ort", "public_transport": "platform", "shelter": "yes"}}, {"type": "node", "id": 5633313680, "lat": 49.0781667, "lon": 12.8819016, "tags": {"bench": "yes", "bin": "yes", "bus": "yes", "covered": "yes", "highway": "bus_stop", "kerb": "raised", "kerb:height": "0.14", "lit": "no", "name": "Viechtach, Schmidstra\u00dfe/Edeka", "platform:width": "1.8", "public_transport": "platform", "ref:IFOPT": "de:09276:15945:0:1", "tactile_paving": "no"}}, {"type": "node", "id": 5667578642, "lat": 49.160919, "lon": 12.7694419, "tags": {"bench": "yes", "bin": "no", "bus": "yes", "highway": "bus_stop", "kerb": "raised", "kerb:height": "0.22", "lit": "yes", "name": "Miltach, Schule", "platform:width": "3", "public_transport": "platform", "ref:IFOPT": "de:09372:1952:0:2", "shelter": "yes", "tactile_paving": "yes"}}, {"type": "node", "id": 5691194337, "lat": 49.3094149, "lon": 12.8383299, "tags": {"bus": "yes", "bus_routes": "450, 510, 519, Fernbusse", "highway": "bus_stop", "name": "Furth im Wald, Bahnhof", "public_transport": "stop_position", "ref": "1"}}, {"type": "node", "id": 5691194338, "lat": 49.309425, "lon": 12.8384544, "tags": {"bus": "yes", "bus_routes": "589, 590", "highway": "bus_stop", "name": "Furth im Wald, Bahnhof", "public_transport": "stop_position", "ref": "2"}}, {"type": "node", "id": 5691323850, "lat": 49.2951912, "lon": 12.7832526, "tags": {"bus": "yes", "highway": "bus_stop", "kerb": "raised", "kerb:height": "0.08", "name": "K\u00fchberg bei Furth im Wald", "platform:width": "1.2", "public_transport": "platform", "ref:IFOPT": "de:09372:51210:0:1"}}, {"type": "node", "id": 5691323851, "lat": 49.2954483, "lon": 12.7824855, "tags": {"bus": "yes", "highway": "bus_stop", "kerb": "raised", "kerb:height": "0.1", "name": "K\u00fchberg bei Furth im Wald", "platform:width": "1.1", "public_transport": "platform", "ref:IFOPT": "de:09372:51210:0:2", "surface": "unpaved", "wheelchair": "no"}}, {"type": "node", "id": 5718573837, "lat": 48.9715727, "lon": 12.9352561, "tags": {"bus": "yes", "highway": "bus_stop", "name": "Achslach, Sparkasse", "public_transport": "platform"}}, {"type": "node", "id": 5718573838, "lat": 48.9670088, "lon": 12.9670161, "tags": {"bus": "yes", "highway": "bus_stop", "kerb": "raised", "kerb:height": "0.10", "name": "Gotteszell, S\u00e4gm\u00fchle", "platform:width": "1.2", "public_transport": "platform", "ref:IFOPT": "de:09276:8737:0:1", "wheelchair": "no"}}, {"type": "node", "id": 5718573839, "lat": 48.9670863, "lon": 12.9668203, "tags": {"bench": "yes", "bus": "yes", "covered": "yes", "highway": "bus_stop", "kerb": "raised", "kerb:height": "0.10", "name": "Gotteszell, S\u00e4gm\u00fchle", "platform:width": "1.4", "public_transport": "platform", "ref:IFOPT": "de:09276:8737:0:2", "shelter": "yes"}}, {"type": "node", "id": 5718573840, "lat": 48.963163, "lon": 12.9668578, "tags": {"bench": "yes", "bus": "yes", "highway": "bus_stop", "kerb": "raised", "kerb:height": "0.10", "name": "Gotteszell, Ortsmitte", "platform:width": "1.7", "public_transport": "platform", "ref:IFOPT": "de:09276:8738:0:2", "shelter": "yes"}}, {"type": "node", "id": 5718573841, "lat": 48.9608719, "lon": 12.9710609, "tags": {"bus": "yes", "covered": "yes", "highway": "bus_stop", "name": "Gotteszell, Kreuzung", "public_transport": "platform", "shelter": "yes"}}, {"type": "node", "id": 5718573842, "lat": 48.9595986, "lon": 12.9726917, "tags": {"bus": "yes", "highway": "bus_stop", "kerb": "raised", "kerb:height": "0.15", "name": "Gotteszell, Batzerberg", "platform:width": "1.4", "public_transport": "platform", "ref:IFOPT": "de:09276:8739:0:2"}}, {"type": "node", "id": 5718573843, "lat": 48.9595599, "lon": 12.972241, "tags": {"bench": "yes", "bus": "yes", "covered": "yes", "highway": "bus_stop", "kerb": "raised", "kerb:height": "0.03", "name": "Gotteszell, Batzerberg", "platform:width": "3.9", "public_transport": "platform", "ref:IFOPT": "de:09276:8739:0:1", "shelter": "yes"}}, {"type": "node", "id": 5720719484, "lat": 48.9480003, "lon": 12.9252192, "tags": {"bench": "yes", "bus": "yes", "covered": "yes", "highway": "bus_stop", "name": "Gr\u00fcn, Frath Abzw.", "platform:width": "1.8", "public_transport": "platform", "ref:IFOPT": "de:09276:9704:0:1", "shelter": "yes", "surface": "unpaved", "wheelchair": "no"}}, {"type": "node", "id": 5720719485, "lat": 48.9400297, "lon": 12.9212697, "tags": {"bench": "yes", "bus": "yes", "covered": "yes", "departures_board": "timetable", "highway": "bus_stop", "name": "Kalteck", "note": "Rufbus Tel +49 9921 9499964", "platform:width": "2.4", "public_transport": "platform", "ref:IFOPT": "de:09276:9705:0:2", "shelter": "yes"}}, {"type": "node", "id": 5720719486, "lat": 48.9335291, "lon": 12.9260614, "tags": {"bus": "yes", "highway": "bus_stop", "kerb": "raised", "kerb:height": "0.08", "name": "Zellberg, Abzw.", "platform:width": "1.22", "public_transport": "platform", "ref:IFOPT": "de:09271:9706:0:2", "wheelchair": "no"}}, {"type": "node", "id": 5720719487, "lat": 48.9337599, "lon": 12.9261446, "tags": {"bus": "yes", "highway": "bus_stop", "name": "Zellberg, Abzw.", "narrow": "yes", "public_transport": "platform", "ref:IFOPT": "de:09271:9706:0:1", "wheelchair": "no"}}, {"type": "node", "id": 5720719488, "lat": 48.9303168, "lon": 12.9265174, "tags": {"bus": "yes", "departures_board": "timetable", "highway": "bus_stop", "name": "Rebling", "note": "Rufbus Tel. +49 991 28093095", "platform:width": "1.34", "public_transport": "platform", "ref:IFOPT": "de:09271:9707:0:2", "wheelchair": "no"}}, {"type": "node", "id": 5720719489, "lat": 48.9301335, "lon": 12.9265711, "tags": {"bus": "yes", "highway": "bus_stop", "name": "Rebling", "note": "Rufbus Tel. +49 991 28093095", "platform:width": "1.38", "public_transport": "platform", "ref:IFOPT": "de:09271:9707:0:1", "wheelchair": "no"}}, {"type": "node", "id": 5721119894, "lat": 48.9427225, "lon": 13.0394894, "tags": {"bench": "yes", "bus": "yes", "highway": "bus_stop", "kerb": "raised", "kerb:height": "0.07", "name": "Habischried, Gh. G`kopfalm", "platform:width": "1.2", "public_transport": "platform", "ref:IFOPT": "de:09276:5017:0:1", "shelter": "no"}}, {"type": "node", "id": 5721119895, "lat": 48.9423525, "lon": 13.0394545, "tags": {"bench": "yes", "bus": "yes", "covered": "yes", "highway": "bus_stop", "kerb": "raised", "kerb:height": "0.09", "name": "Habischried, Gh. G`kopfalm", "platform:width": "1.2", "public_transport": "platform", "ref:IFOPT": "de:09276:5017:0:2", "shelter": "yes"}}, {"type": "node", "id": 5721119896, "lat": 48.9359183, "lon": 13.0429763, "tags": {"bench": "no", "bin": "no", "bus": "yes", "covered": "yes", "highway": "bus_stop", "kerb": "raised", "kerb:height": "0.04", "lit": "no", "name": "Unterbreitenau, Gei\u00dfkopf Tal", "platform:width": "1.00", "public_transport": "platform", "ref:IFOPT": "de:09276:5016:0:2", "shelter": "yes", "tactile_paving": "no", "wheelchair": "limited"}}, {"type": "node", "id": 5721119897, "lat": 48.9355818, "lon": 13.0429763, "tags": {"bench": "no", "bin": "no", "bus": "yes", "highway": "bus_stop", "kerb": "raised", "kerb:height": "0.04", "lit": "no", "name": "Unterbreitenau, Gei\u00dfkopf Tal", "platform:width": "1.10", "public_transport": "platform", "ref:IFOPT": "de:09276:5016:0:1", "shelter": "no", "tactile_paving": "no", "wheelchair": "limited"}}, {"type": "node", "id": 5726236218, "lat": 49.0598143, "lon": 12.8546101, "tags": {"alt_name": "Rechertsried", "bus": "yes", "covered": "yes", "highway": "bus_stop", "name": "Rechertsried, Ortseinfahrt", "platform:width": "1.4", "public_transport": "platform", "ref:IFOPT": "de:09276:2855:0:1", "shelter": "yes"}}, {"type": "node", "id": 5726236219, "lat": 49.0636598, "lon": 12.8346303, "tags": {"alt_name": "Ramersdorf", "bus": "yes", "covered": "yes", "highway": "bus_stop", "name": "Ramersdorf, Bush\u00e4uschen", "public_transport": "platform", "shelter": "yes"}}, {"type": "node", "id": 5726236220, "lat": 49.0549456, "lon": 12.8254411, "tags": {"bench": "yes", "bus": "yes", "covered": "yes", "highway": "bus_stop", "name": "N\u00f6\u00dfling", "platform:width": "4.8", "public_transport": "platform", "ref:IFOPT": "de:09276:10970:0:2", "shelter": "yes", "surface": "unpaved", "wheelchair": "no"}}, {"type": "node", "id": 5726707632, "lat": 49.100849, "lon": 12.8092164, "tags": {"bus": "yes", "covered": "yes", "highway": "bus_stop", "name": "Unterrubendorf", "public_transport": "platform", "shelter": "yes"}}, {"type": "node", "id": 5726707633, "lat": 49.099403, "lon": 12.7956249, "tags": {"bench": "yes", "bus": "yes", "covered": "yes", "highway": "bus_stop", "name": "Mitterdorf", "public_transport": "platform", "ref:IFOPT": "de:09276:2868:0:2", "shelter": "yes", "surface": "unpaved", "wheelchair": "no"}}, {"type": "node", "id": 5726707634, "lat": 49.0991824, "lon": 12.78796, "tags": {"bench": "yes", "bin": "no", "bus": "yes", "covered": "yes", "highway": "bus_stop", "kerb": "raised", "kerb:height": "0.10", "name": "Neum\u00fchle, Abzw. Moosbach", "platform:width": "1.5", "public_transport": "platform", "ref:IFOPT": "de:09276:2867:0:1", "shelter": "yes", "tactile_paving": "no", "wheelchair": "no"}}, {"type": "node", "id": 5784941538, "lat": 49.0408567, "lon": 12.9931252, "tags": {"bus": "yes", "bus_routes": "7021, Wenzl-Linie (Bodenmais-Teisnach)", "highway": "bus_stop", "name": "Busbahnhof Teisnach", "public_transport": "stop_position", "ref:IFOPT": "de:09276:5103:0:2"}}, {"type": "node", "id": 5784941539, "lat": 49.0406338, "lon": 12.9931019, "tags": {"bus": "yes", "bus_routes": "6195", "highway": "bus_stop", "name": "Busbahnhof Teisnach", "public_transport": "stop_position"}}, {"type": "node", "id": 5784941540, "lat": 49.0408722, "lon": 12.9931751, "tags": {"bus": "yes", "bus_routes": "7025, SEV", "highway": "bus_stop", "name": "Busbahnhof Teisnach", "public_transport": "stop_position"}}, {"type": "node", "id": 5784958492, "lat": 49.0140885, "lon": 12.9844438, "tags": {"bus": "yes", "highway": "bus_stop", "kerb": "raised", "kerb:height": "0.11", "name": "Patersdorf, Ort", "platform:width": "2", "public_transport": "platform", "ref:IFOPT": "de:09276:5109:0:2", "shelter": "no"}}, {"type": "node", "id": 5784958493, "lat": 49.0145115, "lon": 12.9843874, "tags": {"bench": "no", "bin": "no", "bus": "yes", "highway": "bus_stop", "lit": "yes", "name": "Patersdorf, Ort", "public_transport": "platform", "ref:IFOPT": "de:09276:5109:0:1", "shelter": "no", "surface": "unpaved", "wheelchair": "no"}}, {"type": "node", "id": 5784958494, "lat": 49.0135854, "lon": 12.9835586, "tags": {"bench": "yes", "bus": "yes", "highway": "bus_stop", "incline": "-17%", "kerb": "raised", "kerb:height": "0.16", "name": "Patersdorf B85", "platform:width": "1.1", "public_transport": "platform", "ref:IFOPT": "de:09276:7958:0:1", "shelter": "yes", "wheelchair": "no"}}, {"type": "node", "id": 5784958495, "lat": 49.0136984, "lon": 12.9836465, "tags": {"bench": "yes", "bus": "yes", "covered": "yes", "highway": "bus_stop", "incline": "-16%", "kerb": "raised", "kerb:height": "0.20", "name": "Patersdorf B85", "platform:width": "1.4", "public_transport": "platform", "ref:IFOPT": "de:09276:7958:0:2", "shelter": "yes", "wheelchair": "no"}}, {"type": "node", "id": 5784964558, "lat": 48.9774984, "lon": 12.9811909, "tags": {"bench": "yes", "bin": "yes", "bus": "yes", "highway": "bus_stop", "lit": "no", "name": "Ruhmannsfelden, Edeka", "public_transport": "platform", "ref:IFOPT": "de:09276:11455:0:1", "shelter": "yes", "surface": "unpaved", "tactile_paving": "no", "wheelchair": "no"}}, {"type": "node", "id": 5791489315, "lat": 49.1719757, "lon": 12.8371346, "tags": {"bench": "yes", "bin": "no", "bus": "yes", "highway": "bus_stop", "lit": "no", "name": "Bad K\u00f6tzting, Steinbach", "operator": "RBO", "passenger_information_display": "no", "public_transport": "platform", "ref:IFOPT": "de:09372:51341:0:2", "shelter": "no", "surface": "unpaved", "tactile_paving": "no", "wheelchair": "no"}}, {"type": "node", "id": 5808693430, "lat": 49.302485, "lon": 12.8610272, "tags": {"bus": "yes", "highway": "bus_stop", "kerb": "raised", "kerb:height": "0.10", "name": "Furth im Wald, Bl\u00e4tterberg", "platform:width": "1", "public_transport": "platform", "ref:IFOPT": "de:09372:1467:0:2", "wheelchair": "no"}}, {"type": "node", "id": 5808693431, "lat": 49.3025549, "lon": 12.8611252, "tags": {"bus": "yes", "highway": "bus_stop", "kerb": "raised", "kerb:height": "0.10", "name": "Furth im Wald, Bl\u00e4tterberg", "platform:width": "1.2", "public_transport": "platform", "ref:IFOPT": "de:09372:1467:0:1"}}, {"type": "node", "id": 5809252967, "lat": 48.9819157, "lon": 12.9924756, "tags": {"bench": "yes", "bus": "yes", "covered": "yes", "highway": "bus_stop", "name": "Bruckm\u00fchle", "platform:width": "1.2", "public_transport": "platform", "ref:IFOPT": "de:09276:11453:0:2", "shelter": "yes"}}, {"type": "node", "id": 5832139913, "lat": 49.0400433, "lon": 13.042206, "tags": {"bench": "yes", "bus": "yes", "highway": "bus_stop", "name": "Nach Auerkiel", "public_transport": "platform", "ref:IFOPT": "de:09276:10343:0:1", "shelter": "yes", "surface": "unpaved", "wheelchair": "no"}}, {"type": "node", "id": 5854472483, "lat": 48.956801, "lon": 12.9795789, "tags": {"bench": "yes", "bus": "yes", "highway": "bus_stop", "kerb": "raised", "kerb:height": "0.11", "name": "Gotteszell, Abzw. Bahnhof", "note": "7025", "platform:width": "0.85", "public_transport": "platform", "ref:IFOPT": "de:09276:11454:0:2", "shelter": "yes", "wheelchair": "no"}}, {"type": "node", "id": 5856824220, "lat": 48.9463145, "lon": 12.984598, "tags": {"bus": "yes", "covered": "yes", "highway": "bus_stop", "name": "Grub b. Gotteszell", "platform:width": "3", "public_transport": "platform", "ref:IFOPT": "de:09271:16399:0:1", "shelter": "yes"}}, {"type": "node", "id": 5859142611, "lat": 49.1407031, "lon": 12.7610734, "tags": {"bench": "yes", "bus": "yes", "highway": "bus_stop", "name": "Untervierau", "platform:width": "8.4", "public_transport": "platform", "ref:IFOPT": "de:09372:50620:0:1", "shelter": "yes", "surface": "unpaved", "wheelchair": "no"}}, {"type": "node", "id": 5859142612, "lat": 49.1410988, "lon": 12.7604189, "tags": {"bench": "yes", "bin": "no", "bus": "yes", "highway": "bus_stop", "kerb": "raised", "kerb:height": "0.18", "name": "Untervierau", "platform:width": "4.2", "public_transport": "platform", "ref:IFOPT": "de:09372:50620:0:2", "shelter": "yes"}}, {"type": "node", "id": 5859143551, "lat": 49.1433255, "lon": 12.7556473, "tags": {"bench": "yes", "bin": "no", "bus": "yes", "highway": "bus_stop", "name": "Untervierau, Anw. Schmucker", "platform:width": "4.2", "public_transport": "platform", "ref:IFOPT": "de:09372:50621:0:1", "shelter": "yes", "tactile_paving": "no"}}, {"type": "node", "id": 5929750101, "lat": 49.0801075, "lon": 12.8645959, "tags": {"bench": "yes", "bin": "no", "bus": "yes", "highway": "bus_stop", "name": "Viechtach, Pfahlhotel/Freibad", "public_transport": "platform", "ref:IFOPT": "de:09276:11704:0:1", "shelter": "no", "surface": "unpaved", "tactile_paving": "no", "wheelchair": "no"}}, {"type": "node", "id": 6357630486, "lat": 48.9594591, "lon": 12.9769747, "tags": {"bench": "no", "bin": "no", "bus": "yes", "highway": "bus_stop", "kerb": "raised", "kerb:height": "0.08", "lit": "no", "name": "Gotteszell, Kreuzung", "platform:width": "1.2", "public_transport": "platform", "ref:IFOPT": "de:09276:1770:0:2", "shelter": "no", "tactile_paving": "no", "wheelchair": "no"}}, {"type": "node", "id": 6357630487, "lat": 48.9592556, "lon": 12.9769861, "tags": {"bench": "no", "bin": "no", "bus": "yes", "highway": "bus_stop", "kerb": "raised", "kerb:height": "0.08", "lit": "no", "name": "Gotteszell, Kreuzung", "platform:width": "1.1", "public_transport": "platform", "ref:IFOPT": "de:09276:1770:0:1", "shelter": "no", "tactile_paving": "no", "wheelchair": "no"}}, {"type": "node", "id": 6782873880, "lat": 49.1884491, "lon": 12.8177659, "tags": {"bench": "yes", "bus": "yes", "highway": "bus_stop", "kerb": "raised", "kerb:height": "0.2", "name": "Blaibach, Reckendorf", "platform:width": "1.2", "public_transport": "platform", "ref:IFOPT": "de:09372:52583:0:2", "shelter": "yes", "tactile_paving": "yes", "wheelchair": "no"}}, {"type": "node", "id": 6782873881, "lat": 49.1886214, "lon": 12.817674, "tags": {"bus": "yes", "highway": "bus_stop", "kerb": "raised", "kerb:height": "0.2", "name": "Blaibach, Reckendorf", "platform:width": "1", "public_transport": "platform", "ref:IFOPT": "de:09372:52583:0:1", "tactile_paving": "yes"}}, {"type": "node", "id": 6782873882, "lat": 49.1943814, "lon": 12.8058885, "tags": {"bench": "yes", "bus": "yes", "highway": "bus_stop", "kerb": "raised", "kerb:height": "0.12", "name": "Lederdorn, Haus Nr. 44", "platform:width": "1.3", "public_transport": "platform", "ref:IFOPT": "de:09372:52582:0:1", "shelter": "yes", "wheelchair": "no"}}, {"type": "node", "id": 6782873883, "lat": 49.1945567, "lon": 12.8059301, "tags": {"bus": "yes", "highway": "bus_stop", "kerb": "raised", "kerb:height": "0.12", "name": "Lederdorn, Haus Nr. 44", "platform:width": "1.1", "public_transport": "platform", "ref:IFOPT": "de:09372:52582:0:2", "wheelchair": "no"}}, {"type": "node", "id": 6782890092, "lat": 49.197317, "lon": 12.7993212, "tags": {"bench": "yes", "bus": "yes", "highway": "bus_stop", "kerb": "raised", "kerb:height": "0.08", "name": "Lederdorn, Ortsmitte", "platform:width": "1", "public_transport": "platform", "ref:IFOPT": "de:09372:52581:0:2", "shelter": "yes"}}, {"type": "node", "id": 6782890093, "lat": 49.1973217, "lon": 12.798325, "tags": {"bus": "yes", "highway": "bus_stop", "kerb": "raised", "kerb:height": "0.12", "name": "Lederdorn, Ortsmitte", "platform:width": "1.2", "public_transport": "platform", "ref:IFOPT": "de:09372:52581:0:1", "surface": "unpaved", "wheelchair": "no"}}, {"type": "node", "id": 6964207801, "lat": 48.9587132, "lon": 12.926278, "tags": {"highway": "bus_stop"}}, {"type": "node", "id": 6988218617, "lat": 49.2664936, "lon": 13.0484802, "tags": {"highway": "bus_stop", "name": "Chuden\u00edn, Svat\u00e1 Kate\u0159ina, st.hr."}}, {"type": "node", "id": 7057787907, "lat": 48.9748009, "lon": 12.9796265, "tags": {"bench": "no", "bin": "no", "highway": "bus_stop", "shelter": "no", "tactile_paving": "no"}}, {"type": "node", "id": 7057787908, "lat": 48.9711752, "lon": 12.9773763, "tags": {"bench": "no", "bin": "no", "bus": "yes", "highway": "bus_stop", "kerb": "lowered", "kerb:height": "0.07", "lit": "no", "name": "Stockerholz", "platform:width": "0.8", "public_transport": "platform", "ref:IFOPT": "de:09276:3923:0:1", "shelter": "no", "tactile_paving": "no"}}, {"type": "node", "id": 7252676718, "lat": 48.9351643, "lon": 12.999362, "tags": {"bus": "yes", "departures_board": "no", "highway": "bus_stop", "name": "W\u00fchnried", "note": "Rufbus Tel +49 991 28093095", "operator": "DB Regio Bus", "public_transport": "platform", "ref:IFOPT": "de:09271:16400:0:1", "shelter": "no", "surface": "unpaved", "wheelchair": "no"}}, {"type": "node", "id": 7252699113, "lat": 48.9417593, "lon": 12.969561, "tags": {"bus": "yes", "highway": "bus_stop", "public_transport": "platform"}}, {"type": "node", "id": 7315741532, "lat": 48.9316102, "lon": 12.9910299, "tags": {"highway": "bus_stop", "name": "Englburgsried", "public_transport": "platform", "shelter": "yes"}}, {"type": "node", "id": 8094209003, "lat": 49.0789364, "lon": 12.8891365, "tags": {"bus": "yes", "highway": "bus_stop", "name": "Viechtach, Bahnhof/ZOB", "public_transport": "stop_position"}}, {"type": "node", "id": 8094209006, "lat": 49.0788395, "lon": 12.8892911, "tags": {"bus": "yes", "highway": "bus_stop", "name": "Viechtach, Bahnhof/ZOB", "public_transport": "stop_position"}}, {"type": "node", "id": 8327602713, "lat": 49.3062183, "lon": 12.8461143, "tags": {"bench": "no", "bin": "yes", "bus": "yes", "highway": "bus_stop", "kerb": "raised", "kerb:height": "0.05", "name": "Furth i. Wald, Bayplatz", "passenger_information_display": "yes", "platform:width": "1.35", "public_transport": "platform", "ref:IFOPT": "de:09372:1458:0:2", "shelter": "no", "tactile_paving": "no"}}, {"type": "node", "id": 8327653951, "lat": 49.2987637, "lon": 12.9173571, "tags": {"bench": "yes", "bus": "yes", "highway": "bus_stop", "kerb": "raised", "kerb:height": "0.03", "name": "Eschlkam, Gh Post", "passenger_information_display": "yes", "platform:width": "1.45", "public_transport": "platform", "ref:IFOPT": "de:09372:1355:0:2", "route_ref": "6080/590", "shelter": "yes"}}, {"type": "node", "id": 8327763149, "lat": 49.2957702, "lon": 12.9058829, "tags": {"bus": "yes", "highway": "bus_stop", "kerb": "raised", "kerb:height": "0.10", "name": "Penzenm\u00fchle", "passenger_information_display": "yes", "platform:width": "1.2", "public_transport": "platform", "ref:IFOPT": "de:09372:1350:0:2", "route_ref": "6080/590"}}, {"type": "node", "id": 8327763150, "lat": 49.2958685, "lon": 12.9057064, "tags": {"bus": "yes", "highway": "bus_stop", "kerb": "raised", "kerb:height": "0.10", "name": "Penzenm\u00fchle", "platform:width": "1.35", "public_transport": "platform", "ref:IFOPT": "de:09372:1350:0:1", "route_ref": "6080/590"}}, {"type": "node", "id": 8569681623, "lat": 49.0140871, "lon": 12.8885236, "tags": {"bench": "yes", "bus": "yes", "highway": "bus_stop", "name": "D\u00f6rfl bei Kollnburg", "platform:width": "2.4", "public_transport": "platform", "ref:IFOPT": "de:09276:10338:0:2", "shelter": "yes"}}, {"type": "node", "id": 8954196234, "lat": 49.2658531, "lon": 12.7534696, "tags": {"bus": "yes", "highway": "bus_stop", "public_transport": "platform"}}, {"type": "node", "id": 9000988186, "lat": 49.0576799, "lon": 12.7988656, "tags": {"alt_name": "Boxberg", "bus": "yes", "highway": "bus_stop", "name": "Bocksberg", "public_transport": "platform", "ref:IFOPT": "de:09278:10321:0:2"}}, {"type": "node", "id": 9000988187, "lat": 49.057944, "lon": 12.7989827, "tags": {"alt_name": "Boxberg", "bus": "yes", "highway": "bus_stop", "name": "Bocksberg", "public_transport": "platform", "ref:IFOPT": "de:09278:10321:0:1", "surface": "unpaved", "wheelchair": "no"}}, {"type": "node", "id": 9005122307, "lat": 49.0990475, "lon": 12.7759444, "tags": {"bench": "no", "bin": "no", "bus": "yes", "highway": "bus_stop", "name": "Weisholz, Abzw.", "public_transport": "platform", "ref:IFOPT": "de:09278:2866:0:2", "shelter": "yes", "surface": "unpaved", "tactile_paving": "no", "wheelchair": "no"}}, {"type": "node", "id": 9103986208, "lat": 49.2001235, "lon": 12.8849759, "tags": {"bench": "no", "bin": "no", "bus": "yes", "highway": "bus_stop", "lit": "no", "name": "Grafenwiesen Schule", "note": "wird nur von Linie 611 bedient", "public_transport": "stop_position", "shelter": "no", "tactile_paving": "no"}}, {"type": "node", "id": 9368392784, "lat": 48.9934659, "lon": 13.0099865, "tags": {"bus": "yes", "highway": "bus_stop", "name": "Vorderdietzberg", "public_transport": "platform", "ref:IFOPT": "de:09276:7960:0:2", "shelter": "no", "surface": "unpaved", "wheelchair": "no"}}, {"type": "node", "id": 9431408455, "lat": 49.0172227, "lon": 12.8789531, "tags": {"bench": "yes", "bus": "yes", "highway": "bus_stop", "name": "Hinterberg", "platform:width": "2", "public_transport": "platform", "ref:IFOPT": "de:09276:11579:0:2", "shelter": "yes"}}, {"type": "node", "id": 9431454922, "lat": 49.0869248, "lon": 12.8890967, "tags": {"bench": "yes", "bus": "yes", "departures_board": "yes", "highway": "bus_stop", "name": "Sudetenplatz", "network": "Stadtbus", "operator": "Aschenbrenner", "public_transport": "platform", "ref:IFOPT": "de:09276:16534:0:1", "wheelchair": "yes"}}, {"type": "node", "id": 9433931545, "lat": 49.0724865, "lon": 12.8935882, "tags": {"bus": "yes", "highway": "bus_stop", "kerb": "no", "name": "Nussbergerstra\u00dfe", "platform:width": "1.55", "public_transport": "platform", "ref:IFOPT": "de:09276:7938:0:1"}}, {"type": "node", "id": 9641741000, "lat": 49.1070027, "lon": 13.0111321, "tags": {"bench": "yes", "bin": "yes", "bus": "yes", "highway": "bus_stop", "kerb": "raised", "kerb:height": "0.02", "lit": "yes", "name": "Drachselsried, Ort/Dorfplatz", "platform:width": "1.7", "public_transport": "platform", "ref:IFOPT": "de:09276:5073:0:1", "shelter": "yes", "tactile_paving": "no"}}, {"type": "node", "id": 9651677469, "lat": 49.0876748, "lon": 12.8870637, "tags": {"bench": "no", "bin": "no", "bus": "yes", "highway": "bus_stop", "kerb": "raised", "kerb:height": "0.11", "name": "Viechtach, Sudetenring", "platform:width": "1.3", "public_transport": "platform", "ref:IFOPT": "de:09276:16378:0:1", "shelter": "no", "tactile_paving": "no", "wheelchair": "limited"}}, {"type": "node", "id": 9652033542, "lat": 49.0770962, "lon": 12.8890885, "tags": {"bench": "no", "bin": "no", "bus": "yes", "highway": "bus_stop", "public_transport": "platform", "shelter": "no", "tactile_paving": "no"}}, {"type": "node", "id": 9654150007, "lat": 49.0832478, "lon": 12.884339, "tags": {"bench": "no", "bin": "no", "bus": "yes", "highway": "bus_stop", "name": "Viechtach, Autohaus", "public_transport": "platform", "ref:IFOPT": "de:09276:11908:0:2", "shelter": "no", "surface": "unpaved", "tactile_paving": "no", "wheelchair": "no"}}, {"type": "node", "id": 9654213960, "lat": 49.085999, "lon": 12.8776942, "tags": {"bench": "yes", "bin": "yes", "bus": "yes", "highway": "bus_stop", "kerb": "raised", "kerb:height": "0.10", "name": "Viechtach, Krankenhaus", "platform:width": "2.1", "public_transport": "platform", "ref:IFOPT": "de:09276:5057:0:2", "shelter": "no", "tactile_paving": "no"}}, {"type": "node", "id": 9700882011, "lat": 49.0816596, "lon": 12.8972143, "tags": {"bus": "yes", "highway": "bus_stop", "name": "Blossersberg, Am Kreuz", "public_transport": "platform", "ref:IFOPT": "de:09276:5059:0:1", "surface": "unpaved", "wheelchair": "no"}}, {"type": "node", "id": 9700882014, "lat": 49.081427, "lon": 12.8972759, "tags": {"bus": "yes", "highway": "bus_stop", "kerb": "raised", "kerb:height": "0.04", "name": "Blossersberg, Am Kreuz", "platform:width": "1.1", "public_transport": "platform", "ref:IFOPT": "de:09276:5059:0:2"}}, {"type": "node", "id": 9727542943, "lat": 49.000394, "lon": 13.0580999, "tags": {"bus": "yes", "highway": "bus_stop", "name": "Arnetsried, Stadlhof", "public_transport": "platform", "ref:IFOPT": "de:09276:16523:0:1", "surface": "unpaved", "wheelchair": "no"}}, {"type": "node", "id": 9727579693, "lat": 48.9579916, "lon": 13.0568808, "tags": {"bus": "yes", "highway": "bus_stop", "name": "Furth bei Triefenried", "public_transport": "platform", "ref:IFOPT": "de:09276:16389:0:1", "surface": "unpaved", "wheelchair": "no"}}, {"type": "node", "id": 9727581961, "lat": 49.0203095, "lon": 12.8711379, "tags": {"bench": "yes", "bus": "yes", "highway": "bus_stop", "name": "B\u00f6hmersried, Allersdorf", "platform:width": "2", "public_transport": "platform", "ref:IFOPT": "de:09276:11562:0:2", "shelter": "yes", "surface": "unpaved", "wheelchair": "no"}}, {"type": "node", "id": 9727601653, "lat": 48.9627315, "lon": 13.0486163, "tags": {"bus": "yes", "highway": "bus_stop", "name": "Gottlesried Birkenthal", "platform:width": "1.5", "public_transport": "platform", "ref:IFOPT": "de:09276:16179:0:1"}}, {"type": "node", "id": 9727638702, "lat": 49.0291176, "lon": 12.8389232, "tags": {"bus": "yes", "highway": "bus_stop", "name": "Hinterviechtach, B\u00e4rwurz Resl H\u00fctte", "public_transport": "platform", "ref:IFOPT": "de:09276:11558:0:1", "surface": "unpaved", "wheelchair": "no"}}, {"type": "node", "id": 9728814390, "lat": 49.0574117, "lon": 12.8905919, "tags": {"bus": "yes", "highway": "bus_stop", "name": "Kammeraitnach", "public_transport": "platform", "ref:IFOPT": "de:09276:7918:0:1", "surface": "unpaved", "wheelchair": "no"}}, {"type": "node", "id": 9728814391, "lat": 49.0574134, "lon": 12.8907703, "tags": {"bench": "yes", "bus": "yes", "highway": "bus_stop", "name": "Kammeraitnach", "platform:width": "2.5", "public_transport": "platform", "ref:IFOPT": "de:09276:7918:0:2", "shelter": "yes", "surface": "unpaved", "wheelchair": "no"}}, {"type": "node", "id": 9729928591, "lat": 49.0647744, "lon": 12.903484, "tags": {"bus": "yes", "highway": "bus_stop", "name": "Sch\u00e4dlbergstra\u00dfe", "public_transport": "platform", "ref:IFOPT": "de:09276:16384:0:1", "surface": "unpaved", "wheelchair": "no"}}, {"type": "node", "id": 9729985723, "lat": 49.0614937, "lon": 12.9107581, "tags": {"bench": "no", "bin": "no", "bus": "yes", "highway": "bus_stop", "lit": "no", "name": "Stockhof", "public_transport": "platform", "ref:IFOPT": "de:09276:7941:0:2", "shelter": "no", "surface": "unpaved", "tactile_paving": "no", "wheelchair": "no"}}, {"type": "node", "id": 9729985724, "lat": 49.0615174, "lon": 12.9108882, "tags": {"bench": "no", "bin": "no", "bus": "yes", "highway": "bus_stop", "lit": "no", "name": "Stockhof", "public_transport": "platform", "ref:IFOPT": "de:09276:7941:0:1", "shelter": "no", "surface": "unpaved", "tactile_paving": "no", "wheelchair": "no"}}, {"type": "node", "id": 9737310151, "lat": 49.0685931, "lon": 12.8916755, "tags": {"bus": "yes", "highway": "bus_stop", "kerb": "raised", "kerb:height": "0.12", "name": "Schlatzendorf, Bundesstra\u00dfe", "platform:width": "0.9", "public_transport": "platform", "ref:IFOPT": "de:09276:5115:0:2"}}, {"type": "node", "id": 9737335942, "lat": 49.0022415, "lon": 13.0440714, "tags": {"bus": "yes", "highway": "bus_stop", "name": "Busmannsried", "public_transport": "stop_position"}}, {"type": "node", "id": 9737335943, "lat": 49.0023124, "lon": 13.0436562, "tags": {"bus": "yes", "highway": "bus_stop", "kerb": "raised", "kerb:height": "0.1", "name": "Busmannsried", "platform:width": "1.3", "public_transport": "platform", "ref:IFOPT": "de:09276:5096:0:2"}}, {"type": "node", "id": 9737353235, "lat": 49.0446345, "lon": 12.8269511, "tags": {"bus": "yes", "highway": "bus_stop", "kerb": "raised", "kerb:height": "0.12", "name": "M\u00fcnchsh\u00f6fen", "public_transport": "platform", "ref:IFOPT": "de:09276:10207:0:2", "surface": "unpaved", "wheelchair": "no"}}, {"type": "node", "id": 9737725866, "lat": 49.0087781, "lon": 12.888367, "tags": {"bench": "yes", "bus": "yes", "highway": "bus_stop", "name": "Winklern,Allersdorf", "platform:width": "1.4", "public_transport": "platform", "ref:IFOPT": "de:09276:11561:0:2", "shelter": "yes"}}, {"type": "node", "id": 9748883375, "lat": 49.1218373, "lon": 12.7992895, "tags": {"bus": "yes", "highway": "bus_stop", "name": "Altwies", "public_transport": "platform", "ref:IFOPT": "de:09276:7936:0:1", "surface": "unpaved", "wheelchair": "no"}}, {"type": "node", "id": 9748895497, "lat": 49.1322657, "lon": 12.9932468, "tags": {"bench": "no", "bin": "no", "bus": "yes", "highway": "bus_stop", "lit": "yes", "name": "Arnbruck, Hotel Hubertus", "platform:width": "0.9", "public_transport": "platform", "ref:IFOPT": "de:09276:10428:0:2", "shelter": "no"}}, {"type": "node", "id": 9749009774, "lat": 49.1300956, "lon": 12.9913585, "tags": {"bus": "yes", "highway": "bus_stop", "kerb": "raised", "kerb:height": "0.16", "name": "Arnbruck, Panoramabad", "public_transport": "platform", "ref:IFOPT": "de:09276:16367:0:1", "surface": "unpaved", "wheelchair": "no"}}, {"type": "node", "id": 9749047759, "lat": 49.1320679, "lon": 13.0049077, "tags": {"bus": "yes", "highway": "bus_stop", "kerb": "raised", "kerb:height": "0.02", "name": "Arnbruck, Scharebenweg", "platform:width": "0.95", "public_transport": "platform", "ref:IFOPT": "de:09276:15975:0:1"}}, {"type": "node", "id": 9749048240, "lat": 49.1253119, "lon": 12.9612232, "tags": {"bench": "no", "bin": "no", "bus": "yes", "highway": "bus_stop", "name": "Bach bei Arnbruck, Abzw.", "public_transport": "platform", "ref:IFOPT": "de:09276:5068:0:2", "shelter": "no", "surface": "unpaved", "tactile_paving": "no", "wheelchair": "no"}}, {"type": "node", "id": 9749048241, "lat": 49.125222, "lon": 12.9612386, "tags": {"bench": "no", "bin": "no", "bus": "yes", "highway": "bus_stop", "name": "Bach bei Arnbruck, Abzw.", "public_transport": "platform", "ref:IFOPT": "de:09276:5068:0:1", "shelter": "no", "surface": "unpaved", "tactile_paving": "no", "wheelchair": "no"}}, {"type": "node", "id": 9749060963, "lat": 49.1284327, "lon": 12.9928029, "tags": {"bus": "yes", "highway": "bus_stop", "name": "Arnbruck, Weinfurtner", "platform:width": "1.2", "public_transport": "platform", "ref:IFOPT": "de:09276:15976:0:1"}}, {"type": "node", "id": 9749128623, "lat": 49.1283844, "lon": 12.9658587, "tags": {"bus": "yes", "highway": "bus_stop", "name": "Baumgarten bei Arnbruck, Arnbruck", "public_transport": "platform", "ref:IFOPT": "de:09276:16162:0:1", "surface": "unpaved", "wheelchair": "no"}}, {"type": "node", "id": 9749186585, "lat": 49.0287936, "lon": 12.8590599, "tags": {"bench": "no", "bin": "no", "bus": "yes", "highway": "bus_stop", "name": "Ogleinsmais, Abzw.", "public_transport": "platform", "ref:IFOPT": "de:09276:680:0:1", "shelter": "no", "surface": "unpaved", "tactile_paving": "no", "wheelchair": "no"}}, {"type": "node", "id": 9749186586, "lat": 49.0287712, "lon": 12.8587239, "tags": {"bus": "yes", "highway": "bus_stop", "name": "Ogleinsmais, Abzw.", "public_transport": "platform", "ref:IFOPT": "de:09276:680:0:2", "shelter": "no", "surface": "unpaved", "wheelchair": "no"}}, {"type": "node", "id": 9749212284, "lat": 49.1265905, "lon": 12.8510149, "tags": {"bus": "yes", "highway": "bus_stop", "name": "Grub bei Krailing", "public_transport": "platform", "ref:IFOPT": "de:09276:16767:0:1", "surface": "unpaved", "wheelchair": "no"}}, {"type": "node", "id": 9749216048, "lat": 49.1204701, "lon": 12.852934, "tags": {"bus": "yes", "highway": "bus_stop", "name": "Berg bei Krailing", "public_transport": "platform", "ref:IFOPT": "de:09276:16766:0:1", "surface": "unpaved", "wheelchair": "no"}}, {"type": "node", "id": 9749266314, "lat": 49.1437938, "lon": 12.9529516, "tags": {"bus": "yes", "highway": "bus_stop", "name": "Gutendorf", "public_transport": "platform", "ref:IFOPT": "de:09276:16161:0:1", "surface": "unpaved", "wheelchair": "no"}}, {"type": "node", "id": 9749271997, "lat": 49.084239, "lon": 12.8217415, "tags": {"bench": "yes", "bus": "yes", "highway": "bus_stop", "kerb": "no", "name": "Hagengrub, Baugesch\u00e4ft", "platform:width": "2.5", "public_transport": "platform", "ref:IFOPT": "de:09276:10327:0:1", "shelter": "yes"}}, {"type": "node", "id": 9749282612, "lat": 49.0377722, "lon": 12.885486, "tags": {"bench": "yes", "bus": "yes", "highway": "bus_stop", "kerb": "no", "name": "Kirchaitnach", "platform:width": "2.6", "public_transport": "platform", "ref:IFOPT": "de:09276:10339:0:1", "shelter": "yes", "surface": "unpaved", "wheelchair": "no"}}, {"type": "node", "id": 9749332883, "lat": 49.1160372, "lon": 12.837543, "tags": {"bus": "yes", "highway": "bus_stop", "name": "Krailing, Ort", "public_transport": "platform", "ref:IFOPT": "de:09276:7932:0:1", "surface": "unpaved", "wheelchair": "no"}}, {"type": "node", "id": 9749334558, "lat": 49.1097031, "lon": 12.8408922, "tags": {"bus": "yes", "highway": "bus_stop", "name": "Meidengrub, Abzw", "public_transport": "platform", "ref:IFOPT": "de:09276:7930:0:1", "surface": "unpaved", "wheelchair": "no"}}, {"type": "node", "id": 9749342881, "lat": 49.1062588, "lon": 12.7841047, "tags": {"bench": "yes", "bin": "no", "bus": "yes", "highway": "bus_stop", "lit": "no", "name": "Moosbach, Sportplatz", "public_transport": "platform", "ref:IFOPT": "de:09276:16368:0:1", "shelter": "yes", "surface": "unpaved", "tactile_paving": "no", "wheelchair": "no"}}, {"type": "node", "id": 9749345703, "lat": 49.1150505, "lon": 12.7818489, "tags": {"bus": "yes", "highway": "bus_stop", "name": "Moosbach, Abzw. Pfarrhofstr.", "public_transport": "platform", "ref:IFOPT": "de:09276:16153:0:1", "surface": "unpaved", "wheelchair": "no"}}, {"type": "node", "id": 9749369564, "lat": 49.0992885, "lon": 12.7957425, "tags": {"bus": "yes", "highway": "bus_stop", "name": "Mitterdorf", "public_transport": "platform", "ref:IFOPT": "de:09276:2868:0:1", "surface": "unpaved", "wheelchair": "no"}}, {"type": "node", "id": 9749385815, "lat": 49.115038, "lon": 12.7842504, "tags": {"bench": "yes", "bus": "yes", "highway": "bus_stop", "kerb": "no", "name": "Moosbach, Viechtacher Str.,Ahrain (Ndb)", "platform:width": "1.7", "public_transport": "platform", "ref:IFOPT": "de:09276:11701:0:1", "shelter": "yes"}}, {"type": "node", "id": 9749394892, "lat": 49.0196835, "lon": 12.8879337, "tags": {"bus": "yes", "highway": "bus_stop", "name": "Neidling", "public_transport": "platform", "ref:IFOPT": "de:09276:10337:0:2", "surface": "unpaved", "wheelchair": "no"}}, {"type": "node", "id": 9754004180, "lat": 49.1315657, "lon": 12.9718219, "tags": {"bus": "yes", "highway": "bus_stop", "name": "Thalersdorf", "public_transport": "platform", "ref:IFOPT": "de:09276:5143:0:1", "surface": "unpaved", "wheelchair": "no"}}, {"type": "node", "id": 9754004181, "lat": 49.1315125, "lon": 12.9717663, "tags": {"bus": "yes", "highway": "bus_stop", "name": "Thalersdorf", "public_transport": "platform", "ref:IFOPT": "de:09276:5143:0:2", "surface": "unpaved", "wheelchair": "no"}}, {"type": "node", "id": 9754123105, "lat": 49.09472, "lon": 12.8682829, "tags": {"bench": "yes", "bus": "yes", "highway": "bus_stop", "name": "Tresdorf, Ort", "public_transport": "platform", "ref:IFOPT": "de:09276:7910:0:1", "shelter": "yes", "surface": "unpaved", "wheelchair": "no"}}, {"type": "node", "id": 9754138635, "lat": 49.1006374, "lon": 12.8651057, "tags": {"bench": "yes", "bus": "yes", "highway": "bus_stop", "name": "Tresdorf, West", "public_transport": "platform", "ref:IFOPT": "de:09276:7911:0:1", "shelter": "yes", "surface": "unpaved", "wheelchair": "no"}}, {"type": "node", "id": 9754138636, "lat": 49.1007784, "lon": 12.8650647, "tags": {"bus": "yes", "highway": "bus_stop", "name": "Tresdorf, West", "public_transport": "platform", "ref:IFOPT": "de:09276:7911:0:2", "surface": "unpaved", "wheelchair": "no"}}, {"type": "node", "id": 9754168407, "lat": 49.1209754, "lon": 12.809207, "tags": {"bus": "yes", "highway": "bus_stop", "kerb": "lowered", "name": "Viechtafell, West", "platform:width": "2", "public_transport": "platform", "ref:IFOPT": "de:09276:7934:0:1"}}, {"type": "node", "id": 9754175363, "lat": 49.0998188, "lon": 12.8106437, "tags": {"bench": "no", "bin": "no", "bus": "yes", "highway": "bus_stop", "name": "Unterrubendorf", "public_transport": "platform", "ref:IFOPT": "de:09276:15166:0:1", "shelter": "no", "surface": "unpaved", "tactile_paving": "no", "wheelchair": "no"}}, {"type": "node", "id": 9754175364, "lat": 49.0997524, "lon": 12.810875, "tags": {"bench": "no", "bin": "no", "bus": "yes", "highway": "bus_stop", "name": "Unterrubendorf", "public_transport": "platform", "ref:IFOPT": "de:09276:15166:0:2", "shelter": "no", "surface": "unpaved", "tactile_paving": "no", "wheelchair": "no"}}, {"type": "node", "id": 9754176693, "lat": 49.1215507, "lon": 12.8131117, "tags": {"bench": "yes", "bus": "yes", "highway": "bus_stop", "name": "Viechtafell, Ost", "public_transport": "platform", "ref:IFOPT": "de:09276:7935:0:1", "shelter": "yes", "surface": "unpaved", "wheelchair": "no"}}, {"type": "node", "id": 9754281669, "lat": 49.1047104, "lon": 12.8450342, "tags": {"bench": "yes", "bus": "yes", "highway": "bus_stop", "kerb": "lowered", "kerb:height": "0.05", "name": "Fichtental", "platform:width": "1.5", "public_transport": "platform", "ref:IFOPT": "de:09276:7929:0:1", "shelter": "yes"}}, {"type": "node", "id": 9754281670, "lat": 49.1047895, "lon": 12.8449216, "tags": {"bus": "yes", "highway": "bus_stop", "name": "Fichtental", "public_transport": "platform", "ref:IFOPT": "de:09276:7929:0:2", "surface": "unpaved", "wheelchair": "no"}}, {"type": "node", "id": 9754585115, "lat": 49.1149857, "lon": 12.8416233, "tags": {"bench": "yes", "bus": "yes", "highway": "bus_stop", "name": "Krailing, Abzw", "public_transport": "platform", "ref:IFOPT": "de:09276:7931:0:2", "shelter": "yes", "surface": "unpaved", "wheelchair": "no"}}, {"type": "node", "id": 9754614946, "lat": 49.1107145, "lon": 12.782918, "tags": {"bus": "yes", "highway": "bus_stop", "name": "Moosbach, Im Nahen Feld", "public_transport": "platform", "ref:IFOPT": "de:09276:16154:0:1", "surface": "unpaved", "wheelchair": "no"}}, {"type": "node", "id": 9754636668, "lat": 49.0991325, "lon": 12.7881898, "tags": {"bench": "no", "bin": "no", "bus": "yes", "highway": "bus_stop", "name": "Neum\u00fchle, Abzw. Moosbach", "public_transport": "platform", "ref:IFOPT": "de:09276:2867:0:2", "shelter": "no", "surface": "unpaved", "tactile_paving": "no", "wheelchair": "no"}}, {"type": "node", "id": 9754673523, "lat": 49.0919164, "lon": 12.8277494, "tags": {"bench": "yes", "bin": "no", "bus": "yes", "highway": "bus_stop", "kerb": "raised", "kerb:height": "0.11", "lit": "yes", "name": "Prackenbach, B85", "platform:width": "1", "public_transport": "platform", "ref:IFOPT": "de:09276:8730:0:1", "shelter": "yes", "tactile_paving": "no", "wheelchair": "no"}}, {"type": "node", "id": 9754673524, "lat": 49.092142, "lon": 12.827118, "tags": {"bench": "no", "bin": "no", "bus": "yes", "highway": "bus_stop", "kerb": "raised", "kerb:height": "0.12", "lit": "yes", "name": "Prackenbach, B85", "platform:width": "1.30", "public_transport": "platform", "ref:IFOPT": "de:09276:8730:0:2", "shelter": "no", "tactile_paving": "no"}}, {"type": "node", "id": 9756648594, "lat": 49.0892177, "lon": 12.8239793, "tags": {"bus": "yes", "highway": "bus_stop", "name": "Prackenbach, Siedlung Lexegern", "platform:width": "1.2", "public_transport": "platform", "ref:IFOPT": "de:09276:16902:0:2", "surface": "unpaved", "wheelchair": "no"}}, {"type": "node", "id": 9756691956, "lat": 49.054945, "lon": 12.9212563, "tags": {"bench": "no", "bin": "no", "bus": "yes", "highway": "bus_stop", "name": "Pignet, Abzweigung", "public_transport": "platform", "ref:IFOPT": "de:09276:7942:0:2", "shelter": "no", "surface": "unpaved", "tactile_paving": "no", "wheelchair": "no"}}, {"type": "node", "id": 9767661943, "lat": 49.1352669, "lon": 12.9515056, "tags": {"bus": "yes", "highway": "bus_stop", "kerb": "raised", "kerb:height": "0.14", "name": "Rappendorf, Wh, Altenmarkt", "platform:width": "2.6", "public_transport": "platform", "ref:IFOPT": "de:09276:15956:0:1", "surface": "unpaved", "wheelchair": "no"}}, {"type": "node", "id": 9768289278, "lat": 49.1269458, "lon": 12.9697335, "tags": {"bus": "yes", "highway": "bus_stop", "kerb": "raised", "kerb:height": "0.12", "name": "Thalersdorf, Abzw", "platform:width": "1.9", "public_transport": "platform", "ref:IFOPT": "de:09276:5069:0:2"}}, {"type": "node", "id": 9768289279, "lat": 49.1264693, "lon": 12.9704375, "tags": {"bus": "yes", "highway": "bus_stop", "kerb": "raised", "kerb:height": "0.11", "name": "Thalersdorf, Abzw", "platform:width": "1.9", "public_transport": "platform", "ref:IFOPT": "de:09276:5069:0:1"}}, {"type": "node", "id": 9770744872, "lat": 49.0933491, "lon": 12.8629887, "tags": {"bus": "yes", "highway": "bus_stop", "name": "Tresdorf, Gh, Ahrain (Ndb)", "public_transport": "platform", "ref:IFOPT": "de:09276:7909:0:1", "wheelchair": "no"}}, {"type": "node", "id": 9770744873, "lat": 49.0928464, "lon": 12.8644, "tags": {"bus": "yes", "highway": "bus_stop", "name": "Tresdorf, Gh, Ahrain (Ndb)", "public_transport": "platform", "ref:IFOPT": "de:09276:7909:0:1", "surface": "unpaved", "wheelchair": "no"}}, {"type": "node", "id": 9770750378, "lat": 49.1287882, "lon": 12.7890497, "tags": {"bus": "yes", "highway": "bus_stop", "kerb": "raised", "kerb:height": "0.09", "name": "Voggenzell, Ort", "platform:width": "1.05", "public_transport": "platform", "ref:IFOPT": "de:09276:1772:0:1"}}, {"type": "node", "id": 9770756929, "lat": 49.1034348, "lon": 12.8080668, "tags": {"bench": "yes", "bus": "yes", "highway": "bus_stop", "name": "Unterrubendorf", "platform:width": "3", "public_transport": "platform", "ref:IFOPT": "de:09276:10325:0:1", "shelter": "yes"}}, {"type": "node", "id": 9770789044, "lat": 49.1242757, "lon": 12.7943864, "tags": {"bus": "yes", "highway": "bus_stop", "name": "Voggenzell, B85", "public_transport": "platform", "ref:IFOPT": "de:09276:7937:0:2", "shelter": "yes", "surface": "unpaved", "wheelchair": "no"}}, {"type": "node", "id": 9770789045, "lat": 49.1253231, "lon": 12.7933007, "tags": {"bench": "no", "bin": "no", "bus": "yes", "highway": "bus_stop", "name": "Voggenzell, B85", "public_transport": "platform", "ref:IFOPT": "de:09276:7937:0:1", "shelter": "no", "surface": "unpaved", "tactile_paving": "no", "wheelchair": "no"}}, {"type": "node", "id": 9774461676, "lat": 49.099351, "lon": 12.8282346, "tags": {"bus": "yes", "highway": "bus_stop", "name": "Prackenbach, Wiedenhofstra\u00dfe", "public_transport": "platform", "ref:IFOPT": "de:09276:16154:0:1", "surface": "unpaved", "wheelchair": "no"}},