{"version": 0.6, "generator": "Overpass API 0.7.62.8 e802775f", "osm3s": {"timestamp_osm_base": "2026-01-05T16:39:30Z", "copyright": "The data included in this document is from www.openstreetmap.org. The data is made available under ODbL."}, "elements": [{"type": "node", "id": 659510061, "lat": 49.688036, "lon": 14.006867}, {"type": "node", "id": 659510069, "lat": 49.6880089, "lon": 14.0067727}, {"type": "node", "id": 791958300, "lat": 49.6698679, "lon": 14.1100339, "tags": {"hiking": "yes", "information": "guidepost", "name": "Placy", "operator": "cz:K\u010cT", "ref": "PB067", "tourism": "information"}}, {"type": "node", "id": 791958477, "lat": 49.6704451, "lon": 14.1570074, "tags": {"ele": "433", "hiking": "yes", "information": "guidepost", "name": "Jelence (bus)", "old_ref": "PB069;1063/10", "operator": "cz:K\u010cT", "ref": "PB183", "tourism": "information"}}, {"type": "node", "id": 791958518, "lat": 49.6806565, "lon": 14.1261878, "tags": {"amenity": "shelter", "shelter_type": "picnic_shelter"}}, {"type": "node", "id": 791958854, "lat": 49.6669497, "lon": 14.0984754, "tags": {"ele": "473", "hiking": "yes", "information": "guidepost", "name": "Pod Sp\u00e1len\u00fdm vrchem", "operator": "cz:K\u010cT", "ref": "PB050", "tourism": "information"}}, {"type": "node", "id": 791958881, "lat": 49.6608483, "lon": 14.1997842, "tags": {"hiking": "yes", "information": "guidepost", "name": "Luhy", "operator": "cz:K\u010cT", "ref": "PB074", "tourism": "information"}}, {"type": "node", "id": 791959001, "lat": 49.6806429, "lon": 14.1262324, "tags": {"ele": "523", "hiking": "yes", "information": "guidepost", "name": "Pod Velkou skalou", "operator": "cz:K\u010cT", "ref": "PB364", "tourism": "information"}}, {"type": "node", "id": 857533217, "lat": 49.6853015, "lon": 14.0167855}, {"type": "node", "id": 857533477, "lat": 49.685277, "lon": 14.017023}, {"type": "node", "id": 857533563, "lat": 49.6875648, "lon": 14.0123134}, {"type": "node", "id": 857533892, "lat": 49.6875832, "lon": 14.0123354, "tags": {"barrier": "gate", "bicycle": "no", "foot": "yes", "horse": "no", "motor_vehicle": "no"}}, {"type": "node", "id": 857534220, "lat": 49.685319, "lon": 14.017042}, {"type": "node", "id": 857534285, "lat": 49.6853483, "lon": 14.0169308}, {"type": "node", "id": 857534702, "lat": 49.6288892, "lon": 14.1330932, "tags": {"board_type": "history", "information": "board", "name": "NS Okol\u00edm Smolotel \u010d. 7: Osada Draha", "tourism": "information"}}, {"type": "node", "id": 857534909, "lat": 49.685344, "lon": 14.0169047}, {"type": "node", "id": 857535201, "lat": 49.6853228, "lon": 14.0168546}, {"type": "node", "id": 857536167, "lat": 49.6852668, "lon": 14.0168541}, {"type": "node", "id": 857536299, "lat": 49.6853013, "lon": 14.0169036}, {"type": "node", "id": 857536410, "lat": 49.687495, "lon": 14.012459}, {"type": "node", "id": 857536632, "lat": 49.6853452, "lon": 14.0169661}, {"type": "node", "id": 857536737, "lat": 49.6268296, "lon": 14.1355763, "tags": {"board_type": "history", "check_date": "2021-08-05", "information": "board", "name": "NS Okol\u00edm Smolotel \u010d. 6: Ml\u00fdnsk\u00e1 soustava", "tourism": "information"}}, {"type": "node", "id": 857537711, "lat": 49.6875982, "lon": 14.0123545}, {"type": "node", "id": 857537814, "lat": 49.6853133, "lon": 14.0171324}, {"type": "node", "id": 1243562868, "lat": 49.6127683, "lon": 14.1882936, "tags": {"hiking": "yes", "information": "guidepost", "name": "Solenice (most)", "operator": "cz:K\u010cT", "ref": "PB221", "tourism": "information"}}, {"type": "node", "id": 1285338441, "lat": 49.7047859, "lon": 14.1453315, "tags": {"hiking": "yes", "information": "guidepost", "name": "Vi\u0161\u0148ov\u00e1 n\u00e1ves (bus)", "operator": "cz:K\u010cT", "ref": "PB068", "tourism": "information"}}, {"type": "node", "id": 1780456570, "lat": 49.6360228, "lon": 14.1646056, "tags": {"hiking": "yes", "information": "guidepost", "name": "Horn\u00ed L\u00ed\u0161nice", "ref": "PB260", "tourism": "information"}}, {"type": "node", "id": 1780456575, "lat": 49.6694971, "lon": 14.0490051, "tags": {"hiking": "yes", "information": "guidepost", "name": "H\u00e1je", "operator": "cz:K\u010cT", "ref": "PB051;0038/4", "tourism": "information"}}, {"type": "node", "id": 1781037011, "lat": 49.7116296, "lon": 14.0135909}, {"type": "node", "id": 1781037052, "lat": 49.7116448, "lon": 14.0136259}, {"type": "node", "id": 1781037077, "lat": 49.7116579, "lon": 14.0135615}, {"type": "node", "id": 1781037119, "lat": 49.7116731, "lon": 14.0135966}, {"type": "node", "id": 1980090829, "lat": 49.704908, "lon": 14.0905296}, {"type": "node", "id": 1980090830, "lat": 49.7049085, "lon": 14.0904752}, {"type": "node", "id": 1980090835, "lat": 49.7049296, "lon": 14.0905302}, {"type": "node", "id": 1980090836, "lat": 49.7049302, "lon": 14.0904758}, {"type": "node", "id": 1980090840, "lat": 49.7051262, "lon": 14.0906422}, {"type": "node", "id": 1980090841, "lat": 49.7051284, "lon": 14.0905677}, {"type": "node", "id": 1980090852, "lat": 49.7051467, "lon": 14.0906437}, {"type": "node", "id": 1980090853, "lat": 49.705149, "lon": 14.0905691}, {"type": "node", "id": 2027117813, "lat": 49.6856167, "lon": 14.0161967, "tags": {"barrier": "gate", "bicycle": "no", "foot": "yes", "horse": "no", "motor_vehicle": "no"}}, {"type": "node", "id": 2027117822, "lat": 49.6856511, "lon": 14.0162323, "tags": {"barrier": "gate", "bicycle": "no", "foot": "yes", "horse": "no", "motor_vehicle": "no"}}, {"type": "node", "id": 2093415818, "lat": 49.6879704, "lon": 14.0068714}, {"type": "node", "id": 2366842115, "lat": 49.5601036, "lon": 14.0261985}, {"type": "node", "id": 2366842116, "lat": 49.5601102, "lon": 14.0261425}, {"type": "node", "id": 2366842117, "lat": 49.5601259, "lon": 14.0262047}, {"type": "node", "id": 2366842118, "lat": 49.5601325, "lon": 14.0261487}, {"type": "node", "id": 2413001313, "lat": 49.7290356, "lon": 14.1912001, "tags": {"ele": "417", "hiking": "yes", "information": "guidepost", "name": "Dalek\u00e9 Du\u0161n\u00edky", "operator": "cz:K\u010cT", "ref": "PB079", "ref_1": "0056/7", "tourism": "information"}}, {"type": "node", "id": 2415650931, "lat": 49.7173846, "lon": 14.1978152, "tags": {"ele": "468", "hiking": "yes", "information": "guidepost", "name": "Skalice (rozcest\u00ed)", "operator": "cz:K\u010cT", "ref": "PB071", "tourism": "information"}}, {"type": "node", "id": 2707773920, "lat": 49.5578986, "lon": 14.0022932, "tags": {"hiking": "yes", "information": "guidepost", "name": "Dobr\u00e1 Voda u B\u0159eznice", "operator": "cz:K\u010cT", "ref": "PB283", "tourism": "information"}}, {"type": "node", "id": 2707773927, "lat": 49.5584664, "lon": 14.0540023, "tags": {"hiking": "yes", "information": "guidepost", "name": "\u0158ete\u010d", "operator": "cz:K\u010cT", "ref": "PB281", "tourism": "information"}}, {"type": "node", "id": 2766922109, "lat": 49.6857055, "lon": 14.016124}, {"type": "node", "id": 2776787818, "lat": 49.689783, "lon": 14.010581, "tags": {"addr:city": "P\u0159\u00edbram", "addr:conscriptionnumber": "106", "addr:country": "CZ", "addr:housenumber": "106", "addr:place": "P\u0159\u00edbram I", "addr:postcode": "26101", "addr:street": "Tyr\u0161ova", "information": "office", "name": "Infocentrum M\u011bstsk\u00e9ho \u00fa\u0159adu P\u0159\u00edbram", "phone": "+420 318 402 381", "source:addr": "cuzk:ruian", "tourism": "information", "website": "http://infocentrum.pribram.eu/"}}, {"type": "node", "id": 3413005845, "lat": 49.5544189, "lon": 14.1687067, "tags": {"ele": "446.3", "name": "Po\u017e\u00e1ry", "natural": "peak"}}, {"type": "node", "id": 3413005846, "lat": 49.5679879, "lon": 14.1675905, "tags": {"ele": "444.7", "name": "R\u00e1j", "natural": "peak"}}, {"type": "node", "id": 3413005847, "lat": 49.5721315, "lon": 14.1471416, "tags": {"ele": "440.1", "name": "Tater\u016fv vrch", "natural": "peak"}}, {"type": "node", "id": 3413005848, "lat": 49.578316, "lon": 14.1393756, "tags": {"ele": "467.8", "name": "Soudn\u00fd", "natural": "peak"}}, {"type": "node", "id": 3825532759, "lat": 49.5753887, "lon": 14.1184428, "tags": {"ele": "442", "hiking": "yes", "information": "guidepost", "name": "Podholu\u0161ice", "operator": "cz:K\u010cT", "ref": "PB269", "source": "mavit Garmin Edge 705", "tourism": "information"}}, {"type": "node", "id": 3826997202, "lat": 49.591498, "lon": 14.1280816, "tags": {"ele": "483", "hiking": "yes", "information": "guidepost", "name": "Kamenn\u00e1", "operator": "cz:K\u010cT", "ref": "PB257", "source": "mavit GPS", "tourism": "information"}}, {"type": "node", "id": 3826997203, "lat": 49.6550855, "lon": 14.0674486, "tags": {"ele": "570", "hiking": "yes", "information": "guidepost", "name": "U Buku", "operator": "cz:K\u010cT", "ref": "PB240", "tourism": "information"}}, {"type": "node", "id": 3926453620, "lat": 49.6883924, "lon": 14.0097529, "tags": {"hiking": "yes", "information": "guidepost", "name": "P\u0159\u00edbram (n\u00e1m.)", "operator": "cz:K\u010cT", "ref": "PB023", "tourism": "information"}}, {"type": "node", "id": 4082784334, "lat": 49.6890837, "lon": 14.0039728, "tags": {"check_date": "2025-06-24", "disused:name": "P\u0159\u00edbram (\u017dST)", "disused:ref": "6126/21;PB033", "information": "route_marker", "note": "rozcestn\u00edk byl z\u0159ejm\u011b odstran\u011bn spolu se sloupem", "operator": "cz:K\u010cT", "removed:information": "guidepost", "tourism": "information"}}, {"type": "node", "id": 4129249028, "lat": 49.6271883, "lon": 14.1882937, "tags": {"hiking": "yes", "information": "guidepost", "name": "V\u011btrov", "operator": "cz:K\u010cT", "ref": "PB292", "tourism": "information"}}, {"type": "node", "id": 4129299785, "lat": 49.6195798, "lon": 14.1765721, "tags": {"hiking": "yes", "information": "guidepost", "name": "Doln\u00ed L\u00ed\u0161nice", "operator": "cz:K\u010cT", "ref": "PB246", "tourism": "information"}}, {"type": "node", "id": 4129299786, "lat": 49.6129384, "lon": 14.1907733, "tags": {"hiking": "yes", "information": "guidepost", "name": "Solenice", "operator": "cz:K\u010cT", "ref": "PB291", "tourism": "information"}}, {"type": "node", "id": 4275352401, "lat": 49.6323136, "lon": 14.0460844, "tags": {"hiking": "yes", "information": "guidepost", "name": "Mil\u00edn (bus)", "operator": "cz:K\u010cT", "ref": "PB273", "tourism": "information"}}, {"type": "node", "id": 4275352402, "lat": 49.621902, "lon": 14.0377243, "tags": {"disused:name": "Pod Vran\u010d\u00ed", "disused:ref": "PB186", "information": "route_marker", "note": "rozcestn\u00edk byl z\u0159ejm\u011b zru\u0161en", "operator": "cz:K\u010cT", "removed:information": "guidepost", "tourism": "information"}}, {"type": "node", "id": 4275352403, "lat": 49.6097945, "lon": 14.0418862, "tags": {"hiking": "yes", "information": "guidepost", "name": "Vran\u010dice", "operator": "cz:K\u010cT", "ref": "PB274", "tourism": "information"}}, {"type": "node", "id": 4275410029, "lat": 49.5742105, "lon": 14.1030312, "tags": {"hiking": "yes", "information": "guidepost", "name": "Bukovany", "operator": "cz:K\u010cT", "ref": "PB278", "tourism": "information"}}, {"type": "node", "id": 4275410030, "lat": 49.5777412, "lon": 14.071711, "tags": {"hiking": "yes", "information": "guidepost", "name": "Chra\u0161tice", "operator": "cz:K\u010cT", "ref": "PB276", "tourism": "information"}}, {"type": "node", "id": 4275410031, "lat": 49.571738, "lon": 14.0807353, "tags": {"ele": "540", "hiking": "yes", "information": "guidepost", "name": "Chra\u0161ti\u010dky", "operator": "cz:K\u010cT", "ref": "PB277", "tourism": "information"}}, {"type": "node", "id": 4275410032, "lat": 49.5890272, "lon": 14.0636591, "tags": {"hiking": "yes", "information": "guidepost", "name": "Rybn\u00edk Cun\u00e1t", "operator": "cz:K\u010cT", "ref": "PB233", "tourism": "information"}}, {"type": "node", "id": 4275410033, "lat": 49.60082, "lon": 14.0477708, "tags": {"hiking": "yes", "information": "guidepost", "name": "T\u011bcha\u0159ovice", "operator": "cz:K\u010cT", "ref": "PB275", "tourism": "information"}}, {"type": "node", "id": 4342912608, "lat": 49.7126494, "lon": 14.1604305, "tags": {"ele": "394", "hiking": "yes", "information": "guidepost", "name": "Chaloupky", "operator": "cz:K\u010cT", "ref": "PB073", "tourism": "information"}}, {"type": "node", "id": 4342912609, "lat": 49.6935386, "lon": 14.1547219, "tags": {"disused:name": "Nad Budou", "disused:ref": "PB162", "information": "route_marker", "operator": "cz:K\u010cT", "removed:information": "guidepost", "tourism": "information"}}, {"type": "node", "id": 4342963650, "lat": 49.7174175, "lon": 14.1898315, "tags": {"hiking": "yes", "information": "guidepost", "name": "Skalice", "operator": "cz:K\u010cT", "ref": "PB072", "tourism": "information"}}, {"type": "node", "id": 4407993159, "lat": 49.6890088, "lon": 14.0041887, "tags": {"information": "map", "tourism": "information"}}, {"type": "node", "id": 4407993160, "lat": 49.6885476, "lon": 14.0099915, "tags": {"information": "map", "tourism": "information"}}, {"type": "node", "id": 4424627666, "lat": 49.7453225, "lon": 14.0573023}, {"type": "node", "id": 4424627668, "lat": 49.7453262, "lon": 14.0573674}, {"type": "node", "id": 4424627675, "lat": 49.7453564, "lon": 14.0572977}, {"type": "node", "id": 4424627676, "lat": 49.7453601, "lon": 14.0573628}, {"type": "node", "id": 4580447580, "lat": 49.6853306, "lon": 14.016839}, {"type": "node", "id": 4580448693, "lat": 49.6853062, "lon": 14.0169457}, {"type": "node", "id": 4616434145, "lat": 49.6797627, "lon": 14.1873569, "tags": {"hiking": "yes", "information": "guidepost", "name": "Pod Chlumem", "operator": "cz:K\u010cT", "ref": "PB064", "tourism": "information"}}, {"type": "node", "id": 4616559935, "lat": 49.6491386, "lon": 14.1936453, "tags": {"hiking": "yes", "information": "guidepost", "name": "Kali\u0161t\u011b", "operator": "cz:K\u010cT", "ref": "PB258", "tourism": "information"}}, {"type": "node", "id": 4620199887, "lat": 49.6375584, "lon": 14.1861999, "tags": {"ele": "532", "hiking": "yes", "information": "guidepost", "name": "Bukovec rozcest\u00ed", "operator": "cz:K\u010cT", "ref": "PB155", "tourism": "information"}}, {"type": "node", "id": 4620200430, "lat": 49.640735, "lon": 14.176962, "tags": {"hiking": "yes", "information": "guidepost", "name": "Nep\u0159ejov", "operator": "cz:K\u010cT", "ref": "PB259", "tourism": "information"}}, {"type": "node", "id": 4620298368, "lat": 49.6435166, "lon": 14.1455121, "tags": {"ele": "460", "hiking": "yes", "information": "guidepost", "name": "Nad \u017dl\u00edbky", "operator": "cz:K\u010cT", "ref": "PB153", "tourism": "information"}}, {"type": "node", "id": 4620300920, "lat": 49.5962203, "lon": 14.1442353, "tags": {"ele": "453", "hiking": "yes", "information": "guidepost", "name": "Pod Jedlovkou", "operator": "cz:K\u010cT", "ref": "PB256", "tourism": "information"}}, {"type": "node", "id": 4620300929, "lat": 49.6018728, "lon": 14.1381762, "tags": {"hiking": "yes", "information": "guidepost", "name": "Bohostice", "operator": "cz:K\u010cT", "ref": "3121/15;3121/16", "tourism": "information"}}, {"type": "node", "id": 4620301378, "lat": 49.6210079, "lon": 14.1371387, "tags": {"ele": "438", "hiking": "yes", "information": "guidepost", "name": "Smolotely", "operator": "cz:K\u010cT", "ref": "PB244", "tourism": "information"}}, {"type": "node", "id": 4620301394, "lat": 49.6169774, "lon": 14.1488809, "tags": {"hiking": "yes", "information": "guidepost", "name": "Makov\u00e1 hora", "operator": "cz:K\u010cT", "ref": "PB245", "tourism": "information"}}, {"type": "node", "id": 4620331648, "lat": 49.6777318, "lon": 14.1468787, "tags": {"hiking": "yes", "information": "guidepost", "name": "Kalcovy jedle (rozc.)", "operator": "cz:K\u010cT", "ref": "PB066;3060/6;3060/29;6055/0", "tourism": "information"}}, {"type": "node", "id": 4620351815, "lat": 49.6533307, "lon": 14.1511541, "tags": {"hiking": "yes", "information": "guidepost", "name": "Horn\u00ed Hbity", "operator": "cz:K\u010cT", "ref": "PB070", "tourism": "information"}}, {"type": "node", "id": 4620351816, "lat": 49.673435, "lon": 14.1585075, "tags": {"hiking": "yes", "information": "guidepost", "name": "Jelence", "old_ref": "1063/9;6055/1", "operator": "cz:K\u010cT", "ref": "PB069", "tourism": "information"}}, {"type": "node", "id": 4620397337, "lat": 49.679287, "lon": 14.1610268, "tags": {"ele": "460", "hiking": "yes", "information": "guidepost", "name": "Velk\u00e1 le\u010d", "operator": "cz:K\u010cT", "ref": "PB065", "tourism": "information"}}, {"type": "node", "id": 4621615043, "lat": 49.6783231, "lon": 14.0657706, "tags": {"ele": "583", "hiking": "yes", "information": "guidepost", "name": "Svat\u00fd Ivan", "operator": "cz:K\u010cT", "ref": "PB159", "tourism": "information"}}, {"type": "node", "id": 4621639988, "lat": 49.659404, "lon": 14.0551994, "tags": {"disused:name": "Jesenice", "disused:ref": "PB239", "hiking": "yes", "information": "route_marker", "note": "rozcestn\u00edk zde ani v bl\u00edzk\u00e9m okol\u00ed nen\u00ed, ale lze o\u010dek\u00e1vat, \u017ee bude obnoven", "operator": "cz:K\u010cT", "removed:information": "guidepost", "tourism": "information"}}, {"type": "node", "id": 4621640389, "lat": 49.6850677, "lon": 14.0191441, "tags": {"ele": "581", "hiking": "yes", "information": "guidepost", "name": "Svat\u00e1 Hora", "operator": "cz:K\u010cT", "ref": "PB024", "tourism": "information"}}, {"type": "node", "id": 4621648785, "lat": 49.7184788, "lon": 14.0259445, "tags": {"ele": "478", "hiking": "yes", "information": "guidepost", "name": "Skorot\u00edn h\u00e1jenka", "operator": "cz:K\u010cT", "ref": "PB047", "tourism": "information"}}, {"type": "node", "id": 4621648786, "lat": 49.7032054, "lon": 14.03265, "tags": {"ele": "535", "hiking": "yes", "information": "guidepost", "name": "Pod Kv\u011btnou", "operator": "cz:K\u010cT", "ref": "PB048", "tourism": "information"}}, {"type": "node", "id": 4621664491, "lat": 49.7442565, "lon": 14.0315718, "tags": {"ele": "515", "hiking": "yes", "information": "guidepost", "name": "U K\u0159\u00ed\u017ee", "operator": "cz:K\u010cT", "ref": "PB046", "tourism": "information"}}, {"type": "node", "id": 4668909039, "lat": 49.700637, "lon": 14.1430378, "tags": {"hiking": "yes", "information": "guidepost", "name": "Vi\u0161\u0148ov\u00e1 rozc.", "operator": "cz:K\u010cT", "ref": "PB377", "tourism": "information"}}, {"type": "node", "id": 4709461603, "lat": 49.6445099, "lon": 14.0339647, "tags": {"ele": "574", "hiking": "yes", "information": "guidepost", "name": "Slivice", "operator": "cz:K\u010cT", "ref": "PB200", "tourism": "information"}}, {"type": "node", "id": 4709889972, "lat": 49.6469087, "lon": 14.0967461, "tags": {"hiking": "yes", "information": "guidepost", "name": "St\u011b\u017eov", "operator": "cz:K\u010cT", "ref": "PB241", "tourism": "information"}}, {"type": "node", "id": 4709952927, "lat": 49.6395886, "lon": 14.0030441, "tags": {"ele": "583", "hiking": "yes", "information": "guidepost", "name": "Pam\u00e1tn\u00edk Vojna", "operator": "cz:K\u010cT", "ref": "PB206", "tourism": "information"}}, {"type": "node", "id": 4711325597, "lat": 49.6207039, "lon": 14.1365585, "tags": {"check_date": "2021-08-09", "information": "board", "name": "NS Okol\u00edm Smolotel \u010d. 1: Smolotelsk\u00e1 n\u00e1ves, barokn\u00ed z\u00e1mek", "tourism": "information"}}, {"type": "node", "id": 4711325651, "lat": 49.5978866, "lon": 14.153966, "tags": {"hiking": "yes", "information": "guidepost", "name": "Lavi\u010dky", "operator": "cz:K\u010cT", "ref": "PB255", "tourism": "information"}}, {"type": "node", "id": 4711325655, "lat": 49.6289327, "lon": 14.1331199, "tags": {"hiking": "yes", "information": "guidepost", "name": "Draha", "operator": "cz:K\u010cT", "ref": "PB243", "tourism": "information"}}, {"type": "node", "id": 4711361892, "lat": 49.6074396, "lon": 14.1783138, "tags": {"ele": "360", "hiking": "yes", "information": "guidepost", "name": "Orlick\u00e1 p\u0159ehrada (hr\u00e1z)", "operator": "cz:K\u010cT", "ref": "PB254", "tourism": "information"}}, {"type": "node", "id": 4711376618, "lat": 49.5809086, "lon": 14.1742023, "tags": {"ele": "373", "hiking": "yes", "information": "guidepost", "name": "Trhovky", "operator": "cz:K\u010cT", "ref": "PB250", "tourism": "information"}}, {"type": "node", "id": 4711376619, "lat": 49.5602753, "lon": 14.1956868, "tags": {"hiking": "yes", "information": "guidepost", "name": "Na Ov\u010d\u00edn\u011b", "operator": "cz:K\u010cT", "ref": "PB251", "tourism": "information"}}, {"type": "node", "id": 4711376620, "lat": 49.5524978, "lon": 14.1922321, "tags": {"hiking": "yes", "information": "guidepost", "name": "Kamenice", "operator": "cz:K\u010cT", "ref": "PB252", "tourism": "information"}}, {"type": "node", "id": 4711407467, "lat": 49.5578187, "lon": 14.1096419, "tags": {"hiking": "yes", "information": "guidepost", "name": "Koz\u00e1rovice", "operator": "cz:K\u010cT", "ref": "PB271", "tourism": "information"}}, {"type": "node", "id": 4711407488, "lat": 49.5655675, "lon": 14.1136491, "tags": {"fixme": "removed?", "hiking": "yes", "information": "guidepost", "name": "Holu\u0161ice", "operator": "cz:K\u010cT", "ref": "PB270", "tourism": "information"}}, {"type": "node", "id": 4720013053, "lat": 49.5582484, "lon": 14.0235231, "tags": {"hiking": "yes", "information": "guidepost", "name": "Nestra\u0161ovice", "operator": "cz:K\u010cT", "ref": "PB282", "tourism": "information"}}, {"type": "node", "id": 5502154926, "lat": 49.6472599, "lon": 14.0084996, "tags": {"ele": "607", "name": "halda", "natural": "peak"}}, {"type": "node", "id": 5781653632, "lat": 49.6886206, "lon": 14.0702374, "tags": {"name": "Halda", "natural": "peak"}}, {"type": "node", "id": 5923978512, "lat": 49.6869471, "lon": 14.0135503, "tags": {"barrier": "gate", "bicycle": "no", "foot": "yes", "horse": "no", "motor_vehicle": "no"}}, {"type": "node", "id": 5923978514, "lat": 49.68528, "lon": 14.017014, "tags": {"barrier": "gate", "bicycle": "no", "foot": "yes", "horse": "no", "motor_vehicle": "no"}}, {"type": "node", "id": 6654791007, "lat": 49.6536435, "lon": 14.0148198, "tags": {"ele": "591", "natural": "peak"}}, {"type": "node", "id": 6654791008, "lat": 49.6671488, "lon": 14.0279066, "tags": {"ele": "590", "name": "Jest\u0159abinec", "natural": "peak"}}, {"type": "node", "id": 6680291198, "lat": 49.5935912, "lon": 14.1378734, "tags": {"board_type": "nature", "information": "board", "name": "Pta\u010d\u00ed oblast \u00fadol\u00ed Otavy a Vltavy", "tourism": "information"}}, {"type": "node", "id": 6680326218, "lat": 49.6186322, "lon": 14.142395, "tags": {"board_type": "information", "information": "board", "name": "NS Okol\u00edm Smolotel \u010d. 3: D\u016fln\u00ed \u010dinnost ve Smolotelech", "tourism": "information"}}, {"type": "node", "id": 6680326220, "lat": 49.6167078, "lon": 14.1477707, "tags": {"board_type": "history", "information": "board", "name": "NS Okol\u00edm Smolotel \u010d. 4: Poutn\u00ed m\u00edsto Makov\u00e1 hora", "ref": "4", "tourism": "information"}}, {"type": "node", "id": 6680326231, "lat": 49.6267041, "lon": 14.143431, "tags": {"board_type": "nature", "information": "board", "name": "NS Okol\u00edm Smolotel \u010d. 5: V\u00fdvoj krajiny v okol\u00ed Smolotel", "tourism": "information"}}, {"type": "node", "id": 6680365776, "lat": 49.6590597, "lon": 14.1541563, "tags": {"board_type": "nature", "information": "board", "name": "Jablonn\u00e1 - mok\u0159ad", "tourism": "information"}}, {"type": "node", "id": 6680365778, "lat": 49.6792948, "lon": 14.1609696, "tags": {"amenity": "shelter", "shelter_type": "picnic_shelter"}}, {"type": "node", "id": 6680365782, "lat": 49.6806639, "lon": 14.1261516, "tags": {"board_type": "history", "information": "board", "name": "V\u00fdlet do st\u0159edov\u011bku", "ref": "none", "tourism": "information"}}, {"type": "node", "id": 6680365783, "lat": 49.6670041, "lon": 14.0980593, "tags": {"amenity": "shelter", "shelter_type": "picnic_shelter"}}, {"type": "node", "id": 7271519900, "lat": 49.6863138, "lon": 14.0399265, "tags": {"ele": "540", "hiking": "yes", "information": "guidepost", "name": "Koc\u00e1ba pramen", "operator": "cz:K\u010cT", "ref": "PB049", "tourism": "information"}}, {"type": "node", "id": 7601841298, "lat": 49.6022067, "lon": 14.1377345, "tags": {"board_type": "history", "information": "board", "name": "P\u0159\u00edbramsko", "tourism": "information"}}, {"type": "node", "id": 7644044767, "lat": 49.6608131, "lon": 14.0130421, "tags": {"board_type": "history", "information": "board", "name": "Po stop\u00e1ch politick\u00fdch v\u011bz\u0148\u016f", "tourism": "information"}}, {"type": "node", "id": 7830457051, "lat": 49.6041413, "lon": 14.1932922, "tags": {"hiking": "yes", "information": "guidepost", "name": "Pod P\u0159edn\u00edm Chlumem", "operator": "cz:K\u010cT", "ref": "PB247", "tourism": "information"}}, {"type": "node", "id": 7951152752, "lat": 49.6810013, "lon": 14.0716054, "tags": {"amenity": "shelter", "shelter_type": "public_transport"}}, {"type": "node", "id": 8190420512, "lat": 49.7135294, "lon": 14.0124755, "tags": {"amenity": "shelter", "shelter_type": "public_transport"}}, {"type": "node", "id": 8215256533, "lat": 49.6919279, "lon": 14.1252355, "tags": {"natural": "peak"}}, {"type": "node", "id": 8215256534, "lat": 49.6927997, "lon": 14.1257538, "tags": {"natural": "peak"}}, {"type": "node", "id": 8340045389, "lat": 49.7266923, "lon": 14.0963239, "tags": {"name": "Velk\u00fd Chlum", "natural": "peak", "wikidata": "Q23809698"}}, {"type": "node", "id": 8524600201, "lat": 49.6853479, "lon": 14.0169492}, {"type": "node", "id": 8524600202, "lat": 49.6853362, "lon": 14.0170047}, {"type": "node", "id": 8524600205, "lat": 49.6852883, "lon": 14.0171358}, {"type": "node", "id": 8524600209, "lat": 49.6853348, "lon": 14.0168765}, {"type": "node", "id": 8524616225, "lat": 49.6853152, "lon": 14.0170815}, {"type": "node", "id": 8524616226, "lat": 49.6852689, "lon": 14.0171385}, {"type": "node", "id": 8524616227, "lat": 49.6852681, "lon": 14.0170707}, {"type": "node", "id": 8524616228, "lat": 49.6852678, "lon": 14.0170875}, {"type": "node", "id": 8524714470, "lat": 49.6852744, "lon": 14.017551, "tags": {"information": "office", "name": "informace", "tourism": "information"}}, {"type": "node", "id": 8828280960, "lat": 49.6103965, "lon": 14.0118147, "tags": {"ele": "501", "hiking": "yes", "information": "guidepost", "name": "Ostrov", "operator": "cz:K\u010cT", "ref": "PB297", "tourism": "information"}}, {"type": "node", "id": 8976030191, "lat": 49.6207164, "lon": 14.1387243, "tags": {"information": "board", "name": "Informa\u010dn\u00ed tabule NS Okol\u00edm Smolotel \u010d.2", "tourism": "information"}}, {"type": "node", "id": 9025310786, "lat": 49.5755389, "lon": 14.0282793, "tags": {"information": "map", "name": "Tu\u0161\u00edlova stezka", "tourism": "information"}}, {"type": "node", "id": 9025310787, "lat": 49.5754592, "lon": 14.028201, "tags": {"amenity": "shelter", "shelter_type": "picnic_shelter"}}, {"type": "node", "id": 9025316839, "lat": 49.5691614, "lon": 14.0227919, "tags": {"board_type": "nature", "information": "board", "name": "Mysliveck\u00e1 mluva", "ref": "8", "tourism": "information"}}, {"type": "node", "id": 9025316840, "lat": 49.572526, "lon": 14.02186, "tags": {"board_type": "nature", "information": "board", "name": "Dendrofon", "ref": "10", "tourism": "information"}}, {"type": "node", "id": 9025316841, "lat": 49.5713096, "lon": 14.0245525, "tags": {"board_type": "nature", "information": "board", "name": "Houby", "ref": "9", "tourism": "information"}}, {"type": "node", "id": 9025316844, "lat": 49.5722428, "lon": 14.027813, "tags": {"board_type": "nature", "information": "board", "name": "Pexeso", "ref": "2", "tourism": "information"}}, {"type": "node", "id": 9025316845, "lat": 49.5722523, "lon": 14.0278337, "tags": {"name": "jihov\u00fdchodn\u00ed v\u00fdhled", "tourism": "viewpoint"}}, {"type": "node", "id": 9025316847, "lat": 49.569419, "lon": 14.0251635, "tags": {"board_type": "nature", "information": "board", "name": "Hlasy lesn\u00ed zv\u011b\u0159e", "ref": "4", "tourism": "information"}}, {"type": "node", "id": 9025316848, "lat": 49.5684786, "lon": 14.0261496, "tags": {"board_type": "nature", "information": "board", "name": "Jehli\u010dnat\u00e9 stromy", "ref": "5", "tourism": "information"}}, {"type": "node", "id": 9025316850, "lat": 49.5686638, "lon": 14.0198175, "tags": {"amenity": "shelter", "shelter_type": "picnic_shelter"}}, {"type": "node", "id": 9025316851, "lat": 49.5686981, "lon": 14.0197953, "tags": {"board_type": "nature", "information": "board", "name": "Rozklad odpadk\u016f v p\u0159\u00edrod\u011b", "ref": "7", "tourism": "information"}}, {"type": "node", "id": 9025316853, "lat": 49.572952, "lon": 14.0279864, "tags": {"board_type": "nature", "information": "board", "name": "P\u0159\u00edb\u011bh Tu\u0161\u00edlka", "ref": "1", "tourism": "information"}}, {"type": "node", "id": 9025336270, "lat": 49.5738912, "lon": 14.0264746, "tags": {"name": "severoz\u00e1padn\u00ed v\u00fdhled", "tourism": "viewpoint"}}, {"type": "node", "id": 9025409421, "lat": 49.6141798, "lon": 14.0362584, "tags": {"amenity": "shelter", "shelter_type": "picnic_shelter"}}, {"type": "node", "id": 9025409422, "lat": 49.6142169, "lon": 14.0361954, "tags": {"board_type": "information", "description": "NS Vran\u010dick\u00e1 draha", "information": "board", "name": "Vran\u010dick\u00e1 draha", "ref": "1", "tourism": "information"}}, {"type": "node", "id": 9025409423, "lat": 49.6170084, "lon": 14.041575, "tags": {"board_type": "nature", "information": "board", "name": "Odm\u011bna permon\u00edkova", "ref": "5", "tourism": "information"}}, {"type": "node", "id": 9025409424, "lat": 49.616908, "lon": 14.0466217, "tags": {"amenity": "shelter", "shelter_type": "picnic_shelter"}}, {"type": "node", "id": 9025409427, "lat": 49.6222276, "lon": 14.0457852, "tags": {"information": "map", "name": "Nau\u010dn\u00e1 stezka Mil\u00edn - Vran\u010dice", "ref": "1", "tourism": "information"}}, {"type": "node", "id": 9025409429, "lat": 49.6222211, "lon": 14.045788, "tags": {"amenity": "shelter", "shelter_type": "picnic_shelter"}}, {"type": "node", "id": 9025409431, "lat": 49.618251, "lon": 14.0458014, "tags": {"board_type": "information", "information": "board", "name": "Nau\u010dn\u00e1 stezka Mil\u00edn - Vran\u010dice", "ref": "3", "tourism": "information"}}, {"type": "node", "id": 9025936878, "lat": 49.6246619, "lon": 14.0347175, "tags": {"amenity": "shelter", "shelter_type": "picnic_shelter"}}, {"type": "node", "id": 9025936880, "lat": 49.6274366, "lon": 14.0382587, "tags": {"board_type": "history", "information": "board", "name": "Lavice na sedy a lehy", "ref": "I", "tourism": "information"}}, {"type": "node", "id": 9025939050, "lat": 49.633735, "lon": 14.0468966, "tags": {"board_type": "history", "information": "board", "name": "Pivovar v Mil\u00edn\u011b", "ref": "none", "tourism": "information"}}, {"type": "node", "id": 9026171110, "lat": 49.7461883, "lon": 14.0197014, "tags": {"ele": "478", "hiking": "yes", "information": "guidepost", "name": "Hlubo\u0161 z\u00e1mek", "operator": "cz:K\u010cT", "ref": "PB027", "tourism": "information"}}, {"type": "node", "id": 9026197146, "lat": 49.717266, "lon": 14.1626334, "tags": {"amenity": "shelter", "shelter_type": "picnic_shelter"}}, {"type": "node", "id": 9026197168, "lat": 49.7483131, "lon": 14.1884053, "tags": {"information": "map", "map_size": "region", "map_type": "scheme", "name": "P\u0159\u00edbramsko", "tourism": "information"}}, {"type": "node", "id": 9367412116, "lat": 49.616633, "lon": 14.1480741, "tags": {"ele": "544", "name": "Makov\u00e1 hora", "natural": "peak", "wikidata": "Q12034960", "wikipedia": "cs:Makov\u00e1 hora"}}, {"type": "node", "id": 9498679711, "lat": 49.6167149, "lon": 14.188265, "tags": {"ele": "447.5", "name": "U k\u0159\u00ed\u017eku", "natural": "peak"}}, {"type": "node", "id": 9498679712, "lat": 49.6348477, "lon": 14.1946638, "tags": {"ele": "535", "natural": "peak", "noname": "yes"}}, {"type": "node", "id": 9595863530, "lat": 49.5813778, "lon": 14.0720082, "tags": {"amenity": "shelter", "shelter_type": "public_transport"}}, {"type": "node", "id": 9908283442, "lat": 49.7218699, "lon": 14.1238611, "tags": {"amenity": "shelter"}}, {"type": "node", "id": 9961063363, "lat": 49.6299581, "lon": 14.01361, "tags": {"information": "board", "name": "Poh\u0159ebi\u0161t\u011b ze star\u0161\u00ed doby \u017eelezn\u00e9 u Lazska", "tourism": "information"}}, {"type": "node", "id": 10632319819, "lat": 49.6075664, "lon": 14.1807417, "tags": {"direction": "15", "information": "board", "name": "Ilustra\u010dn\u00ed sch\u00e9ma vodn\u00ed elektr\u00e1rny Orl\u00edk", "tourism": "information"}}, {"type": "node", "id": 10918438238, "lat": 49.744282, "lon": 14.0131434, "tags": {"ele": "500", "hiking": "yes", "information": "guidepost", "name": "Hlubo\u0161 (kostel)", "operator": "cz:K\u010cT", "tourism": "information"}}, {"type": "node", "id": 10918438239, "lat": 49.7504486, "lon": 14.0007296, "tags": {"hiking": "yes", "information": "guidepost", "name": "Pod Krsovem", "operator": "cz:K\u010cT", "ref": "420", "tourism": "information"}}, {"type": "node", "id": 11096606799, "lat": 49.6105372, "lon": 14.0148681, "tags": {"information": "map", "name": "Ostrov", "tourism": "information"}}, {"type": "node", "id": 11096621647, "lat": 49.6396081, "lon": 14.0025778, "tags": {"description": "Nau\u010dn\u00e1 stezka Po stop\u00e1ch politick\u00fdch v\u011bz\u0148\u016f", "information": "board", "name": "Pam\u00e1tn\u00edk vojna", "tourism": "information"}}, {"type": "node", "id": 11096627473, "lat": 49.6104342, "lon": 14.01161, "tags": {"description": "Ru\u010dn\u011b malovan\u00e1 mapa", "information": "map", "name": "P\u0159\u00edbramsko", "tourism": "information"}}, {"type": "node", "id": 11096629055, "lat": 49.6455111, "lon": 14.0176039, "tags": {"description": "Nau\u010dn\u00e1 stezka Po stop\u00e1ch politick\u00fdch v\u011bz\u0148\u016f", "information": "board", "name": "Le\u0161etice", "tourism": "information"}}, {"type": "node", "id": 11096629262, "lat": 49.6412939, "lon": 14.0008508, "tags": {"information": "board", "name": "Uran - polymetalick\u00e9 lo\u017eisko a Ji\u0159\u00ed Krupi\u010dka", "tourism": "information"}}, {"type": "node", "id": 11096633464, "lat": 49.6396067, "lon": 14.0024142, "tags": {"information": "map", "name": "Fabi\u00e1nova nau\u010dn\u00e1 stezka", "tourism": "information"}}, {"type": "node", "id": 11096647005, "lat": 49.6415808, "lon": 14.0072131, "tags": {"description": "Nau\u010dn\u00e1 stezka Po stop\u00e1ch politick\u00fdch v\u011bz\u0148\u016f", "information": "board", "name": "N\u00e1v\u0161t\u011bvna - Le\u0161etice", "tourism": "information"}}, {"type": "node", "id": 11096667985, "lat": 49.6109364, "lon": 14.0144542, "tags": {"description": "Ru\u010dn\u011b malovan\u00e1 mapa", "information": "map", "name": "P\u0159\u00edbramsko", "tourism": "information"}}, {"type": "node", "id": 11096668033, "lat": 49.610952, "lon": 14.0144046, "tags": {"information": "board", "name": "Ostrovsk\u00e1 zastaven\u00ed", "tourism": "information"}}, {"type": "node", "id": 11096685928, "lat": 49.5897811, "lon": 14.0159692, "tags": {"information": "map", "name": "Cykloturistick\u00e1 mapa Tochovice a okol\u00ed", "tourism": "information"}}, {"type": "node", "id": 11096687842, "lat": 49.572275, "lon": 14.0278919, "tags": {"information": "board", "name": "Jihov\u00fdchodn\u00ed pohled", "tourism": "information"}}, {"type": "node", "id": 11096696413, "lat": 49.5804503, "lon": 14.0238519, "tags": {"information": "board", "name": "Nakl\u00e1d\u00e1n\u00ed s odpady v Tu\u0161ovic\u00edch", "tourism": "information"}}, {"type": "node", "id": 11096851194, "lat": 49.5686233, "lon": 14.0196744, "tags": {"information": "board", "name": "U douglasek", "ref": "7", "tourism": "information"}}, {"type": "node", "id": 11096865758, "lat": 49.5760789, "lon": 14.0299609, "tags": {"information": "map", "name": "Mikroregion B\u0159eznicko", "tourism": "information"}}, {"type": "node", "id": 11096880284, "lat": 49.5737556, "lon": 14.0256661, "tags": {"information": "board", "name": "Severoz\u00e1padn\u00ed v\u00fdhled", "ref": "11", "tourism": "information"}}, {"type": "node", "id": 11096882667, "lat": 49.609625, "lon": 14.0441112, "tags": {"description": "Ru\u010dn\u011b malovan\u00e1 mapa", "information": "map", "map_size": "region", "map_type": "scheme", "name": "P\u0159\u00edbramsko", "tourism": "information"}}, {"type": "node", "id": 11096898782, "lat": 49.6690957, "lon": 14.0068938, "tags": {"board_type": "nature", "description": "nau\u010dn\u00e1 stezka lesopark Pad\u00e1k", "information": "board", "name": "Listnat\u00e9 stromy", "ref": "10", "tourism": "information"}}, {"type": "node", "id": 11096903029, "lat": 49.6155501, "lon": 14.0338858, "tags": {"description": "NS Vran\u010dick\u00e1 draha", "information": "board", "name": "Obecn\u00ed draha - pastvina", "ref": "3", "tourism": "information"}}, {"type": "node", "id": 11096903058, "lat": 49.6352189, "lon": 14.046167, "tags": {"board_type": "history;notice", "information": "board", "name": "Mil\u00ednsk\u00fd kostel svat\u00e9ho V\u00e1clava", "ref": "none", "tourism": "information"}}, {"type": "node", "id": 11096903739, "lat": 49.6137658, "lon": 14.0356778, "tags": {"description": "NS Vran\u010dick\u00e1 draha", "information": "board", "name": "P\u0159\u00edrod\u011b bl\u00edzk\u00fd les", "ref": "2", "tourism": "information"}}, {"type": "node", "id": 11096909061, "lat": 49.6168119, "lon": 14.0337839, "tags": {"description": "NS Vran\u010dick\u00e1 draha", "information": "board", "name": "Pt\u00e1ci", "ref": "5", "tourism": "information"}}, {"type": "node", "id": 11096909062, "lat": 49.6156389, "lon": 14.0335935, "tags": {"description": "NS Vran\u010dick\u00e1 draha", "information": "board", "name": "\u017divot v t\u016fn\u00edch", "ref": "4", "tourism": "information"}}, {"type": "node", "id": 11096924055, "lat": 49.6608664, "lon": 14.0130431, "tags": {"information": "board", "name": "Kaple Nanebevzat\u00ed Panny Marie a poutn\u00ed k\u0159\u00ed\u017e ve Brod\u011b", "tourism": "information"}}, {"type": "node", "id": 11096932205, "lat": 49.6448558, "lon": 14.0339275, "tags": {"description": "Ru\u010dn\u011b malovan\u00e1 mapa", "information": "map", "name": "P\u0159\u00edbramsko", "tourism": "information"}}, {"type": "node", "id": 11096937836, "lat": 49.6472867, "lon": 14.0213525, "tags": {"description": "Ru\u010dn\u011b malovan\u00e1 mapa", "information": "map", "name": "P\u0159\u00edbramsko", "tourism": "information"}}, {"type": "node", "id": 11096956913, "lat": 49.6670186, "lon": 14.00984, "tags": {"description": "nau\u010dn\u00e1 stezka lesopark Pad\u00e1k", "information": "board", "name": "Druhy bylin", "ref": "6", "tourism": "information"}}, {"type": "node", "id": 11096961491, "lat": 49.6693922, "lon": 14.0141031, "tags": {"board_type": "nature", "description": "nau\u010dn\u00e1 stezka lesopark Pad\u00e1k", "information": "board", "name": "Odpady co do lesa nepat\u0159\u00ed!", "ref": "7", "tourism": "information"}}, {"type": "node", "id": 11096992619, "lat": 49.668825, "lon": 14.0064058, "tags": {"board_type": "nature", "description": "nau\u010dn\u00e1 stezka lesopark Pad\u00e1k", "information": "board", "name": "Vady d\u0159eva", "ref": "11", "tourism": "information"}}, {"type": "node", "id": 11096992719, "lat": 49.6675186, "lon": 14.0098614, "tags": {"board_type": "nature", "description": "nau\u010dn\u00e1 stezka lesopark Pad\u00e1k", "information": "board", "name": "Potravn\u00ed \u0159et\u011bzec", "ref": "8", "tourism": "information"}}, {"type": "node", "id": 11096996060, "lat": 49.6689274, "lon": 14.0077763, "tags": {"board_type": "nature", "description": "nau\u010dn\u00e1 stezka lesopark Pad\u00e1k", "information": "board", "name": "Poznej stromy", "ref": "9", "tourism": "information"}}, {"type": "node", "id": 11097001137, "lat": 49.6705383, "lon": 14.0036864, "tags": {"board_type": "nature", "description": "nau\u010dn\u00e1 stezka lesopark Pad\u00e1k", "information": "board", "name": "Fotosynt\u00e9za", "ref": "1", "tourism": "information"}}, {"type": "node", "id": 11097003557, "lat": 49.6684958, "lon": 14.004968, "tags": {"board_type": "nature", "description": "nau\u010dn\u00e1 stezka lesopark Pad\u00e1k", "information": "board", "name": "Lesn\u00ed patra - struktura lesa", "ref": "4", "tourism": "information"}}, {"type": "node", "id": 11097004775, "lat": 49.6691254, "lon": 14.0046382, "tags": {"board_type": "nature", "description": "nau\u010dn\u00e1 stezka lesopark Pad\u00e1k", "information": "board", "name": "Kysel\u00e9 de\u0161t\u011b", "ref": "3", "tourism": "information"}}, {"type": "node", "id": 11097014841, "lat": 49.6671653, "lon": 14.0061375, "tags": {"description": "nau\u010dn\u00e1 stezka lesopark Pad\u00e1k", "information": "board", "name": "Letokruhy - st\u00e1\u0159\u00ed d\u0159eva", "ref": "5", "tourism": "information"}}, {"type": "node", "id": 11097147080, "lat": 49.6810986, "lon": 14.0072764, "tags": {"board_type": "history", "information": "board", "name": "\u010cekal\u00edkovsk\u00fd rybn\u00edk", "ref": "1", "tourism": "information"}}, {"type": "node", "id": 11097153859, "lat": 49.6840992, "lon": 14.0177747, "tags": {"information": "board", "name": "Mari\u00e1nsk\u00e1 stud\u00e1nka", "tourism": "information"}}, {"type": "node", "id": 11097158115, "lat": 49.6868445, "lon": 14.018755, "tags": {"board_type": "history", "description": "Poznej P\u0159\u00edbram", "information": "board", "name": "Svatohorsk\u00e9 sady", "ref": "none", "tourism": "information"}}, {"type": "node", "id": 11099017789, "lat": 49.684658, "lon": 14.0193656, "tags": {"information": "map", "map_size": "city", "map_type": "street", "name": "V\u00edtejte v P\u0159\u00edbrami", "tourism": "information"}}, {"type": "node", "id": 11099018904, "lat": 49.6850741, "lon": 14.0191056, "tags": {"description": "Orienta\u010dn\u00ed pl\u00e1n", "information": "map", "map_size": "site", "name": "Svat\u00e1 Hora", "tourism": "information"}}, {"type": "node", "id": 11099019047, "lat": 49.6846255, "lon": 14.018413, "tags": {"information": "map", "map_size": "region", "map_type": "topo", "name": "Via Nova", "pilgrimage": "yes", "tourism": "information"}}, {"type": "node", "id": 11099019048, "lat": 49.6846231, "lon": 14.0183897, "tags": {"information": "board", "name": "Svat\u00e1 Hora", "ref": "none", "tourism": "information"}}, {"type": "node", "id": 11099019049, "lat": 49.6846206, "lon": 14.0183674, "tags": {"description": "Nau\u010dn\u00e1 stezka Po stop\u00e1ch politick\u00fdch v\u011bz\u0148\u016f", "information": "board", "name": "Svat\u00e1 Hora - M\u0161e svat\u00e9 v l\u00e1gru", "ref": "none", "tourism": "information"}}, {"type": "node", "id": 11099027304, "lat": 49.6846345, "lon": 14.0185018, "tags": {"description": "Orienta\u010dn\u00ed pl\u00e1n", "information": "map", "map_size": "site", "name": "Svat\u00e1 Hora", "tourism": "information"}}, {"type": "node", "id": 11099030444, "lat": 49.6852057, "lon": 14.0193593, "tags": {"board_type": "history", "description": "Poznej P\u0159\u00edbram", "information": "board", "name": "Svat\u00e1 Hora", "ref": "none", "tourism": "information"}}, {"type": "node", "id": 11099032128, "lat": 49.6846383, "lon": 14.0185409, "tags": {"information": "board", "name": "Svatojakubsk\u00e1 poutn\u00ed cesta", "ref": "none", "tourism": "information"}}, {"type": "node", "id": 11099044146, "lat": 49.6850597, "lon": 14.0190139, "tags": {"information": "board", "name": "Jednou v \u017eivot\u011b p\u0159ij\u00edt na Svatou Horu", "ref": "none", "tourism": "information"}}, {"type": "node", "id": 11099055689, "lat": 49.6855106, "lon": 14.0199794, "tags": {"information": "board", "name": "Dub svat\u00e9ho V\u00e1clava", "tourism": "information"}}, {"type": "node", "id": 11108349270, "lat": 49.680101, "lon": 14.0068468, "tags": {"amenity": "shelter", "name": "Alt\u00e1n", "shelter_type": "picnic_shelter"}}, {"type": "node", "id": 11108349273, "lat": 49.6796759, "lon": 14.0064012, "tags": {"board_type": "history", "information": "board", "name": "Ledrensk\u00fd exodus", "ref": "3", "tourism": "information"}}, {"type": "node", "id": 11108349274, "lat": 49.679779, "lon": 14.0065168, "tags": {"board_type": "history", "information": "board", "name": "Projekt Bohemia mia", "ref": "4", "tourism": "information"}}, {"type": "node", "id": 11108349275, "lat": 49.6800266, "lon": 14.0068071, "tags": {"board_type": "information", "information": "board", "name": "Provozn\u00ed \u0159\u00e1d d\u011btsk\u00e9ho h\u0159i\u0161t\u011b", "tourism": "information"}}, {"type": "node", "id": 11108349276, "lat": 49.6801721, "lon": 14.0066516, "tags": {"board_type": "history", "information": "board", "name": "Valle di Ledro", "ref": "2", "tourism": "information"}}, {"type": "node", "id": 11108358692, "lat": 49.6697215, "lon": 14.0034484, "tags": {"board_type": "nature", "description": "nau\u010dn\u00e1 stezka lesopark Pad\u00e1k", "information": "board", "name": "Kolob\u011bh vody", "ref": "2", "tourism": "information"}}, {"type": "node", "id": 11110419319, "lat": 49.687628, "lon": 14.0197366, "tags": {"board_type": "history", "information": "board", "name": "Svatohorsk\u00e9 sady", "tourism": "information"}}, {"type": "node", "id": 11138469134, "lat": 49.6441969, "lon": 14.0493044, "tags": {"information": "map", "name": "Posledn\u00ed bitva Slivice", "tourism": "information"}}, {"type": "node", "id": 11255325675, "lat": 49.6325414, "lon": 14.0225297, "tags": {"hiking": "yes", "information": "guidepost", "name": "Mil\u00edn (\u017est)", "operator": "cz:K\u010cT", "ref": "PB261", "tourism": "information"}}, {"type": "node", "id": 11435197948, "lat": 49.721267, "lon": 14.1185764}, {"type": "node", "id": 11435197949, "lat": 49.7212344, "lon": 14.1185884}, {"type": "node", "id": 11435197950, "lat": 49.7212447, "lon": 14.1186556}, {"type": "node", "id": 11435197951, "lat": 49.7212773, "lon": 14.1186437}, {"type": "node", "id": 11435197952, "lat": 49.7214259, "lon": 14.1184185}, {"type": "node", "id": 11435197953, "lat": 49.7214112, "lon": 14.1184237}, {"type": "node", "id": 11435197954, "lat": 49.7214169, "lon": 14.1184625}, {"type": "node", "id": 11435197955, "lat": 49.7214316, "lon": 14.1184574}, {"type": "node", "id": 11584554732, "lat": 49.7242846, "lon": 14.1269368}, {"type": "node", "id": 11584554733, "lat": 49.7242592, "lon": 14.1268982}, {"type": "node", "id": 11584554734, "lat": 49.7242419, "lon": 14.1269253}, {"type": "node", "id": 11584554735, "lat": 49.7242673, "lon": 14.1269639}, {"type": "node", "id": 11584554736, "lat": 49.7244457, "lon": 14.1273814}, {"type": "node", "id": 11584554737, "lat": 49.7244234, "lon": 14.1273475}, {"type": "node", "id": 11584554738, "lat": 49.72441, "lon": 14.1273685}, {"type": "node", "id": 11584554739, "lat": 49.7244324, "lon": 14.1274024}, {"type": "node", "id": 11593877670, "lat": 49.6873467, "lon": 14.0113133, "tags": {"information": "board", "name": "V\u00edtejte v P\u0159\u00edbrami", "tourism": "information"}}, {"type": "node", "id": 11662992335, "lat": 49.6879677, "lon": 14.0067754}, {"type": "node", "id": 11662992336, "lat": 49.6880333, "lon": 14.006771}, {"type": "node", "id": 11662992340, "lat": 49.687973, "lon": 14.0067751}, {"type": "node", "id": 11717214035, "lat": 49.5849842, "lon": 14.1041731, "tags": {"ele": "633", "name": "Pte\u010d", "natural": "peak"}}, {"type": "node", "id": 11879505235, "lat": 49.6019872, "lon": 14.1962935, "tags": {"tourism": "viewpoint"}}, {"type": "node", "id": 11943427851, "lat": 49.6882742, "lon": 14.0110344, "tags": {"checkpoint": "hiking", "checkpoint:type": "stamp", "course": "Svatojakubsk\u00e1 cesta", "information": "office", "level": "0", "source": "survey", "tourism": "information", "wheelchair": "limited"}}, {"type": "node", "id": 12045940503, "lat": 49.720377, "lon": 14.1181757}, {"type": "node", "id": 12045940504, "lat": 49.7203577, "lon": 14.1180735}, {"type": "node", "id": 12045940505, "lat": 49.7202803, "lon": 14.1181085}, {"type": "node", "id": 12045940506, "lat": 49.7202995, "lon": 14.1182106}, {"type": "node", "id": 12058958691, "lat": 49.6894354, "lon": 14.0129014}, {"type": "node", "id": 12058958692, "lat": 49.6894178, "lon": 14.0129096}, {"type": "node", "id": 12058958693, "lat": 49.6894509, "lon": 14.0130744}, {"type": "node", "id": 12058958694, "lat": 49.6894678, "lon": 14.0130661}, {"type": "node", "id": 12058958695, "lat": 49.6893437, "lon": 14.0124456}, {"type": "node", "id": 12058958696, "lat": 49.6893258, "lon": 14.0124546}, {"type": "node", "id": 12058958697, "lat": 49.6893521, "lon": 14.0125842}, {"type": "node", "id": 12058958698, "lat": 49.6893706, "lon": 14.0125744}, {"type": "node", "id": 12059167162, "lat": 49.6896692, "lon": 14.0124328}, {"type": "node", "id": 12059167163, "lat": 49.6896516, "lon": 14.0124418}, {"type": "node", "id": 12059167164, "lat": 49.6897066, "lon": 14.0126998}, {"type": "node", "id": 12059167165, "lat": 49.6897243, "lon": 14.0126908}, {"type": "node", "id": 12137064257, "lat": 49.6112912, "lon": 14.0582964, "tags": {"amenity": "shelter", "shelter_type": "public_transport"}}, {"type": "node", "id": 12169780944, "lat": 49.6125083, "lon": 14.1878838, "tags": {"description": "Nau\u010dn\u00e1 stezka Solenice", "information": "board", "name": "P\u0159ehrady", "ref": "4", "tourism": "information"}}, {"type": "node", "id": 12177235966, "lat": 49.6246775, "lon": 14.1985744, "tags": {"board_type": "nature", "description": "Nau\u010dn\u00e1 stezka Solenice", "information": "board", "name": "Mrtevna", "ref": "10", "tourism": "information"}}, {"type": "node", "id": 12177235967, "lat": 49.6224239, "lon": 14.196945, "tags": {"board_type": "nature", "description": "Nau\u010dn\u00e1 stezka Solenice", "information": "board", "name": "Vypou\u0161t\u011bn\u00ed odpadn\u00edch vod a jejich vliv na \u017eivot v \u0159ece", "ref": "9", "tourism": "information"}}, {"type": "node", "id": 12177235968, "lat": 49.620005, "lon": 14.1977261, "tags": {"board_type": "nature", "description": "Nau\u010dn\u00e1 stezka Solenice", "information": "board", "name": "\u010ci\u0161t\u011bn\u00ed odpadn\u00edch vod", "ref": "8", "tourism": "information"}}, {"type": "node", "id": 12177235969, "lat": 49.6182666, "lon": 14.1980504, "tags": {"board_type": "wildlife", "description": "Nau\u010dn\u00e1 stezka Solenice", "information": "board", "name": "Migrace ryb", "ref": "7", "tourism": "information"}}, {"type": "node", "id": 12177235970, "lat": 49.6157419, "lon": 14.1976672, "tags": {"board_type": "nature", "description": "Nau\u010dn\u00e1 stezka Solenice", "information": "board", "name": "P\u0159e\u010derp\u00e1vac\u00ed stanice", "ref": "6", "tourism": "information"}}, {"type": "node", "id": 12177235971, "lat": 49.6134683, "lon": 14.1946556, "tags": {"board_type": "nature", "description": "Nau\u010dn\u00e1 stezka Solenice", "information": "board", "name": "Povodn\u011b", "ref": "5", "tourism": "information"}}, {"type": "node", "id": 12177235972, "lat": 49.613519, "lon": 14.1938982, "tags": {"hiking": "yes", "information": "map", "map_size": "region", "map_type": "topo", "name": "St\u0159edn\u00ed Povltav\u00ed Sedl\u010dansko", "tourism": "information"}}, {"type": "node", "id": 12177235973, "lat": 49.6189875, "lon": 14.1797306, "tags": {"board_type": "nature;history", "description": "Nau\u010dn\u00e1 stezka Solenice", "information": "board", "name": "Vodn\u00ed zdroje a \u00fapravna vody", "ref": "1", "tourism": "information"}}, {"type": "node", "id": 12177235974, "lat": 49.61678, "lon": 14.1815822, "tags": {"board_type": "nature", "description": "Nau\u010dn\u00e1 stezka Solenice", "information": "board", "name": "P\u0159\u00edrodn\u00ed zdroje a \u017eivot v potoce", "ref": "2", "tourism": "information"}}, {"type": "node", "id": 12177235975, "lat": 49.6135892, "lon": 14.1874983, "tags": {"board_type": "history", "description": "Nau\u010dn\u00e1 stezka Solenice", "information": "board", "name": "Ml\u00fdny", "ref": "3", "tourism": "information"}}, {"type": "node", "id": 12177246673, "lat": 49.6022922, "lon": 14.1889785, "tags": {"board_type": "nature", "information": "board", "name": "Popel\u00edky - koupac\u00ed oblast na Orlick\u00e9 p\u0159ehrad\u011b", "tourism": "information"}}, {"type": "node", "id": 12628429541, "lat": 49.6905432, "lon": 14.0031095, "tags": {"information": "office", "tourism": "information"}}, {"type": "node", "id": 12638291750, "lat": 49.6302427, "lon": 14.0101806, "tags": {"board_type": "nature", "information": "board", "name": "Broukovi\u0161t\u011b u St\u0159\u00edbrn\u00e9ho rybn\u00edka", "tourism": "information"}}, {"type": "node", "id": 12736530558, "lat": 49.6749977, "lon": 14.0035163, "tags": {"amenity": "shelter", "bench": "yes", "lit": "no", "shelter_type": "gazebo"}}, {"type": "node", "id": 12833925077, "lat": 49.7049084, "lon": 14.1495071, "tags": {"board_type": "nature", "information": "board", "name": "Kap\u0159\u00edn", "tourism": "information"}}, {"type": "node", "id": 12953958854, "lat": 49.6441705, "lon": 14.0493003, "tags": {"hiking": "yes", "information": "guidepost", "inscription": "P\u0159ipom\u00edn\u00e1 posledn\u00ed v\u011bt\u0161\u00ed vojensk\u00e9 st\u0159etnut\u00ed 2. sv\u011btov\u00e9 v\u00e1lky dne 11. kv\u011btna 1945", "name": "Slivick\u00fd pam\u00e1tn\u00edk", "operator": "cz:K\u010cT", "ref": "PB222", "tourism": "information"}}, {"type": "node", "id": 12953958855, "lat": 49.643229, "lon": 14.0487372, "tags": {"board_type": "sight", "information": "board", "name": "NS Posledn\u00ed ob\u011bti 2. sv\u011btov\u00e9 v\u00e1lky na P\u0159\u00edbramsku", "ref": "none", "tourism": "information"}}, {"type": "node", "id": 12954494533, "lat": 49.6413306, "lon": 14.1114121, "tags": {"hiking": "yes", "information": "guidepost", "name": "Podst\u011b\u017eovsk\u00fd ml\u00fdn", "operator": "cz:K\u010cT", "ref": "PB242", "tourism": "information"}}, {"type": "node", "id": 12955256940, "lat": 49.640044, "lon": 14.0744657, "tags": {"ele": "527", "hiking": "yes", "information": "guidepost", "name": "U Rad\u011btic", "operator": "cz:K\u010cT", "ref": "PB319", "tourism": "information"}}, {"type": "node", "id": 12956280917, "lat": 49.6839819, "lon": 14.0965374, "tags": {"ele": "488", "hiking": "yes", "information": "guidepost", "name": "U Hor", "operator": "cz:K\u010cT", "ref": "PB339", "tourism": "information"}}, {"type": "node", "id": 12956280920, "lat": 49.6816287, "lon": 14.0719489, "tags": {"ele": "518", "hiking": "yes", "information": "guidepost", "name": "Byt\u00edz (bus)", "operator": "cz:K\u010cT", "ref": "PB321", "tourism": "information"}}, {"type": "node", "id": 12956962457, "lat": 49.6847828, "lon": 14.0193131, "tags": {"city": "yes", "information": "guidepost", "operator": "local", "ref": "none", "tourism": "information"}}, {"type": "node", "id": 12957625996, "lat": 49.6910285, "lon": 14.0180945, "tags": {"ele": "525", "hiking": "yes", "information": "guidepost", "name": "St\u0159elovna", "operator": "cz:K\u010cT", "tourism": "information"}}, {"type": "node", "id": 12959148828, "lat": 49.7487326, "lon": 14.1763232, "tags": {"hiking": "yes", "information": "guidepost", "operator": "local", "ref": "none", "tourism": "information"}}, {"type": "node", "id": 12959240738, "lat": 49.7039798, "lon": 14.1446651, "tags": {"board_type": "history", "information": "board", "name": "Z historie obce Vi\u0161\u0148ov\u00e1", "operator": "Obec Vi\u0161\u0148ov\u00e1", "ref": "none", "tourism": "information"}}, {"type": "node", "id": 12959240739, "lat": 49.7039609, "lon": 14.1447905, "tags": {"board_type": "notice", "check_date": "2025-06-24", "disused:amenity": "telephone", "information": "board", "man_made": "telephone_box", "tourism": "information"}}, {"type": "node", "id": 12959240740, "lat": 49.7058764, "lon": 14.1454071, "tags": {"information": "board", "name": "Star\u00e1 n\u00e1ves", "operator": "Obec Vi\u0161\u0148ov\u00e1", "ref": "none", "tourism": "information"}}, {"type": "node", "id": 12959240741, "lat": 49.7065179, "lon": 14.1484284, "tags": {"information": "board", "name": "Chalupa pana Humla", "operator": "Obec Vi\u0161\u0148ov\u00e1", "ref": "none", "tourism": "information"}}, {"type": "node", "id": 12959681438, "lat": 49.6703258, "lon": 14.1571226, "tags": {"information": "map", "map_size": "region", "map_type": "scheme", "name": "P\u0159\u00edbramsko", "tourism": "information"}}, {"type": "node", "id": 12959683487, "lat": 49.6879346, "lon": 14.1039656, "tags": {"amenity": "shelter", "shelter_type": "picnic_shelter"}}, {"type": "node", "id": 12960847567, "lat": 49.6741415, "lon": 14.0010593}, {"type": "node", "id": 12960847568, "lat": 49.6740218, "lon": 14.0009756}, {"type": "node", "id": 12960847569, "lat": 49.6740288, "lon": 14.0009517}, {"type": "node", "id": 12960847570, "lat": 49.6741485, "lon": 14.0010354}, {"type": "node", "id": 12976974589, "lat": 49.6763417, "lon": 14.1994053, "tags": {"ele": "445.9", "natural": "peak", "noname": "yes"}}, {"type": "node", "id": 12977096635, "lat": 49.6314748, "lon": 14.1888589, "tags": {"ele": "521.6", "name": "Na \u010de\u010duli", "natural": "peak"}}, {"type": "node", "id": 12977096639, "lat": 49.6241703, "lon": 14.1936344, "tags": {"ele": "438.2", "name": "Fu\u010d\u00edk", "natural": "peak"}}, {"type": "node", "id": 12977096642, "lat": 49.6300565, "lon": 14.1999133, "tags": {"ele": "516.8", "name": "Na alt\u00e1nku", "natural": "peak"}}, {"type": "node", "id": 12979333501, "lat": 49.6474585, "lon": 14.1944539, "tags": {"ele": "479.1", "natural": "peak", "noname": "yes"}}, {"type": "node", "id": 12979333502, "lat": 49.6460448, "lon": 14.1982627, "tags": {"ele": "484.1", "natural": "peak", "noname": "yes"}}, {"type": "node", "id": 12979333510, "lat": 49.6264677, "lon": 14.1861874, "tags": {"ele": "473.6", "natural": "peak", "noname": "yes"}}, {"type": "node", "id": 12979333511, "lat": 49.6288966, "lon": 14.1795945, "tags": {"ele": "455.3", "name": "Smoln\u00e1", "natural": "peak"}}, {"type": "node", "id": 12979333515, "lat": 49.6396253, "lon": 14.1864181, "tags": {"ele": "562", "name": "Bukovec", "natural": "peak"}}, {"type": "node", "id": 12979852711, "lat": 49.6037755, "lon": 14.1903963, "tags": {"ele": "435.1", "natural": "peak", "noname": "yes"}}, {"type": "node", "id": 12979852712, "lat": 49.6006601, "lon": 14.1906489, "tags": {"ele": "401.4", "natural": "peak", "noname": "yes"}}, {"type": "node", "id": 12979852713, "lat": 49.5971139, "lon": 14.1916533, "tags": {"ele": "392.5", "natural": "peak", "noname": "yes", "source": "cuzk:km"}}, {"type": "node", "id": 12979852715, "lat": 49.5928698, "lon": 14.1967764, "tags": {"ele": "429.1", "natural": "peak", "noname": "yes", "source": "cuzk:km"}}, {"type": "node", "id": 12979852741, "lat": 49.6065729, "lon": 14.1985132, "tags": {"ele": "490.2", "name": "Krchov", "natural": "peak"}}, {"type": "node", "id": 12979852742, "lat": 49.6059664, "lon": 14.1888417, "tags": {"ele": "438.3", "name": "Na kopci", "natural": "peak"}}, {"type": "node", "id": 12980177643, "lat": 49.5646958, "lon": 14.1654411, "tags": {"ele": "432", "natural": "peak", "noname": "yes", "source": "cuzk:km"}}, {"type": "node", "id": 12980177644, "lat": 49.5687272, "lon": 14.1752393, "tags": {"ele": "383.4", "natural": "peak", "noname": "yes", "source": "cuzk:km"}}, {"type": "node", "id": 12980177645, "lat": 49.5680022, "lon": 14.1961661, "tags": {"ele": "457.2", "natural": "peak", "noname": "yes", "source": "cuzk:km"}}, {"type": "node", "id": 12980177646, "lat": 49.5697297, "lon": 14.1956311, "tags": {"ele": "455.2", "natural": "peak", "noname": "yes", "source": "cuzk:km"}}, {"type": "node", "id": 12980177647, "lat": 49.5706544, "lon": 14.1859975, "tags": {"ele": "462.2", "natural": "peak", "noname": "yes", "source": "cuzk:km"}}, {"type": "node", "id": 12980177661, "lat": 49.5783996, "lon": 14.1849503, "tags": {"ele": "461", "natural": "peak", "noname": "yes", "source": "cuzk:km"}}, {"type": "node", "id": 12980177662, "lat": 49.5831641, "lon": 14.197639, "tags": {"ele": "442.7", "natural": "peak", "noname": "yes", "source": "cuzk:km"}}, {"type": "node", "id": 12980177666, "lat": 49.5854979, "lon": 14.1719599, "tags": {"ele": "421.3", "name": "Bo\u0159\u00edm", "natural": "peak", "source": "cuzk:km"}}, {"type": "node", "id": 12980177667, "lat": 49.58878, "lon": 14.1778472, "tags": {"ele": "373.7", "natural": "peak", "noname": "yes", "source": "cuzk:km"}}, {"type": "node", "id": 12980177668, "lat": 49.588654, "lon": 14.1867836, "tags": {"ele": "433.4", "name": "P\u00edse\u010dn\u00e1", "natural": "peak", "source": "cuzk:km"}}, {"type": "node", "id": 12980583820, "lat": 49.5554696, "lon": 14.2000137, "tags": {"ele": "472.5", "name": "Kl\u00ed\u010dn\u00e1", "natural": "peak", "source": "cuzk:km"}}, {"type": "node", "id": 12980715874, "lat": 49.5863903, "lon": 14.1968699, "tags": {"ele": "432.1", "natural": "peak", "noname": "yes", "source": "cuzk:km"}}, {"type": "node", "id": 12980715887, "lat": 49.5735879, "lon": 14.1937504, "tags": {"ele": "483.7", "name": "Drou\u017ekov\u00e1", "natural": "peak", "source": "cuzk:km"}}, {"type": "node", "id": 12995362354, "lat": 49.6059557, "lon": 14.1847664, "tags": {"board_type": "nature", "information": "board", "name": "Ryba\u0159en\u00ed na \u00fadoln\u00ed n\u00e1dr\u017ei Orl\u00edk", "tourism": "information"}}, {"type": "node", "id": 12995362355, "lat": 49.6059684, "lon": 14.1847021, "tags": {"board_type": "nature", "information": "board", "name": "Povod\u00ed Vltavy V\u00e1s v\u00edta na vodn\u00edm d\u00edle Orl\u00edk", "tourism": "information"}}, {"type": "node", "id": 13107928557, "lat": 49.6434388, "lon": 14.00711, "tags": {"ele": "599", "name": "M\u00fdto", "natural": "peak"}}, {"type": "node", "id": 13107928559, "lat": 49.6705541, "lon": 14.0369482, "tags": {"ele": "593", "name": "Holanec", "natural": "peak"}}, {"type": "node", "id": 13107928560, "lat": 49.680257, "lon": 14.0416938, "tags": {"ele": "603", "name": "Vr\u0161ce", "natural": "peak"}}, {"type": "node", "id": 13107928561, "lat": 49.6902546, "lon": 14.0502269, "tags": {"ele": "547", "name": "Vrchy", "natural": "peak"}}, {"type": "node", "id": 13347437035, "lat": 49.6943444, "lon": 14.022421, "tags": {"ele": "562", "name": "\u0160ibeni\u010dn\u00ed vrch", "natural": "peak"}}, {"type": "node", "id": 13347437036, "lat": 49.699226, "lon": 14.0369212, "tags": {"ele": "572", "name": "Pichce", "natural": "peak"}}, {"type": "node", "id": 13347437037, "lat": 49.6989017, "lon": 14.0116247, "tags": {"ele": "502", "name": "\u010cert\u016fv pahorek", "natural": "peak"}}, {"type": "node", "id": 13347437038, "lat": 49.7053717, "lon": 14.0255127, "tags": {"ele": "543", "name": "Kv\u011btn\u00e1", "natural": "peak"}}, {"type": "node", "id": 13347437039, "lat": 49.7104713, "lon": 14.0184297, "tags": {"ele": "480", "name": "Na Homoli", "natural": "peak"}}, {"type": "node", "id": 13347437040, "lat": 49.7107256, "lon": 14.0339788, "tags": {"ele": "559", "name": "Str\u00e1\u017en\u00fd", "natural": "peak"}}, {"type": "node", "id": 13347437041, "lat": 49.7075135, "lon": 14.0427655, "tags": {"ele": "572", "name": "Na Vart\u011b", "natural": "peak"}}, {"type": "node", "id": 13347437042, "lat": 49.7153006, "lon": 14.0377774, "tags": {"ele": "518", "name": "Jez\u00edrka", "natural": "peak"}}, {"type": "node", "id": 13347437043, "lat": 49.7214404, "lon": 14.0212893, "tags": {"ele": "516", "name": "Planiny", "natural": "peak"}}, {"type": "node", "id": 13347437044, "lat": 49.730515, "lon": 14.0190001, "tags": {"ele": "497", "name": "Homole", "natural": "peak"}}, {"type": "node", "id": 13347437045, "lat": 49.7348385, "lon": 14.0356646, "tags": {"ele": "527", "name": "Dr\u00e1ska", "natural": "peak"}}, {"type": "node", "id": 13347437046, "lat": 49.7458724, "lon": 14.0301915, "tags": {"ele": "547", "name": "Kobyla", "natural": "peak"}}, {"type": "node", "id": 13347437047, "lat": 49.7247586, "lon": 14.0678008, "tags": {"ele": "505", "name": "Kosovec", "natural": "peak"}}, {"type": "node", "id": 13347437048, "lat": 49.727066, "lon": 14.0718775, "tags": {"ele": "490", "name": "Nekoln\u00fdch vr\u0161ek", "natural": "peak"}}, {"type": "node", "id": 13347437049, "lat": 49.7262518, "lon": 14.0778385, "tags": {"ele": "472", "name": "Vr\u0161ek", "natural": "peak"}}, {"type": "node", "id": 13347437050, "lat": 49.7306422, "lon": 14.0720367, "tags": {"ele": "485", "name": "Katov", "natural": "peak"}}, {"type": "node", "id": 13347437051, "lat": 49.7329846, "lon": 14.0762366, "tags": {"name": "Kotrou\u0161ovic vr\u0161ek", "natural": "peak"}}, {"type": "node", "id": 13347437052, "lat": 49.7445186, "lon": 14.0803869, "tags": {"ele": "471", "name": "Sedlo", "natural": "peak"}}, {"type": "node", "id": 13347437055, "lat": 49.7302167, "lon": 14.1419741, "tags": {"ele": "442", "name": "Na Vr\u0161\u00edch", "natural": "peak"}}, {"type": "node", "id": 13347437057, "lat": 49.7511273, "lon": 14.0102822, "tags": {"ele": "494", "name": "Pra\u0161iv\u00fd vr\u0161ek", "natural": "peak"}}, {"type": "way", "id": 72137511, "nodes": [4580447580, 857535201, 8524600209, 857534909, 857534285, 8524600201, 857536632, 8524600202, 857534220, 8524616225, 857537814, 8524600205, 8524616226, 8524616228, 8524616227, 857533477, 5923978514, 4580448693, 857536299, 857536167, 857533217, 2027117813, 5923978512, 857536410, 857533563, 857533892, 857537711, 2766922109, 2027117822, 4580447580], "tags": {"building": "yes", "layer": "-1", "name": "Svatohorsk\u00e9 schody", "source": "cuzk:km", "tourism": "attraction", "wheelchair": "no"}}, {"type": "way", "id": 187290475, "nodes": [1980090853, 1980090852, 1980090840, 1980090841, 1980090853], "tags": {"amenity": "shelter", "building": "yes", "shelter_type": "public_transport"}}, {"type": "way", "id": 187290486, "nodes": [1980090836, 1980090835, 1980090829, 1980090830, 1980090836], "tags": {"amenity": "shelter", "building": "yes", "shelter_type": "public_transport"}}, {"type": "way", "id": 199339035, "nodes": [11662992335, 11662992340, 659510069, 11662992336, 659510061, 2093415818, 11662992335], "tags": {"amenity": "shelter", "building": "yes", "building:ruian:type": "19", "layer": "2", "ref:ruian:building": "50405977", "source": "cuzk:ruian"}}, {"type": "way", "id": 228037167, "nodes": [2366842118, 2366842117, 2366842115, 2366842116, 2366842118], "tags": {"amenity": "shelter", "building": "transportation", "building:ruian:type": "5", "ref:ruian:building": "44499591", "shelter_type": "public_transport", "source": "cuzk:ruian"}}, {"type": "way", "id": 445002540, "nodes": [1781037119, 1781037052, 1781037011, 1781037077, 1781037119], "tags": {"amenity": "shelter", "building": "transportation", "building:ruian:type": "15", "ref:ruian:building": "38662116", "shelter_type": "public_transport", "source": "cuzk:ruian"}}, {"type": "way", "id": 445006659, "nodes": [4424627675, 4424627676, 4424627668, 4424627666, 4424627675], "tags": {"amenity": "shelter", "building": "transportation", "building:ruian:type": "5", "ref:ruian:building": "44479506", "shelter_type": "public_transport", "source": "cuzk:ruian"}}, {"type": "way", "id": 1232708379, "nodes": [11435197948, 11435197949, 11435197950, 11435197951, 11435197948], "tags": {"amenity": "shelter", "building": "yes", "shelter_type": "public_transport"}}, {"type": "way", "id": 1232708380, "nodes": [11435197952, 11435197953, 11435197954, 11435197955, 11435197952], "tags": {"amenity": "shelter", "building": "yes", "shelter_type": "public_transport"}}, {"type": "way", "id": 1246088802, "nodes": [11584554732, 11584554733, 11584554734, 11584554735, 11584554732], "tags": {"amenity": "shelter", "building": "yes", "shelter_type": "public_transport"}}, {"type": "way", "id": 1246088803, "nodes": [11584554736, 11584554737, 11584554738, 11584554739, 11584554736], "tags": {"amenity": "shelter", "building": "yes", "shelter_type": "public_transport"}}, {"type": "way", "id": 1300523751, "nodes": [12045940503, 12045940504, 12045940505, 12045940506, 12045940503], "tags": {"amenity": "shelter", "building": "yes"}}, {"type": "way", "id": 1301968568, "nodes": [12058958691, 12058958692, 12058958693, 12058958694, 12058958691], "tags": {"amenity": "shelter", "building": "yes", "shelter_type": "public_transport"}}, {"type": "way", "id": 1301968569, "nodes": [12058958695, 12058958696, 12058958697, 12058958698, 12058958695], "tags": {"amenity": "shelter", "building": "yes", "shelter_type": "public_transport"}}, {"type": "way", "id": 1301988415, "nodes": [12059167162, 12059167163, 12059167164, 12059167165, 12059167162], "tags": {"amenity": "shelter", "building": "yes", "shelter_type": "public_transport"}}, {"type": "way", "id": 1410521075, "nodes": [12960847567, 12960847568, 12960847569, 12960847570, 12960847567], "tags": {"amenity": "shelter", "bench": "yes", "bin": "yes", "building": "yes", "lit": "yes", "shelter_type": "public_transport"}}]}